[{"Sequence": 1, "PersonId": 129765, "AddressId": 1470270, "Specialty": "General Practice", "Photo": "findadentist.ada.org/Images/Profile/129765-Dr-Dawn-Powell.png", "Name": "Dr. Dawn M Powell", "Email": "", "Phone": "(212) 423-8385", "Address": "1901 1st Ave New York, NY 10029-7404", "City": "New York", "State": "NY", "Zip": "10029-7404", "AddressLine1": "1901 1st Ave", "AddressLine2": "", "Distance": 0.5, "Latitude": 40.78491, "Longitude": -73.94417}, {"Sequence": 2, "PersonId": 146678, "AddressId": 3527170, "Specialty": "Oral and Maxillofacial Surgery", "Photo": "findadentist.ada.org/Images/Profile/146678-Dr-Adam-Brisman.png", "Name": "Dr. Adam S Brisman", "Email": "", "Phone": "(212) 348-0020", "Address": "231 E 106th St New York, NY 10029-4005", "City": "New York", "State": "NY", "Zip": "10029-4005", "AddressLine1": "231 E 106th St", "AddressLine2": "", "Distance": 0.1, "Latitude": 40.79114, "Longitude": -73.94319}, {"Sequence": 3, "PersonId": 129747, "AddressId": 1470252, "Specialty": "General Practice", "Photo": "findadentist.ada.org/Images/Profile/129747-Dr-Shoshana-Honikman.png", "Name": "Dr. Shoshana Honikman", "Email": "", "Phone": "(212) 426-8202", "Address": "2132 2nd Ave New York, NY 10029-3369", "City": "New York", "State": "NY", "Zip": "10029-3369", "AddressLine1": "2132 2nd Ave", "AddressLine2": "", "Distance": 0.2, "Latitude": 40.79293, "Longitude": -73.94041}, {"Sequence": 4, "PersonId": 38821, "AddressId": 2764116, "Specialty": "General Practice", "Photo": "findadentist.ada.org/Images/Profile/ADA.png", "Name": "Dr Morton Julius", "Email": "", "Phone": "(212) 831-0924", "Address": "2253 2nd Ave New York, NY 10029-2211", "City": "New York", "State": "NY", "Zip": "10029-2211", "AddressLine1": "2253 2nd Ave", "AddressLine2": "", "Distance": 0.5, "Latitude": 40.79684, "Longitude": -73.9382}, {"Sequence": 5, "PersonId": 52969, "AddressId": 1393474, "Specialty": "Oral and Maxillofacial Pathology", "Photo": "findadentist.ada.org/Images/Profile/ADA.png", "Name": "Dr Naomi Fusco-Ramer", "Email": "", "Phone": "(212) 241-7215", "Address": "1 Gustave L Levy Pl Ste 1194 New York, NY 10029-6504", "City": "New York", "State": "NY", "Zip": "10029-6504", "AddressLine1": "1 Gustave L Levy Pl Ste 1194", "AddressLine2": "", "Distance": 0.5, "Latitude": 40.78999, "Longitude": -73.95369}, {"Sequence": 6, "PersonId": 117239, "AddressId": 1457744, "Specialty": "Oral and Maxillofacial Surgery", "Photo": "findadentist.ada.org/Images/Profile/ADA.png", "Name": "Dr. Brett A Miles", "Email": "", "Phone": "(212) 241-8331", "Address": "1 Gustave L Levy Pl New York, NY 10029-6504", "City": "New York", "State": "NY", "Zip": "10029-6504", "AddressLine1": "1 Gustave L Levy Pl", "AddressLine2": "", "Distance": 0.5, "Latitude": 40.78999, "Longitude": -73.95369}, {"Sequence": 7, "PersonId": 48416, "AddressId": 2728662, "Specialty": "General Practice", "Photo": "findadentist.ada.org/Images/Profile/ADA.png", "Name": "Dr David Kirshenbaum", "Email": "", "Phone": null, "Address": "1916 3rd Ave New York, NY 10029-4663", "City": "New York", "State": "NY", "Zip": "10029-4663", "AddressLine1": "1916 3rd Ave", "AddressLine2": "", "Distance": 0.0, "Latitude": 40.79148, "Longitude": -73.94512}, {"Sequence": 8, "PersonId": 43083, "AddressId": 1383588, "Specialty": "General Practice", "Photo": "findadentist.ada.org/Images/Profile/ADA.png", "Name": "Dr. Gregory L Oselkin", "Email": "", "Phone": "(212) 996-0900", "Address": "2027 3rd Ave New York, NY 10029-2858", "City": "New York", "State": "NY", "Zip": "10029-2858", "AddressLine1": "2027 3rd Ave", "AddressLine2": "", "Distance": 0.3, "Latitude": 40.79482, "Longitude": -73.94191}]