[{"Sequence": 1, "PersonId": 55318, "AddressId": 3545378, "Specialty": "Oral and Maxillofacial Surgery", "Photo": "findadentist.ada.org/Images/Profile/55318-Dr-Paul-Gates.png", "Name": "Paul Gates", "Email": "pgates@bronxleb.org", "Phone": "(718) 901-8110", "Address": "1775 Grand Concourse Bronx, NY 10453-8202", "City": "Bronx", "State": "NY", "Zip": "10453-8202", "AddressLine1": "1775 Grand Concourse", "AddressLine2": "Bronx Lebanon Hosp Ctr", "Distance": 1.1, "Latitude": 40.86047, "Longitude": -73.89761}, {"Sequence": 2, "PersonId": 197806, "AddressId": 1538311, "Specialty": "General Practice", "Photo": "findadentist.ada.org/Images/Profile/197806-Dr-Richard-Buffong.png", "Name": "Dr. Richard E Buffong", "Email": "", "Phone": "(908) 241-6455", "Address": "865 Teaneck Rd Teaneck, NJ 07666-4315", "City": "Teaneck", "State": "NJ", "Zip": "07666-4315", "AddressLine1": "865 Teaneck Rd", "AddressLine2": "", "Distance": 5.3, "Latitude": 40.88524, "Longitude": -74.00599}, {"Sequence": 3, "PersonId": 49001, "AddressId": 2760223, "Specialty": "General Practice", "Photo": "findadentist.ada.org/Images/Profile/49001-Dr-Terry-Geller.png", "Name": "Dr Terry M Geller", "Email": "gellerfamilydental@gmail.com", "Phone": "(914) 776-1122", "Address": "850 Bronx River Rd Yonkers, NY 10708-7013", "City": "Yonkers", "State": "NY", "Zip": "10708-7013", "AddressLine1": "850 Bronx River Rd", "AddressLine2": "", "Distance": 6.5, "Latitude": 40.92777, "Longitude": -73.8422}, {"Sequence": 4, "PersonId": 270269, "AddressId": 3095360, "Specialty": "General Practice", "Photo": "findadentist.ada.org/Images/Profile/270269-Dr-Phillip-Claassen.png", "Name": "Dr. Phillip J Claassen", "Email": "info@wellspringbk.com", "Phone": "(718) 625-2929", "Address": "441 Clinton St Brooklyn, NY 11231-3404", "City": "Brooklyn", "State": "NY", "Zip": "11231-3404", "AddressLine1": "441 Clinton St", "AddressLine2": "", "Distance": 12.6, "Latitude": 40.68097, "Longitude": -73.99858}, {"Sequence": 5, "PersonId": 42374, "AddressId": 3578911, "Specialty": "Prosthodontics", "Photo": "findadentist.ada.org/Images/Profile/42374-Dr-Edward-Stiel.png", "Name": "Dr Edward S Stiel", "Email": "", "Phone": "(718) 339-1122", "Address": "2469 65Th St Ste M1 Brooklyn, NY 11204-4171", "City": "Brooklyn", "State": "NY", "Zip": "11204-4171", "AddressLine1": "2469 65Th St Ste M1", "AddressLine2": "", "Distance": 17.0, "Latitude": 40.61033, "Longitude": -73.97503}, {"Sequence": 6, "PersonId": 130327, "AddressId": 1470832, "Specialty": "General Practice", "Photo": "findadentist.ada.org/Images/Profile/130327-Dr-Joseph-D'Amore.png", "Name": "Dr. Joseph D'Amore", "Email": "info@englewooddental.com", "Phone": "(201) 871-3555", "Address": "370 Grand Ave Suite 200 Englewood, NJ 07631-4109", "City": "Englewood", "State": "NJ", "Zip": "07631-4109", "AddressLine1": "370 Grand Ave Suite 200", "AddressLine2": "", "Distance": 3.9, "Latitude": 40.88109, "Longitude": -73.97924}, {"Sequence": 7, "PersonId": 43349, "AddressId": 1383854, "Specialty": "General Practice", "Photo": "findadentist.ada.org/Images/Profile/43349-Dr-Jeffrey-Kramer.png", "Name": "Dr Jeffrey M Kramer", "Email": "jeffreykramerdmd@verizon.net", "Phone": "(718) 624-5554", "Address": "544 Court St Brooklyn, NY 11231-3923", "City": "Brooklyn", "State": "NY", "Zip": "11231-3923", "AddressLine1": "544 Court St", "AddressLine2": "", "Distance": 12.9, "Latitude": 40.67537, "Longitude": -73.99954}, {"Sequence": 8, "PersonId": 32002, "AddressId": 1372507, "Specialty": "Periodontics", "Photo": "findadentist.ada.org/Images/Profile/32002-Dr-Steven-Scrivo.png", "Name": "Dr Steven R Scrivo", "Email": "", "Phone": "(973) 226-0063", "Address": "185 Fairfield Ave Ste 4A West Caldwell, NJ 07006-6417", "City": "West Caldwell", "State": "NJ", "Zip": "07006-6417", "AddressLine1": "185 Fairfield Ave Ste 4A", "AddressLine2": "", "Distance": 19.3, "Latitude": 40.86004, "Longitude": -74.28519}, {"Sequence": 9, "PersonId": 156450, "AddressId": 2805615, "Specialty": "General Practice", "Photo": "findadentist.ada.org/Images/Profile/156450-Dr-Matthew-Lieberman.png", "Name": "Dr. Matthew S Lieberman", "Email": "matthewlieberman@yahoo.com", "Phone": null, "Address": "1954 Kimball St Brooklyn, NY 11234-4512", "City": "Brooklyn", "State": "NY", "Zip": "11234-4512", "AddressLine1": "1954 Kimball St", "AddressLine2": "", "Distance": 16.6, "Latitude": 40.61211, "Longitude": -73.92937}, {"Sequence": 10, "PersonId": 40572, "AddressId": 1381077, "Specialty": "Oral and Maxillofacial Surgery", "Photo": "findadentist.ada.org/Images/Profile/40572-Dr-Louis-Wolf.png", "Name": "Dr Louis R Wolf", "Email": "", "Phone": "(212) 223-0320", "Address": "488 Madison Ave Ste 200 New York, NY 10022-5735", "City": "New York", "State": "NY", "Zip": "10022-5735", "AddressLine1": "488 Madison Ave Ste 200", "AddressLine2": null, "Distance": 7.1, "Latitude": 40.75885, "Longitude": -73.97533}, {"Sequence": 11, "PersonId": 55187, "AddressId": 2699473, "Specialty": "Endodontics", "Photo": "findadentist.ada.org/Images/Profile/55187-Dr-Richard-Weiss.png", "Name": "Dr Richard R Weiss", "Email": "", "Phone": null, "Address": "3443 213th St Bayside, NY 11361-1554", "City": "Bayside", "State": "NY", "Zip": "11361-1554", "AddressLine1": "3443 213th St", "AddressLine2": "", "Distance": 9.3, "Latitude": 40.76904, "Longitude": -73.77453}, {"Sequence": 12, "PersonId": 268851, "AddressId": 3550598, "Specialty": "General Practice", "Photo": "findadentist.ada.org/Images/Profile/268851-Dr-Andrew-Jursik.png", "Name": "Dr. Andrew J Jursik, III", "Email": "", "Phone": "(973) 239-5400", "Address": "28 Bowden Road Cedar Grove, NJ 07009", "City": "Cedar Grove", "State": "NJ", "Zip": "07009", "AddressLine1": "28 Bowden Road", "AddressLine2": "", "Distance": 16.4, "Latitude": 40.85241, "Longitude": -74.22869}, {"Sequence": 13, "PersonId": 51732, "AddressId": 3578807, "Specialty": "Oral and Maxillofacial Surgery", "Photo": "findadentist.ada.org/Images/Profile/51732-Dr-Eugene-Pezzollo.png", "Name": "Dr Eugene Pezzollo", "Email": "managergc@progressiveoralsurgery.com", "Phone": "(516) 482-0329", "Address": "23 Bond St Great Neck, NY 11021-2019", "City": "Great Neck", "State": "NY", "Zip": "11021-2019", "AddressLine1": "23 Bond St", "AddressLine2": "", "Distance": 10.7, "Latitude": 40.78991, "Longitude": -73.72751}, {"Sequence": 14, "PersonId": 234060, "AddressId": 1574565, "Specialty": "General Practice", "Photo": "findadentist.ada.org/Images/Profile/234060-Dr-Erin-Welfel.png", "Name": "Dr. Erin N Welfel", "Email": "", "Phone": "(201) 933-9092", "Address": "470 Clifton Ave Clifton, NJ 07011-3262", "City": "Clifton", "State": "NJ", "Zip": "07011-3262", "AddressLine1": "470 Clifton Ave", "AddressLine2": "", "Distance": 12.1, "Latitude": 40.87447, "Longitude": -74.1458}, {"Sequence": 15, "PersonId": 37476, "AddressId": 3545351, "Specialty": "Periodontics", "Photo": "findadentist.ada.org/Images/Profile/37476-Dr-Susan-Karabin.png", "Name": "Dr Susan Karabin", "Email": "info@perionyc.com", "Phone": "(212) 756-8890", "Address": "218 E 61st St New York, NY 10065-8506", "City": "New York", "State": "NY", "Zip": "10065-8506", "AddressLine1": "218 E 61st St", "AddressLine2": "", "Distance": 6.7, "Latitude": 40.76231, "Longitude": -73.96494}, {"Sequence": 16, "PersonId": 254991, "AddressId": 2804483, "Specialty": "General Practice", "Photo": "findadentist.ada.org/Images/Profile/254991-Dr-Ishwinder-Saran.png", "Name": "Ishwinder Saran", "Email": "office@licdentalassociates.com", "Phone": "(718) 530-6539", "Address": "5002 5th St # B Long Island City, NY 11101-5706", "City": "Long Island City", "State": "NY", "Zip": "11101-5706", "AddressLine1": "5002 5th St # B", "AddressLine2": "", "Distance": 7.8, "Latitude": 40.74284, "Longitude": -73.95675}, {"Sequence": 17, "PersonId": 40914, "AddressId": 2706067, "Specialty": "Orthodontics and Dentofacial Orthopedics", "Photo": "findadentist.ada.org/Images/Profile/40914-Dr-Ted-Wohl.png", "Name": "Dr Ted S Wohl", "Email": "smilealign1@gmail.com", "Phone": null, "Address": "400 W End Ave New York, NY 10024-5750", "City": "New York", "State": "NY", "Zip": "10024-5750", "AddressLine1": "400 W End Ave", "AddressLine2": "", "Distance": 5.8, "Latitude": 40.78445, "Longitude": -73.98066}, {"Sequence": 18, "PersonId": 32181, "AddressId": 2950698, "Specialty": "General Practice", "Photo": "findadentist.ada.org/Images/Profile/32181-Dr-Raphael-Levine.png", "Name": "Dr Raphael J Levine", "Email": "randmlevine@aol.com", "Phone": "(201) 437-0066", "Address": "915 Avenue C Bayonne, NJ 07002-3013", "City": "Bayonne", "State": "NJ", "Zip": "07002-3013", "AddressLine1": "915 Avenue C", "AddressLine2": "", "Distance": 15.6, "Latitude": 40.67938, "Longitude": -74.10895}, {"Sequence": 19, "PersonId": 48891, "AddressId": 3518232, "Specialty": "Oral and Maxillofacial Surgery", "Photo": "findadentist.ada.org/Images/Profile/48891-Dr-Richard-Kraut.png", "Name": "Dr. Richard A Kraut", "Email": "rkraut@montefiore.org", "Phone": "(718) 920-4984", "Address": "3332 Rochambeau Ave Fl 2 Bronx, NY 10467-2836", "City": "Bronx", "State": "NY", "Zip": "10467-2836", "AddressLine1": "3332 Rochambeau Ave Fl 2", "AddressLine2": "", "Distance": 2.7, "Latitude": 40.87925, "Longitude": -73.87985}, {"Sequence": 20, "PersonId": 194158, "AddressId": 3419010, "Specialty": "Prosthodontics", "Photo": "findadentist.ada.org/Images/Profile/194158-Dr-Diana-Lee.png", "Name": "Dr. Diana Lee", "Email": "smiledynamic@gmail.com", "Phone": "(212) 219-8230", "Address": "80 Bowery New York, NY 10013-4614", "City": "New York", "State": "NY", "Zip": "10013-4614", "AddressLine1": "80 Bowery", "AddressLine2": "Dynamic Smile Dental #400", "Distance": 10.2, "Latitude": 40.71706, "Longitude": -73.99599}, {"Sequence": 21, "PersonId": 52007, "AddressId": 3039469, "Specialty": "Oral and Maxillofacial Surgery", "Photo": "findadentist.ada.org/Images/Profile/52007-Dr-Stephen-Quarcoo.png", "Name": "Dr Stephen T M Quarcoo", "Email": "", "Phone": "(917) 554-7286", "Address": "104 Park Pl Brooklyn, NY 11217-3303", "City": "Brooklyn", "State": "NY", "Zip": "11217-3303", "AddressLine1": "104 Park Pl", "AddressLine2": "", "Distance": 12.4, "Latitude": 40.67817, "Longitude": -73.97506}, {"Sequence": 22, "PersonId": 41228, "AddressId": 1381733, "Specialty": "General Practice", "Photo": "findadentist.ada.org/Images/Profile/41228-Dr-Joseph-Rahabi.png", "Name": "Dr Joseph Rahabi", "Email": "", "Phone": "(718) 382-6300", "Address": "1227 Avenue Y Brooklyn, NY 11235-4205", "City": "Brooklyn", "State": "NY", "Zip": "11235-4205", "AddressLine1": "1227 Avenue Y", "AddressLine2": "", "Distance": 18.2, "Latitude": 40.59005, "Longitude": -73.95777}, {"Sequence": 23, "PersonId": 191869, "AddressId": 1532374, "Specialty": "General Practice", "Photo": "findadentist.ada.org/Images/Profile/191869-Dr-Samuel-Lin.png", "Name": "Dr. Samuel S Lin", "Email": "ssl2@me.com", "Phone": "(718) 365-4300", "Address": "466 E Fordham Rd Bronx, NY 10458-5108", "City": "Bronx", "State": "NY", "Zip": "10458-5108", "AddressLine1": "466 E Fordham Rd", "AddressLine2": "", "Distance": 1.5, "Latitude": 40.86039, "Longitude": -73.88938}, {"Sequence": 24, "PersonId": 129504, "AddressId": 3432531, "Specialty": "Oral and Maxillofacial Surgery", "Photo": "findadentist.ada.org/Images/Profile/129504-Dr-Kristin-Miles.png", "Name": "Dr. Kristin M Miles", "Email": "", "Phone": "(212) 362-7872", "Address": "155 W 68th St Apt 226 New York, NY 10023-5824", "City": "New York", "State": "NY", "Zip": "10023-5824", "AddressLine1": "155 W 68th St Apt 226", "AddressLine2": "", "Distance": 6.3, "Latitude": 40.77613, "Longitude": -73.98277}, {"Sequence": 25, "PersonId": 145689, "AddressId": 2824018, "Specialty": "General Practice", "Photo": "findadentist.ada.org/Images/Profile/145689-Dr-Supriya-Verma.png", "Name": "Dr. Supriya Verma", "Email": "supriyadmd@gmail.com", "Phone": "(718) 699-8268", "Address": "59-04 Junction Blvd Rego Park, NY 11373", "City": "Rego Park", "State": "NY", "Zip": "11373", "AddressLine1": "59-04 Junction Blvd", "AddressLine2": "", "Distance": 8.5, "Latitude": 40.73509, "Longitude": -73.86523}, {"Sequence": 26, "PersonId": 223669, "AddressId": 1564174, "Specialty": "General Practice", "Photo": "findadentist.ada.org/Images/Profile/223669-Dr-Rachna-Thakker.png", "Name": "Dr. Rachna H Thakker", "Email": "info@VibrantSmilesDentalNJ.com", "Phone": "(973) 859-0501", "Address": "1187 Main Ave Ste 1E Clifton, NJ 07011", "City": "Clifton", "State": "NJ", "Zip": "07011", "AddressLine1": "1187 Main Ave Ste 1E", "AddressLine2": "", "Distance": 11.9, "Latitude": 40.87613, "Longitude": -74.1412}, {"Sequence": 27, "PersonId": 37424, "AddressId": 1377929, "Specialty": "Endodontics", "Photo": "findadentist.ada.org/Images/Profile/37424-Dr-Syngcuk-Kim.png", "Name": "Dr Syngcuk Kim", "Email": "", "Phone": "(212) 757-1000", "Address": "630 5th Ave Ste 1863 New York, NY 10111-1864", "City": "New York", "State": "NY", "Zip": "10111-1864", "AddressLine1": "630 5th Ave Ste 1863", "AddressLine2": "", "Distance": 7.2, "Latitude": 40.75899, "Longitude": -73.9773}, {"Sequence": 28, "PersonId": 116693, "AddressId": 3470994, "Specialty": "General Practice", "Photo": "findadentist.ada.org/Images/Profile/116693-Dr-John-Shi.png", "Name": "Dr. John L Shi", "Email": "drshidental@gmail.com", "Phone": "(212) 925-7066", "Address": "139 Centre St Ste 306 New York, NY 10013-4554", "City": "New York", "State": "NY", "Zip": "10013-4554", "AddressLine1": "139 Centre St Ste 306", "AddressLine2": "", "Distance": 10.3, "Latitude": 40.71748, "Longitude": -74.0007}, {"Sequence": 29, "PersonId": 232314, "AddressId": 3321591, "Specialty": "Oral and Maxillofacial Surgery", "Photo": "findadentist.ada.org/Images/Profile/232314-Dr-Avi-Feygin.png", "Name": "Dr. Avi Feygin", "Email": "", "Phone": "(718) 998-9114", "Address": "1777 Ocean Pkwy Ste 1 Brooklyn, NY 11223-2060", "City": "Brooklyn", "State": "NY", "Zip": "11223-2060", "AddressLine1": "1777 Ocean Pkwy Ste 1", "AddressLine2": "", "Distance": 17.2, "Latitude": 40.60562, "Longitude": -73.96634}, {"Sequence": 30, "PersonId": 199873, "AddressId": 1540378, "Specialty": "Orthodontics and Dentofacial Orthopedics", "Photo": "findadentist.ada.org/Images/Profile/199873-Dr-Jenny-Zhu.png", "Name": "Dr. Jenny Zhu", "Email": "mbo@mbo.nyc", "Phone": "(212) 274-0477", "Address": "77 Bowery Fl 6 New York, NY 10002-4915", "City": "New York", "State": "NY", "Zip": "10002-4915", "AddressLine1": "77 Bowery Fl 6", "AddressLine2": "", "Distance": 10.2, "Latitude": 40.71657, "Longitude": -73.99538}, {"Sequence": 31, "PersonId": 116537, "AddressId": 3561398, "Specialty": "General Practice", "Photo": "findadentist.ada.org/Images/Profile/116537-Dr-Francis-Shin.png", "Name": "Dr. Francis Shin", "Email": "info@ValleyGreenwichDental.com", "Phone": "(203) 625-0301", "Address": "25 Valley Dr Ste 2 Greenwich, CT 06831-5203", "City": "Greenwich", "State": "CT", "Zip": "06831-5203", "AddressLine1": "25 Valley Dr Ste 2", "AddressLine2": "", "Distance": 18.3, "Latitude": 41.02021, "Longitude": -73.64484}, {"Sequence": 32, "PersonId": 39586, "AddressId": 2905219, "Specialty": "General Practice", "Photo": "findadentist.ada.org/Images/Profile/39586-Dr-Phyllis-Ho.png", "Name": "Dr Phyllis Ho", "Email": "drphyllisho@yahoo.com", "Phone": "(212) 750-3024", "Address": "420 Madison Ave Rm 1003 New York, NY 10017-1188", "City": "New York", "State": "NY", "Zip": "10017-1188", "AddressLine1": "420 Madison Ave Rm 1003", "AddressLine2": "", "Distance": 7.3, "Latitude": 40.75703, "Longitude": -73.9765}, {"Sequence": 33, "PersonId": 42406, "AddressId": 3506140, "Specialty": "Oral and Maxillofacial Surgery", "Photo": "findadentist.ada.org/Images/Profile/42406-Dr-Steven-Schwartz.png", "Name": "Dr Steven R Schwartz", "Email": "office@nyomsurgeons.com", "Phone": "(718) 946-6600", "Address": "2844 Ocean Pkwy Ste B2 Brooklyn, NY 11235-7904", "City": "Brooklyn", "State": "NY", "Zip": "11235-7904", "AddressLine1": "2844 Ocean Pkwy Ste B2", "AddressLine2": "", "Distance": 18.9, "Latitude": 40.58093, "Longitude": -73.96835}, {"Sequence": 34, "PersonId": 195391, "AddressId": 3506657, "Specialty": "General Practice", "Photo": "findadentist.ada.org/Images/Profile/195391-Dr-Lee-Plutzer.png", "Name": "Dr. Lee Plutzer", "Email": "", "Phone": "(212) 697-4690", "Address": "304 E 41st St New York, NY 10017-5949", "City": "New York", "State": "NY", "Zip": "10017-5949", "AddressLine1": "304 E 41st St", "AddressLine2": "Tudor City Dental", "Distance": 7.7, "Latitude": 40.7487, "Longitude": -73.97218}, {"Sequence": 35, "PersonId": 31025, "AddressId": 1371530, "Specialty": "General Practice", "Photo": "findadentist.ada.org/Images/Profile/31025-Dr-Archer-Katz.png", "Name": "Dr. Arch M Katz", "Email": "", "Phone": "(201) 261-3364", "Address": "310 Main St Emerson, NJ 07630-1320", "City": "Emerson", "State": "NJ", "Zip": "07630-1320", "AddressLine1": "310 Main St", "AddressLine2": "", "Distance": 10.0, "Latitude": 40.97726, "Longitude": -74.01085}, {"Sequence": 36, "PersonId": 190132, "AddressId": 1530637, "Specialty": "General Practice", "Photo": "findadentist.ada.org/Images/Profile/190132-Dr-Cynthia-Leung.png", "Name": "Dr. Cynthia M Leung", "Email": "", "Phone": "(201) 653-2929", "Address": "79 Hudson St Ste 508 Hoboken, NJ 07030-5642", "City": "Hoboken", "State": "NJ", "Zip": "07030-5642", "AddressLine1": "79 Hudson St Ste 508", "AddressLine2": "", "Distance": 10.0, "Latitude": 40.73626, "Longitude": -74.02981}, {"Sequence": 37, "PersonId": 40887, "AddressId": 3551480, "Specialty": "General Practice", "Photo": "findadentist.ada.org/Images/Profile/40887-Dr-John-Lhota.png", "Name": "Dr John F Lhota", "Email": "", "Phone": "(212) 579-8885", "Address": "25 W 68th St # 1A New York, NY 10023-5302", "City": "New York", "State": "NY", "Zip": "10023-5302", "AddressLine1": "25 W 68th St # 1A", "AddressLine2": "", "Distance": 6.3, "Latitude": 40.77435, "Longitude": -73.97903}, {"Sequence": 38, "PersonId": 54707, "AddressId": 2806194, "Specialty": "Periodontics", "Photo": "findadentist.ada.org/Images/Profile/54707-Dr-Gregory-Davis.png", "Name": "Dr Gregory A Davis", "Email": "", "Phone": "(516) 775-0018", "Address": "2001 Marcus Ave Ste E244 New Hyde Park, NY 11042-1011", "City": "New Hyde Park", "State": "NY", "Zip": "11042-1011", "AddressLine1": "2001 Marcus Ave Ste E244", "AddressLine2": "", "Distance": 13.5, "Latitude": 40.75554, "Longitude": -73.68998}, {"Sequence": 39, "PersonId": 168808, "AddressId": 3387527, "Specialty": "General Practice", "Photo": "findadentist.ada.org/Images/Profile/168808-Dr-Stephen-Lim.png", "Name": "Dr. Stephen Lim", "Email": "info@slimdental.com", "Phone": "(646) 762-0256", "Address": "1400 York Ave New York, NY 10021-3443", "City": "New York", "State": "NY", "Zip": "10021-3443", "AddressLine1": "1400 York Ave", "AddressLine2": "", "Distance": 6.1, "Latitude": 40.76828, "Longitude": -73.9523}, {"Sequence": 40, "PersonId": 40861, "AddressId": 3493470, "Specialty": "Periodontics", "Photo": "findadentist.ada.org/Images/Profile/40861-Dr-Clifford-Melnick.png", "Name": "Dr Clifford Melnick", "Email": "office@drmelnick.com", "Phone": "(212) 355-1266", "Address": "136 E 64th St Apt 1C New York, NY 10065-7380", "City": "New York", "State": "NY", "Zip": "10065-7380", "AddressLine1": "136 E 64th St Apt 1C", "AddressLine2": "", "Distance": 6.5, "Latitude": 40.76535, "Longitude": -73.96629}, {"Sequence": 41, "PersonId": 52188, "AddressId": 3039471, "Specialty": "General Practice", "Photo": "findadentist.ada.org/Images/Profile/52188-Dr-Mark-Lefkovitz.png", "Name": "Dr Mark Lefkovitz", "Email": "", "Phone": "(718) 435-7996", "Address": "5019 20th Ave Brooklyn, NY 11204-1723", "City": "Brooklyn", "State": "NY", "Zip": "11204-1723", "AddressLine1": "5019 20th Ave", "AddressLine2": "", "Distance": 16.0, "Latitude": 40.62437, "Longitude": -73.97729}, {"Sequence": 42, "PersonId": 129474, "AddressId": 1469979, "Specialty": "Orthodontics and Dentofacial Orthopedics", "Photo": "findadentist.ada.org/Images/Profile/129474-Dr-May-Chu.png", "Name": "Dr. May P Chu", "Email": "braces4u2004@yahoo.com", "Phone": "(914) 961-1620", "Address": "1740 Central Park Ave Yonkers, NY 10710-3633", "City": "Yonkers", "State": "NY", "Zip": "10710-3633", "AddressLine1": "1740 Central Park Ave", "AddressLine2": "", "Distance": 8.3, "Latitude": 40.95811, "Longitude": -73.84136}, {"Sequence": 43, "PersonId": 31952, "AddressId": 3025138, "Specialty": "General Practice", "Photo": "findadentist.ada.org/Images/Profile/31952-Dr-Robert-Shekitka.png", "Name": "Dr Robert A Shekitka", "Email": "", "Phone": "(973) 972-8806", "Address": "110 Bergen St Rm D746 Newark, NJ 07103-2495", "City": "Newark", "State": "NJ", "Zip": "07103-2495", "AddressLine1": "110 Bergen St Rm D746", "AddressLine2": "", "Distance": 16.2, "Latitude": 40.74162, "Longitude": -74.18901}, {"Sequence": 44, "PersonId": 124600, "AddressId": 1465105, "Specialty": "Oral and Maxillofacial Surgery", "Photo": "findadentist.ada.org/Images/Profile/124600-Dr-Ricardo-Boyce.png", "Name": "Dr. Ricardo A Boyce, Jr", "Email": "", "Phone": "(718) 250-8105", "Address": "121 Dekalb Ave Brooklyn, NY 11201-5425", "City": "Brooklyn", "State": "NY", "Zip": "11201-5425", "AddressLine1": "121 Dekalb Ave", "AddressLine2": "", "Distance": 11.6, "Latitude": 40.69077, "Longitude": -73.97796}, {"Sequence": 45, "PersonId": 200242, "AddressId": 1540747, "Specialty": "Pediatric Dentistry", "Photo": "findadentist.ada.org/Images/Profile/200242-Dr-Catherine-Pagano.png", "Name": "Dr. Catherine A Pagano", "Email": "dafcokids@gmail.com", "Phone": "(516) 625-3806", "Address": "216 Willis Ave Roslyn Heights, NY 11577-2125", "City": "Roslyn Heights", "State": "NY", "Zip": "11577-2125", "AddressLine1": "216 Willis Ave", "AddressLine2": "", "Distance": 16.2, "Latitude": 40.74665, "Longitude": -73.63934}, {"Sequence": 46, "PersonId": 116470, "AddressId": 3548202, "Specialty": "Orthodontics and Dentofacial Orthopedics", "Photo": "findadentist.ada.org/Images/Profile/116470-Dr-Paul-Ganjian.png", "Name": "Dr. Paul J Ganjian", "Email": "pganjian@nxdental.com", "Phone": "(212) 362-3360", "Address": "115 Central Park W Ofc 2 New York, NY 10023-4198", "City": "New York", "State": "NY", "Zip": "10023-4198", "AddressLine1": "115 Central Park W Ofc 2", "AddressLine2": "", "Distance": 6.1, "Latitude": 40.77589, "Longitude": -73.97647}, {"Sequence": 47, "PersonId": 37398, "AddressId": 3465453, "Specialty": "Endodontics", "Photo": "findadentist.ada.org/Images/Profile/37398-Dr-Jeffrey-Senzer.png", "Name": "Dr Jeffrey S Senzer", "Email": "reception@manhattanendodontic.com", "Phone": "(212) 832-1414", "Address": "1414 Avenue of the Americas Fl 19 New York, NY 10019-2514", "City": "New York", "State": "NY", "Zip": "10019-2514", "AddressLine1": "1414 Avenue of the Americas Fl 19", "AddressLine2": "", "Distance": 6.8, "Latitude": 40.76475, "Longitude": -73.97647}, {"Sequence": 48, "PersonId": 52268, "AddressId": 3450715, "Specialty": "General Practice", "Photo": "findadentist.ada.org/Images/Profile/52268-Dr-Camilo-Achury.png", "Name": "Dr Camilo Achury", "Email": "dentalservices@achurydental.com", "Phone": "(516) 739-4990", "Address": "601 Franklin Ave Ste 100 Garden City, NY 11530-5760", "City": "Garden City", "State": "NY", "Zip": "11530-5760", "AddressLine1": "601 Franklin Ave Ste 100", "AddressLine2": "", "Distance": 17.2, "Latitude": 40.72401, "Longitude": -73.63242}, {"Sequence": 49, "PersonId": 156540, "AddressId": 1497045, "Specialty": "General Practice", "Photo": "findadentist.ada.org/Images/Profile/156540-Dr-Sandra-Schoenbach.png", "Name": "Dr. Sandra P Schoenbach", "Email": "schoenbachdmd@gmail.com", "Phone": "(914) 948-7177", "Address": "12 Old Mamaroneck Rd Ste 1C White Plains, NY 10605-2025", "City": "White Plains", "State": "NY", "Zip": "10605-2025", "AddressLine1": "12 Old Mamaroneck Rd Ste 1C", "AddressLine2": "", "Distance": 14.3, "Latitude": 41.02255, "Longitude": -73.76239}, {"Sequence": 50, "PersonId": 32012, "AddressId": 1372517, "Specialty": "General Practice", "Photo": "findadentist.ada.org/Images/Profile/32012-Dr-Kathleen-Sauchelli.png", "Name": "Dr Kathleen Sauchelli", "Email": "sauchelli1378@gmail.com", "Phone": "(973) 574-1498", "Address": "1378 Broad St Clifton, NJ 07013-4222", "City": "Clifton", "State": "NJ", "Zip": "07013-4222", "AddressLine1": "1378 Broad St", "AddressLine2": "", "Distance": 13.9, "Latitude": 40.84999, "Longitude": -74.18081}, {"Sequence": 51, "PersonId": 215166, "AddressId": 3544719, "Specialty": "Endodontics", "Photo": "findadentist.ada.org/Images/Profile/215166-Dr-Joseph-Sleilati.png", "Name": "Dr. Joseph C Sleilati", "Email": "joseph@premierlongisland.com", "Phone": "(516) 222-1822", "Address": "1103 Stewart Ave Ste 104 Garden City, NY 11530-4886", "City": "Garden City", "State": "NY", "Zip": "11530-4886", "AddressLine1": "1103 Stewart Ave Ste 104", "AddressLine2": "", "Distance": 18.6, "Latitude": 40.73622, "Longitude": -73.59332}, {"Sequence": 52, "PersonId": 206393, "AddressId": 2985468, "Specialty": "General Practice", "Photo": "findadentist.ada.org/Images/Profile/206393-Dr-Jessica-Bonifate.png", "Name": "Dr. Jessica M Bonifate", "Email": "", "Phone": "(914) 337-8430", "Address": "1 Pondfield Rd Ste 103 Bronxville, NY 10708-3706", "City": "Bronxville", "State": "NY", "Zip": "10708-3706", "AddressLine1": "1 Pondfield Rd Ste 103", "AddressLine2": "", "Distance": 7.5, "Latitude": 40.94214, "Longitude": -73.83454}, {"Sequence": 53, "PersonId": 258473, "AddressId": 2791852, "Specialty": "Orthodontics and Dentofacial Orthopedics", "Photo": "findadentist.ada.org/Images/Profile/258473-Dr-Andrea-Fernandez.png", "Name": "Dr. Andrea Fernandez", "Email": "", "Phone": "(718) 403-0700", "Address": "177 Livingston St Brooklyn, NY 11201-7000", "City": "Brooklyn", "State": "NY", "Zip": "11201-7000", "AddressLine1": "177 Livingston St", "AddressLine2": "", "Distance": 11.7, "Latitude": 40.69039, "Longitude": -73.98667}, {"Sequence": 54, "PersonId": 55212, "AddressId": 1395717, "Specialty": "General Practice", "Photo": "findadentist.ada.org/Images/Profile/55212-Dr-Roger-Chehova.png", "Name": "Dr Roger Chehova", "Email": "cefola-chehova@optimum.net", "Phone": "(718) 892-2042", "Address": "1865 Williamsbridge Rd Bronx, NY 10461-6205", "City": "Bronx", "State": "NY", "Zip": "10461-6205", "AddressLine1": "1865 Williamsbridge Rd", "AddressLine2": "", "Distance": 3.3, "Latitude": 40.85183, "Longitude": -73.85301}, {"Sequence": 55, "PersonId": 229281, "AddressId": 3427648, "Specialty": "Orthodontics and Dentofacial Orthopedics", "Photo": "findadentist.ada.org/Images/Profile/229281-Dr-Laura-Sotomayor.png", "Name": "Dr. Laura C Sotomayor", "Email": "drlaura@smilesetter.com", "Phone": "(718) 225-0515", "Address": "43-07 214th Place, Suite B Bayside, NY 11361", "City": "Bayside", "State": "NY", "Zip": "11361", "AddressLine1": "43-07 214th Place, Suite B", "AddressLine2": "", "Distance": 10.6, "Latitude": 40.74946, "Longitude": -73.76408}, {"Sequence": 56, "PersonId": 53564, "AddressId": 1394069, "Specialty": "General Practice", "Photo": "findadentist.ada.org/Images/Profile/53564-Dr-Itzhak-Eisinger.png", "Name": "Dr Itzhak Eisinger", "Email": "", "Phone": "(718) 268-5080", "Address": "11050 71st Rd Ste 10 Forest Hills, NY 11375-4969", "City": "Forest Hills", "State": "NY", "Zip": "11375-4969", "AddressLine1": "11050 71st Rd Ste 10", "AddressLine2": null, "Distance": 9.8, "Latitude": 40.72195, "Longitude": -73.83942}, {"Sequence": 57, "PersonId": 130003, "AddressId": 1470508, "Specialty": "Pediatric Dentistry", "Photo": "findadentist.ada.org/Images/Profile/130003-Dr-Sean-Maskell.png", "Name": "Dr. Sean A Maskell", "Email": "healthyteethforkids@gmail.com", "Phone": "(718) 387-1365", "Address": "722 Broadway Brooklyn, NY 11206-4403", "City": "Brooklyn", "State": "NY", "Zip": "11206-4403", "AddressLine1": "722 Broadway", "AddressLine2": "", "Distance": 10.5, "Latitude": 40.70104, "Longitude": -73.9429}, {"Sequence": 58, "PersonId": 31225, "AddressId": 3387856, "Specialty": "General Practice", "Photo": "findadentist.ada.org/Images/Profile/31225-Dr-Anthony-Caramico.png", "Name": "Dr. Anthony Caramico", "Email": "team@midlandparkfamilydentistry.com", "Phone": "(201) 447-5555", "Address": "662 Godwin Avenue Midland Park, NJ 07432-1405", "City": "Midland Park", "State": "NJ", "Zip": "07432-1405", "AddressLine1": "662 Godwin Avenue", "AddressLine2": "", "Distance": 16.1, "Latitude": 40.99998, "Longitude": -74.1536}, {"Sequence": 59, "PersonId": 51822, "AddressId": 3404435, "Specialty": "Oral and Maxillofacial Surgery", "Photo": "findadentist.ada.org/Images/Profile/51822-Dr-Lawrence-Becker.png", "Name": "Dr Lawrence E Becker", "Email": "info@lioralsurgery.com", "Phone": "(516) 944-8330", "Address": "14 Vanderventer Ave Ste 260 Port Washington, NY 11050-3777", "City": "Port Washington", "State": "NY", "Zip": "11050-3777", "AddressLine1": "14 Vanderventer Ave Ste 260", "AddressLine2": "suite 260", "Distance": 12.2, "Latitude": 40.82805, "Longitude": -73.68494}, {"Sequence": 60, "PersonId": 42556, "AddressId": 1383061, "Specialty": "General Practice", "Photo": "findadentist.ada.org/Images/Profile/42556-Dr-Matthew-Bellafiore.png", "Name": "Dr Matthew L Bellafiore", "Email": "", "Phone": "(718) 875-9424", "Address": "185 Montague St Fl 3 Brooklyn, NY 11201-3608", "City": "Brooklyn", "State": "NY", "Zip": "11201-3608", "AddressLine1": "185 Montague St Fl 3", "AddressLine2": "", "Distance": 11.6, "Latitude": 40.69423, "Longitude": -73.9918}, {"Sequence": 61, "PersonId": 195096, "AddressId": 3544740, "Specialty": "Endodontics", "Photo": "findadentist.ada.org/Images/Profile/195096-Dr-Melissa-Cho.png", "Name": "Dr. Melissa M Cho", "Email": "", "Phone": "(212) 661-0851", "Address": "16 E 52nd St Ste 1101 New York, NY 10022-5332", "City": "New York", "State": "NY", "Zip": "10022-5332", "AddressLine1": "16 E 52nd St Ste 1101", "AddressLine2": "", "Distance": 7.1, "Latitude": 40.75914, "Longitude": -73.97534}, {"Sequence": 62, "PersonId": 197798, "AddressId": 2826792, "Specialty": "Oral and Maxillofacial Surgery", "Photo": "findadentist.ada.org/Images/Profile/197798-Dr-Nathan-Wuebbels.png", "Name": "Dr. Nathan A Wuebbels", "Email": "ridgefield@njoralsurgery.com", "Phone": "(201) 941-9494", "Address": "605 Broad Ave Ste 101 Ridgefield, NJ 07657-1604", "City": "Ridgefield", "State": "NJ", "Zip": "07657-1604", "AddressLine1": "605 Broad Ave Ste 101", "AddressLine2": "", "Distance": 5.1, "Latitude": 40.83451, "Longitude": -74.00964}, {"Sequence": 63, "PersonId": 202197, "AddressId": 1542702, "Specialty": "Pediatric Dentistry", "Photo": "findadentist.ada.org/Images/Profile/202197-Dr-Jacqueline-Sobota.png", "Name": "Dr. Jacqueline A Sobota", "Email": "", "Phone": "(516) 562-4525", "Address": "400 Community Dr Manhasset, NY 11030-3815", "City": "Manhasset", "State": "NY", "Zip": "11030-3815", "AddressLine1": "400 Community Dr", "AddressLine2": "", "Distance": 12.4, "Latitude": 40.77431, "Longitude": -73.70161}, {"Sequence": 64, "PersonId": 40442, "AddressId": 1380947, "Specialty": "General Practice", "Photo": "findadentist.ada.org/Images/Profile/40442-Dr-Dorota-Podlinska.png", "Name": "Dr Dorota Podlinska", "Email": "", "Phone": "(212) 475-8170", "Address": "530D Grand St Apt 1A New York, NY 10002-4249", "City": "New York", "State": "NY", "Zip": "10002-4249", "AddressLine1": "530D Grand St Apt 1A", "AddressLine2": "", "Distance": 10.1, "Latitude": 40.71465, "Longitude": -73.98122}, {"Sequence": 65, "PersonId": 230059, "AddressId": 3024369, "Specialty": "General Practice", "Photo": "findadentist.ada.org/Images/Profile/230059-Dr-Christopher-Wong.png", "Name": "Dr. Christopher C Wong", "Email": "info@apexfamilydental.net", "Phone": "(212) 925-2532", "Address": "80 Bowery Rm 502 New York, NY 10013-4668", "City": "New York", "State": "NY", "Zip": "10013-4668", "AddressLine1": "80 Bowery Rm 502", "AddressLine2": "", "Distance": 10.2, "Latitude": 40.71702, "Longitude": -73.996}, {"Sequence": 66, "PersonId": 53608, "AddressId": 1394113, "Specialty": "General Practice", "Photo": "findadentist.ada.org/Images/Profile/53608-Dr-Carol-Sandquist.png", "Name": "Dr Carol P Sandquist", "Email": "", "Phone": "(516) 248-2822", "Address": "414 Old Country Rd Garden City, NY 11530-1715", "City": "Garden City", "State": "NY", "Zip": "11530-1715", "AddressLine1": "414 Old Country Rd", "AddressLine2": "", "Distance": 16.9, "Latitude": 40.74067, "Longitude": -73.62846}, {"Sequence": 67, "PersonId": 220373, "AddressId": 2792627, "Specialty": "Oral and Maxillofacial Surgery", "Photo": "findadentist.ada.org/Images/Profile/220373-Dr-Patrick-Nolan.png", "Name": "Dr. Patrick J Nolan", "Email": "", "Phone": "(718) 405-8195", "Address": "1575 Blondell Ave Ste 150 Bronx, NY 10461-2661", "City": "Bronx", "State": "NY", "Zip": "10461-2661", "AddressLine1": "1575 Blondell Ave Ste 150", "AddressLine2": "", "Distance": 3.7, "Latitude": 40.84576, "Longitude": -73.84592}, {"Sequence": 68, "PersonId": 40552, "AddressId": 3439754, "Specialty": "Periodontics", "Photo": "findadentist.ada.org/Images/Profile/40552-Dr-John-Rubinstein.png", "Name": "Dr John A Rubinstein", "Email": "rubingold501@gmail.com", "Phone": "(212) 725-2950", "Address": "501 5th Ave Rm 501 New York, NY 10017-7802", "City": "New York", "State": "NY", "Zip": "10017-7802", "AddressLine1": "501 5th Ave Rm 501", "AddressLine2": "", "Distance": 7.6, "Latitude": 40.7532, "Longitude": -73.98081}, {"Sequence": 69, "PersonId": 32298, "AddressId": 2717497, "Specialty": "Periodontics", "Photo": "findadentist.ada.org/Images/Profile/32298-Dr-Giorgio-Divincenzo.png", "Name": "Dr Giorgio T Di Vincenzo", "Email": "", "Phone": null, "Address": "20 Manhattan Ave Jersey City, NJ 07307-2332", "City": "Jersey City", "State": "NJ", "Zip": "07307-2332", "AddressLine1": "20 Manhattan Ave", "AddressLine2": "", "Distance": 10.3, "Latitude": 40.74203, "Longitude": -74.04967}, {"Sequence": 70, "PersonId": 53597, "AddressId": 3331026, "Specialty": "General Practice", "Photo": "findadentist.ada.org/Images/Profile/53597-Dr-Charlene-Berkman.png", "Name": "Dr Charlene S Berkman", "Email": "info@drberkmanforesthills.com", "Phone": "(718) 268-1945", "Address": "11109 76th Rd Ste A5 Forest Hills, NY 11375-6476", "City": "Forest Hills", "State": "NY", "Zip": "11375-6476", "AddressLine1": "11109 76th Rd Ste A5", "AddressLine2": "", "Distance": 10.2, "Latitude": 40.71609, "Longitude": -73.83666}, {"Sequence": 71, "PersonId": 230376, "AddressId": 2971820, "Specialty": "Oral and Maxillofacial Surgery", "Photo": "findadentist.ada.org/Images/Profile/230376-Dr-Doron-Ringler.png", "Name": "Dr. Doron Ringler", "Email": "", "Phone": "(201) 399-7707", "Address": "300 Knickerbocker Rd Ste 2000 Cresskill, NJ 07626-1348", "City": "Cresskill", "State": "NJ", "Zip": "07626-1348", "AddressLine1": "300 Knickerbocker Rd Ste 2000", "AddressLine2": "", "Distance": 7.0, "Latitude": 40.94192, "Longitude": -73.97638}, {"Sequence": 72, "PersonId": 34079, "AddressId": 2750329, "Specialty": "General Practice", "Photo": "findadentist.ada.org/Images/Profile/34079-Dr-Louis-Vita.png", "Name": "Dr Louis R Vita", "Email": "vitaoffice991@gmail.com", "Phone": "(973) 777-1933", "Address": "991 Van Houten Ave Clifton, NJ 07013-2643", "City": "Clifton", "State": "NJ", "Zip": "07013-2643", "AddressLine1": "991 Van Houten Ave", "AddressLine2": "", "Distance": 12.9, "Latitude": 40.86558, "Longitude": -74.16173}, {"Sequence": 73, "PersonId": 32298, "AddressId": 1372803, "Specialty": "Periodontics", "Photo": "findadentist.ada.org/Images/Profile/32298-Dr-Giorgio-Divincenzo.png", "Name": "Dr Giorgio T Di Vincenzo", "Email": "", "Phone": "(201) 216-9191", "Address": "312 Academy St Jersey City, NJ 07306-4441", "City": "Jersey City", "State": "NJ", "Zip": "07306-4441", "AddressLine1": "312 Academy St", "AddressLine2": "", "Distance": 11.5, "Latitude": 40.73026, "Longitude": -74.06692}, {"Sequence": 74, "PersonId": 256300, "AddressId": 3435485, "Specialty": "Oral and Maxillofacial Surgery", "Photo": "findadentist.ada.org/Images/Profile/256300-Dr-Jessica-Fayans.png", "Name": "Dr. Jessica B Fayans", "Email": "", "Phone": "(914) 472-5252", "Address": "1075 Central Park Ave Ste 207 Scarsdale, NY 10583-3250", "City": "Scarsdale", "State": "NY", "Zip": "10583-3250", "AddressLine1": "1075 Central Park Ave Ste 207", "AddressLine2": "", "Distance": 10.5, "Latitude": 40.98823, "Longitude": -73.82541}, {"Sequence": 75, "PersonId": 48234, "AddressId": 3220714, "Specialty": "Pediatric Dentistry", "Photo": "findadentist.ada.org/Images/Profile/48234-Dr-Daniel-de la Torre.png", "Name": "Dr Daniel E de la Torre", "Email": "drdan@child-dds.com", "Phone": "(914) 722-5100", "Address": "1075 Central Park Ave Ste 400 Scarsdale, NY 10583-3232", "City": "Scarsdale", "State": "NY", "Zip": "10583-3232", "AddressLine1": "1075 Central Park Ave Ste 400", "AddressLine2": "", "Distance": 10.5, "Latitude": 40.98803, "Longitude": -73.82494}, {"Sequence": 76, "PersonId": 51126, "AddressId": 3067024, "Specialty": "Orthodontics and Dentofacial Orthopedics", "Photo": "findadentist.ada.org/Images/Profile/51126-Dr-Robert-Panzer.png", "Name": "Dr Robert H Panzer", "Email": "braceplace34@aol.com", "Phone": "(516) 487-7475", "Address": "23 Bond St Great Neck, NY 11021-2019", "City": "Great Neck", "State": "NY", "Zip": "11021-2019", "AddressLine1": "23 Bond St", "AddressLine2": "", "Distance": 10.7, "Latitude": 40.78989, "Longitude": -73.72751}, {"Sequence": 77, "PersonId": 32192, "AddressId": 3477368, "Specialty": "General Practice", "Photo": "findadentist.ada.org/Images/Profile/32192-Dr-Steven-Winik.png", "Name": "Dr Steven P Winik", "Email": "", "Phone": "(912) 779-4858", "Address": "430 Westchester Ave Port Chester, NY 10573-2839", "City": "Port Chester", "State": "NY", "Zip": "10573-2839", "AddressLine1": "430 Westchester Ave", "AddressLine2": "", "Distance": 16.4, "Latitude": 41.00499, "Longitude": -73.67454}, {"Sequence": 78, "PersonId": 188783, "AddressId": 3398070, "Specialty": "General Practice", "Photo": "findadentist.ada.org/Images/Profile/188783-Dr-Anatoliy-Barak.png", "Name": "Dr. Anatoliy Barak", "Email": "", "Phone": "(718) 502-9650", "Address": "7338 Bell Blvd Bayside, NY 11364-2930", "City": "Bayside", "State": "NY", "Zip": "11364-2930", "AddressLine1": "7338 Bell Blvd", "AddressLine2": "", "Distance": 11.3, "Latitude": 40.73977, "Longitude": -73.75804}, {"Sequence": 79, "PersonId": 204319, "AddressId": 1544824, "Specialty": "General Practice", "Photo": "findadentist.ada.org/Images/Profile/204319-Dr-Salvatore-Pavone.png", "Name": "Dr. Salvatore A Pavone", "Email": "", "Phone": "(917) 838-4154", "Address": "1216 Kennedy Blvd Bayonne, NJ 07002-2208", "City": "Bayonne", "State": "NJ", "Zip": "07002-2208", "AddressLine1": "1216 Kennedy Blvd", "AddressLine2": "", "Distance": 15.0, "Latitude": 40.68857, "Longitude": -74.10597}, {"Sequence": 80, "PersonId": 206533, "AddressId": 1547038, "Specialty": "General Practice", "Photo": "findadentist.ada.org/Images/Profile/206533-Dr-Caryn-Tong.png", "Name": "Dr. Caryn T Tong", "Email": "", "Phone": "(718) 446-5775", "Address": "4036 82nd St Ste 5 Elmhurst, NY 11373-1312", "City": "Elmhurst", "State": "NY", "Zip": "11373-1312", "AddressLine1": "4036 82nd St Ste 5", "AddressLine2": "", "Distance": 7.4, "Latitude": 40.74658, "Longitude": -73.88401}, {"Sequence": 81, "PersonId": 191912, "AddressId": 3446291, "Specialty": "General Practice", "Photo": "findadentist.ada.org/Images/Profile/191912-Dr-Richard-Rosen.png", "Name": "Dr. Richard A Rosen", "Email": "carrollgardensdental@gmail.com", "Phone": "(212) 545-7607", "Address": "402 Court St Brooklyn, NY 11231-4206", "City": "Brooklyn", "State": "NY", "Zip": "11231-4206", "AddressLine1": "402 Court St", "AddressLine2": "", "Distance": 12.6, "Latitude": 40.68064, "Longitude": -73.99695}, {"Sequence": 82, "PersonId": 40904, "AddressId": 2764201, "Specialty": "General Practice", "Photo": "findadentist.ada.org/Images/Profile/40904-Dr-David-Zipkowitz.png", "Name": "Dr David E Zipkowitz", "Email": "drzip333@gmail.com", "Phone": "(212) 473-9002", "Address": "333 E 14th St New York, NY 10003-4245", "City": "New York", "State": "NY", "Zip": "10003-4245", "AddressLine1": "333 E 14th St", "AddressLine2": "", "Distance": 9.0, "Latitude": 40.73188, "Longitude": -73.98323}, {"Sequence": 83, "PersonId": 31077, "AddressId": 2725101, "Specialty": "General Practice", "Photo": "findadentist.ada.org/Images/Profile/31077-Dr-Bernadetta-Messana.png", "Name": "Dr. Bernadetta F Messana", "Email": "", "Phone": null, "Address": "3461 John F Kennedy Blvd Jersey City, NJ 07307-4107", "City": "Jersey City", "State": "NJ", "Zip": "07307-4107", "AddressLine1": "3461 John F Kennedy Blvd", "AddressLine2": "", "Distance": 10.1, "Latitude": 40.75031, "Longitude": -74.05451}, {"Sequence": 84, "PersonId": 39628, "AddressId": 1380133, "Specialty": "General Practice", "Photo": "findadentist.ada.org/Images/Profile/39628-Dr-William-Ullman.png", "Name": "Dr William C Ullman", "Email": "", "Phone": "(908) 507-0305", "Address": "345 E 24th St New York, NY 10010-4020", "City": "New York", "State": "NY", "Zip": "10010-4020", "AddressLine1": "345 E 24th St", "AddressLine2": "", "Distance": 8.5, "Latitude": 40.73795, "Longitude": -73.97822}, {"Sequence": 85, "PersonId": 7641, "AddressId": 1348146, "Specialty": "Prosthodontics", "Photo": "findadentist.ada.org/Images/Profile/7641-Dr-Gary-Rogoff.png", "Name": "Dr Gary S Rogoff", "Email": "", "Phone": "(718) 920-2381", "Address": "111 E 210th St Bronx, NY 10467-2401", "City": "Bronx", "State": "NY", "Zip": "10467-2401", "AddressLine1": "111 E 210th St", "AddressLine2": "", "Distance": 2.7, "Latitude": 40.88015, "Longitude": -73.87976}, {"Sequence": 86, "PersonId": 129838, "AddressId": 1470343, "Specialty": "General Practice", "Photo": "findadentist.ada.org/Images/Profile/129838-Dr-Maria-Jacome.png", "Name": "Dr. Maria Jacome", "Email": "", "Phone": "(914) 686-1624", "Address": "280 Mamaroneck Ave Ste 304 White Plains, NY 10605-1460", "City": "White Plains", "State": "NY", "Zip": "10605-1460", "AddressLine1": "280 Mamaroneck Ave Ste 304", "AddressLine2": "", "Distance": 14.4, "Latitude": 41.02596, "Longitude": -73.7641}, {"Sequence": 87, "PersonId": 37461, "AddressId": 1377966, "Specialty": "General Practice", "Photo": "findadentist.ada.org/Images/Profile/37461-Dr-Mark-Gross.png", "Name": "Dr Mark Gross", "Email": "info@dp5th.com", "Phone": "(212) 987-7400", "Address": "11 E 86th St New York, NY 10028-0501", "City": "New York", "State": "NY", "Zip": "10028-0501", "AddressLine1": "11 E 86th St", "AddressLine2": "", "Distance": 5.4, "Latitude": 40.78127, "Longitude": -73.95918}, {"Sequence": 88, "PersonId": 139240, "AddressId": 1479745, "Specialty": "Orthodontics and Dentofacial Orthopedics", "Photo": "findadentist.ada.org/Images/Profile/139240-Dr-Peter-Costalos.png", "Name": "Dr. Peter A Costalos", "Email": "contact@petercostalos.com", "Phone": "(718) 238-9888", "Address": "466 Bay Ridge Pkwy Brooklyn, NY 11209-2702", "City": "Brooklyn", "State": "NY", "Zip": "11209-2702", "AddressLine1": "466 Bay Ridge Pkwy", "AddressLine2": "", "Distance": 16.3, "Latitude": 40.62971, "Longitude": -74.02342}, {"Sequence": 89, "PersonId": 209704, "AddressId": 1550209, "Specialty": "General Practice", "Photo": "findadentist.ada.org/Images/Profile/209704-Dr-Beeren-Gajjar.png", "Name": "Dr. Beeren Gajjar", "Email": "implantdentistry1@verizon.net", "Phone": "(917) 202-5438", "Address": "32 Court St Ste 500 Brooklyn, NY 11201-4404", "City": "Brooklyn", "State": "NY", "Zip": "11201-4404", "AddressLine1": "32 Court St Ste 500", "AddressLine2": "", "Distance": 11.7, "Latitude": 40.69298, "Longitude": -73.99113}, {"Sequence": 90, "PersonId": 53824, "AddressId": 1394329, "Specialty": "General Practice", "Photo": "findadentist.ada.org/Images/Profile/53824-Dr-Richard-Imparato.png", "Name": "Dr Richard M Imparato", "Email": "rmi13@icloud.com", "Phone": "(516) 253-1999", "Address": "1300 Union Tpke Ste 208 New Hyde Park, NY 11040-1759", "City": "New Hyde Park", "State": "NY", "Zip": "11040-1759", "AddressLine1": "1300 Union Tpke Ste 208", "AddressLine2": "", "Distance": 13.2, "Latitude": 40.753, "Longitude": -73.69827}, {"Sequence": 91, "PersonId": 262907, "AddressId": 3573012, "Specialty": "Prosthodontics", "Photo": "findadentist.ada.org/Images/Profile/262907-Dr-Yu-Kato.png", "Name": "Dr. Yu Kato", "Email": "info@ryedental.com", "Phone": "(914) 967-1242", "Address": "33 Cedar St Rye, NY 10580-2031", "City": "Rye", "State": "NY", "Zip": "10580-2031", "AddressLine1": "33 Cedar St", "AddressLine2": "", "Distance": 15.3, "Latitude": 40.98726, "Longitude": -73.68282}, {"Sequence": 92, "PersonId": 31207, "AddressId": 1371712, "Specialty": "General Practice", "Photo": "findadentist.ada.org/Images/Profile/31207-Dr-Jeffrey-Manheimer.png", "Name": "Dr Jeffrey G Manheimer", "Email": "info@DumontFamilyDentist.com", "Phone": "(201) 384-2112", "Address": "166 Washington Ave Dumont, NJ 07628-2305", "City": "Dumont", "State": "NJ", "Zip": "07628-2305", "AddressLine1": "166 Washington Ave", "AddressLine2": "", "Distance": 7.4, "Latitude": 40.9413, "Longitude": -73.99388}, {"Sequence": 93, "PersonId": 129304, "AddressId": 3578847, "Specialty": "Pediatric Dentistry", "Photo": "findadentist.ada.org/Images/Profile/129304-Dr-Untray-Brown.png", "Name": "Dr. Untray T Brown", "Email": "", "Phone": "(347) 581-0671", "Address": "55 Greene Ave Ste Llc Brooklyn, NY 11238-6432", "City": "Brooklyn", "State": "NY", "Zip": "11238-6432", "AddressLine1": "55 Greene Ave Ste Llc", "AddressLine2": "", "Distance": 11.8, "Latitude": 40.68631, "Longitude": -73.97093}, {"Sequence": 94, "PersonId": 190756, "AddressId": 2749928, "Specialty": "Pediatric Dentistry", "Photo": "findadentist.ada.org/Images/Profile/190756-Dr-Preeti-Gupta.png", "Name": "Dr. Preeti Gupta", "Email": "", "Phone": "(201) 475-1600", "Address": "15-01 Broadway Ste 18 Fair Lawn, NJ 07410-6018", "City": "Fair Lawn", "State": "NJ", "Zip": "07410-6018", "AddressLine1": "15-01 Broadway Ste 18", "AddressLine2": "", "Distance": 11.7, "Latitude": 40.92121, "Longitude": -74.11886}, {"Sequence": 95, "PersonId": 135506, "AddressId": 1476011, "Specialty": "General Practice", "Photo": "findadentist.ada.org/Images/Profile/135506-Dr-Richard-Langiulli.png", "Name": "Dr. Richard A Langiulli", "Email": "", "Phone": "(914) 472-1010", "Address": "688 Post Rd Ste 208 Scarsdale, NY 10583-5015", "City": "Scarsdale", "State": "NY", "Zip": "10583-5015", "AddressLine1": "688 Post Rd Ste 208", "AddressLine2": null, "Distance": 9.9, "Latitude": 40.96934, "Longitude": -73.80638}, {"Sequence": 96, "PersonId": 261026, "AddressId": 3497233, "Specialty": "General Practice", "Photo": "findadentist.ada.org/Images/Profile/261026-Dr-Katie-Nemirovsky.png", "Name": "Dr. Katie L Nemirovsky", "Email": "", "Phone": "(212) 697-1701", "Address": "55 E 9Th St New York, NY 10003-6311", "City": "New York", "State": "NY", "Zip": "10003-6311", "AddressLine1": "55 E 9Th St", "AddressLine2": "", "Distance": 9.2, "Latitude": 40.73174, "Longitude": -73.99279}, {"Sequence": 97, "PersonId": 216242, "AddressId": 2763852, "Specialty": "General Practice", "Photo": "findadentist.ada.org/Images/Profile/216242-Dr-Renee-Levine.png", "Name": "Dr. Renee O Levine", "Email": "", "Phone": "(914) 472-4343", "Address": "800 Central Park Ave Ste 205 Scarsdale, NY 10583-2589", "City": "Scarsdale", "State": "NY", "Zip": "10583-2589", "AddressLine1": "800 Central Park Ave Ste 205", "AddressLine2": "", "Distance": 11.2, "Latitude": 40.9954, "Longitude": -73.81811}, {"Sequence": 98, "PersonId": 50936, "AddressId": 3592915, "Specialty": "General Practice", "Photo": "findadentist.ada.org/Images/Profile/50936-Dr-Vito-Brancato.png", "Name": "Dr Vito J Brancato", "Email": "thedentalcenter@hotmail.com", "Phone": "(516) 775-3915", "Address": "26 Jericho Tpke New Hyde Park, NY 11040-4506", "City": "New Hyde Park", "State": "NY", "Zip": "11040-4506", "AddressLine1": "26 Jericho Tpke", "AddressLine2": "", "Distance": 14.3, "Latitude": 40.73059, "Longitude": -73.69366}, {"Sequence": 99, "PersonId": 40362, "AddressId": 3516630, "Specialty": "General Practice", "Photo": "findadentist.ada.org/Images/Profile/ADA.png", "Name": "Dr Safwat H Salama", "Email": "", "Phone": "(718) 299-8144", "Address": "1701 Macombs Rd Bronx, NY 10453-7047", "City": "Bronx", "State": "NY", "Zip": "10453-7047", "AddressLine1": "1701 Macombs Rd", "AddressLine2": "", "Distance": 0.2, "Latitude": 40.84891, "Longitude": -73.91646}, {"Sequence": 100, "PersonId": 115864, "AddressId": 1456369, "Specialty": "Pediatric Dentistry", "Photo": "findadentist.ada.org/Images/Profile/ADA.png", "Name": "Dr. Selene L Wun", "Email": "", "Phone": "(718) 901-8116", "Address": "1775 Grand Concourse Fl 6 Bronx, NY 10453-8202", "City": "Bronx", "State": "NY", "Zip": "10453-8202", "AddressLine1": "1775 Grand Concourse Fl 6", "AddressLine2": "", "Distance": 0.5, "Latitude": 40.84647, "Longitude": -73.90995}]