[{"Sequence": 1, "PersonId": 256427, "AddressId": 2948286, "Specialty": "General Practice", "Photo": "findadentist.ada.org/Images/Profile/256427-Dr-Mishel-Eshaghianpour.png", "Name": "Dr. Mishel Eshaghianpour", "Email": "", "Phone": "(718) 584-9000", "Address": "130 W Kingsbridge Rd Bronx, NY 10468-3904", "City": "Bronx", "State": "NY", "Zip": "10468-3904", "AddressLine1": "130 W Kingsbridge Rd", "AddressLine2": "", "Distance": 0.4, "Latitude": 40.86748, "Longitude": -73.90615}, {"Sequence": 2, "PersonId": 129330, "AddressId": 3408939, "Specialty": "General Practice", "Photo": "findadentist.ada.org/Images/Profile/129330-Dr-Esperanza-McPartland.png", "Name": "Dr. Esperanza McPartland", "Email": "erodriguezdds2406@gmail.com", "Phone": "(718) 364-7791", "Address": "2406 Walton Ave Bronx, NY 10468-6454", "City": "Bronx", "State": "NY", "Zip": "10468-6454", "AddressLine1": "2406 Walton Ave", "AddressLine2": "SOB Dental Office", "Distance": 0.5, "Latitude": 40.86127, "Longitude": -73.90089}, {"Sequence": 3, "PersonId": 55346, "AddressId": 1395851, "Specialty": "General Practice", "Photo": "findadentist.ada.org/Images/Profile/55346-Dr-Don-Safferstein.png", "Name": "Dr Don Safferstein", "Email": "smiles@saffersteindental.com", "Phone": "(718) 584-5300", "Address": "1 Fordham Hill Oval Bronx, NY 10468-8001", "City": "Bronx", "State": "NY", "Zip": "10468-8001", "AddressLine1": "1 Fordham Hill Oval", "AddressLine2": "", "Distance": 0.7, "Latitude": 40.86387, "Longitude": -73.90845}, {"Sequence": 4, "PersonId": 228081, "AddressId": 1568586, "Specialty": "General Practice", "Photo": "findadentist.ada.org/Images/Profile/ADA.png", "Name": "Dr. Rigels Kalemi", "Email": "", "Phone": "(718) 733-6600", "Address": "2505 University Ave Frnt 1 Bronx, NY 10468-4011", "City": "Bronx", "State": "NY", "Zip": "10468-4011", "AddressLine1": "2505 University Ave Frnt 1", "AddressLine2": "", "Distance": 7.4, "Latitude": 40.7619, "Longitude": -73.90688}, {"Sequence": 5, "PersonId": 40953, "AddressId": 1381458, "Specialty": "General Practice", "Photo": "findadentist.ada.org/Images/Profile/ADA.png", "Name": "Dr Debra D Sperling", "Email": "", "Phone": "(212) 567-6066", "Address": "100 W Mosholu Pkwy S Bronx, NY 10468-1099", "City": "Bronx", "State": "NY", "Zip": "10468-1099", "AddressLine1": "100 W Mosholu Pkwy S", "AddressLine2": "Clinton High School", "Distance": 1.0, "Latitude": 40.88138, "Longitude": -73.8873}, {"Sequence": 6, "PersonId": 156220, "AddressId": 1496725, "Specialty": "Oral and Maxillofacial Surgery", "Photo": "findadentist.ada.org/Images/Profile/ADA.png", "Name": "Dr. Bradley A Hirsch", "Email": "", "Phone": "(347) 590-8150", "Address": "2403 Grand Concourse Bronx, NY 10468-6820", "City": "Bronx", "State": "NY", "Zip": "10468-6820", "AddressLine1": "2403 Grand Concourse", "AddressLine2": "", "Distance": 0.6, "Latitude": 40.86034, "Longitude": -73.89871}, {"Sequence": 7, "PersonId": 241595, "AddressId": 3309954, "Specialty": "Oral and Maxillofacial Surgery", "Photo": "findadentist.ada.org/Images/Profile/ADA.png", "Name": "Dr. Maria C Honrado", "Email": "maria.honrado@mofsny.com", "Phone": "(347) 590-8150", "Address": "2403 Grand Concourse Bronx, NY 10468-6820", "City": "Bronx", "State": "NY", "Zip": "10468-6820", "AddressLine1": "2403 Grand Concourse", "AddressLine2": "", "Distance": 0.6, "Latitude": 40.86034, "Longitude": -73.89871}]