[{"Sequence": 1, "PersonId": 51915, "AddressId": 3581470, "Specialty": "General Practice", "Photo": "findadentist.ada.org/Images/Profile/51915-Dr-Connie-Collura.png", "Name": "Dr Connie Collura", "Email": "", "Phone": "(516) 735-3232", "Address": "4216 Hempstead Tpke Bethpage, NY 11714-5701", "City": "Bethpage", "State": "NY", "Zip": "11714-5701", "AddressLine1": "4216 Hempstead Tpke", "AddressLine2": "", "Distance": 0.5, "Latitude": 40.72535, "Longitude": -73.48079}, {"Sequence": 2, "PersonId": 160042, "AddressId": 3471013, "Specialty": "Oral and Maxillofacial Surgery", "Photo": "findadentist.ada.org/Images/Profile/160042-Dr-Peter-Protzel.png", "Name": "Dr. Peter E Protzel", "Email": "protzeloralsurgery@gmail.com", "Phone": "(516) 735-6505", "Address": "4277 Hempstead Tpke Ste 214 Bethpage, NY 11714-5706", "City": "Bethpage", "State": "NY", "Zip": "11714-5706", "AddressLine1": "4277 Hempstead Tpke Ste 214", "AddressLine2": "", "Distance": 0.5, "Latitude": 40.72639, "Longitude": -73.47959}, {"Sequence": 3, "PersonId": 50935, "AddressId": 3408468, "Specialty": "General Practice", "Photo": "findadentist.ada.org/Images/Profile/50935-Dr-Charles-Axelrad.png", "Name": "Dr Charles S Axelrad", "Email": "fdg260@hotmail.com", "Phone": "(516) 249-8141", "Address": "260 Merritts Rd Farmingdale, NY 11735-3267", "City": "Farmingdale", "State": "NY", "Zip": "11735-3267", "AddressLine1": "260 Merritts Rd", "AddressLine2": "", "Distance": 0.8, "Latitude": 40.71968, "Longitude": -73.4587}, {"Sequence": 4, "PersonId": 51872, "AddressId": 3553624, "Specialty": "General Practice", "Photo": "findadentist.ada.org/Images/Profile/51872-Dr-Jay-Augenstein.png", "Name": "Dr Jay R Augenstein", "Email": "augfamdent@optonline.net", "Phone": "(516) 931-8568", "Address": "350 Stewart Ave Bethpage, NY 11714-5331", "City": "Bethpage", "State": "NY", "Zip": "11714-5331", "AddressLine1": "350 Stewart Ave", "AddressLine2": "", "Distance": 0.8, "Latitude": 40.73538, "Longitude": -73.48084}, {"Sequence": 5, "PersonId": 51573, "AddressId": 1392078, "Specialty": "General Practice", "Photo": "findadentist.ada.org/Images/Profile/51573-Dr-Donald-Kahn.png", "Name": "Dr Donald M Kahn", "Email": "christinec@kfadental.com", "Phone": "(516) 218-6855", "Address": "375 Fulton St Ste 1 Farmingdale, NY 11735-3454", "City": "Farmingdale", "State": "NY", "Zip": "11735-3454", "AddressLine1": "375 Fulton St Ste 1", "AddressLine2": "", "Distance": 0.9, "Latitude": 40.7306, "Longitude": -73.45347}, {"Sequence": 6, "PersonId": 51989, "AddressId": 3383906, "Specialty": "Orthodontics and Dentofacial Orthopedics", "Photo": "findadentist.ada.org/Images/Profile/51989-Dr-Harvey-Choit.png", "Name": "Dr Harvey M Choit", "Email": "drpfbraces@gmail.com", "Phone": "(516) 579-8950", "Address": "99 Hicksville Rd Bethpage, NY 11714-3445", "City": "Bethpage", "State": "NY", "Zip": "11714-3445", "AddressLine1": "99 Hicksville Rd", "AddressLine2": "", "Distance": 0.9, "Latitude": 40.72301, "Longitude": -73.48743}, {"Sequence": 7, "PersonId": 168640, "AddressId": 1509145, "Specialty": "General Practice", "Photo": "findadentist.ada.org/Images/Profile/168640-Dr-Angela-Ferrari.png", "Name": "Dr. Angela M Ferrari", "Email": "", "Phone": "(516) 218-6855", "Address": "375 Fulton St Ste 1 Farmingdale, NY 11735-3454", "City": "Farmingdale", "State": "NY", "Zip": "11735-3454", "AddressLine1": "375 Fulton St Ste 1", "AddressLine2": null, "Distance": 0.9, "Latitude": 40.7306, "Longitude": -73.45347}, {"Sequence": 8, "PersonId": 168657, "AddressId": 3064685, "Specialty": "General Practice", "Photo": "findadentist.ada.org/Images/Profile/168657-Dr-Daniel-Aldieri.png", "Name": "Dr. Daniel J Aldieri", "Email": "Dr.Aldieri@KFAdental.com", "Phone": "(516) 218-6855", "Address": "375 Fulton St #1 Farmingdale, NY 11735-3454", "City": "Farmingdale", "State": "NY", "Zip": "11735-3454", "AddressLine1": "375 Fulton St #1", "AddressLine2": "", "Distance": 0.9, "Latitude": 40.7306, "Longitude": -73.45347}, {"Sequence": 9, "PersonId": 51151, "AddressId": 3578658, "Specialty": "General Practice", "Photo": "findadentist.ada.org/Images/Profile/51151-Dr-Larry-Cohen.png", "Name": "Dr Larry J Cohen", "Email": "Drlarz88@gmail.com", "Phone": "(516) 735-0525", "Address": "190 Hicksville Rd Bethpage, NY 11714-3409", "City": "Bethpage", "State": "NY", "Zip": "11714-3409", "AddressLine1": "190 Hicksville Rd", "AddressLine2": "", "Distance": 1.0, "Latitude": 40.7277, "Longitude": -73.48976}, {"Sequence": 10, "PersonId": 115876, "AddressId": 3596711, "Specialty": "General Practice", "Photo": "findadentist.ada.org/Images/Profile/115876-Dr-Hsien-Chang-Lee.png", "Name": "Dr. Hsien-Chang Lee", "Email": "", "Phone": "(516) 743-1388", "Address": "352A Broadway Bethpage, NY 11714-3007", "City": "Bethpage", "State": "NY", "Zip": "11714-3007", "AddressLine1": "352A Broadway", "AddressLine2": "", "Distance": 1.2, "Latitude": 40.74261, "Longitude": -73.47941}, {"Sequence": 11, "PersonId": 51541, "AddressId": 2762063, "Specialty": "Orthodontics and Dentofacial Orthopedics", "Photo": "findadentist.ada.org/Images/Profile/51541-Dr-John-Capogna.png", "Name": "Dr. John M Capogna", "Email": "Capognaortho@aol.com", "Phone": "(516) 752-9060", "Address": "1023 N Broadway North Massapequa, NY 11758-2118", "City": "North Massapequa", "State": "NY", "Zip": "11758-2118", "AddressLine1": "1023 N Broadway", "AddressLine2": "", "Distance": 1.4, "Latitude": 40.70812, "Longitude": -73.46141}, {"Sequence": 12, "PersonId": 51030, "AddressId": 3531659, "Specialty": "General Practice", "Photo": "findadentist.ada.org/Images/Profile/51030-Dr-Frank-Calderone.png", "Name": "Dr Frank Calderone", "Email": "fcac475@optonline.net", "Phone": "(516) 249-0898", "Address": "475 Main St Farmingdale, NY 11735-3570", "City": "Farmingdale", "State": "NY", "Zip": "11735-3570", "AddressLine1": "475 Main St", "AddressLine2": "", "Distance": 1.4, "Latitude": 40.72871, "Longitude": -73.44449}, {"Sequence": 13, "PersonId": 51027, "AddressId": 3409971, "Specialty": "General Practice", "Photo": "findadentist.ada.org/Images/Profile/51027-Dr-Anthony-Citriniti.png", "Name": "Dr. Anthony Citriniti", "Email": "info@farmingdaledental.com", "Phone": "(516) 249-0898", "Address": "475 Main St Farmingdale, NY 11735-3570", "City": "Farmingdale", "State": "NY", "Zip": "11735-3570", "AddressLine1": "475 Main St", "AddressLine2": "", "Distance": 1.4, "Latitude": 40.7287, "Longitude": -73.44448}, {"Sequence": 14, "PersonId": 248385, "AddressId": 3303585, "Specialty": "Orthodontics and Dentofacial Orthopedics", "Photo": "findadentist.ada.org/Images/Profile/248385-Dr-Laura-Bodner.png", "Name": "Dr. Laura M Bodner", "Email": "", "Phone": "(516) 972-0852", "Address": "1023 N Broadway Massapequa, NY 11758-2118", "City": "Massapequa", "State": "NY", "Zip": "11758-2118", "AddressLine1": "1023 N Broadway", "AddressLine2": "", "Distance": 1.4, "Latitude": 40.70812, "Longitude": -73.46141}, {"Sequence": 15, "PersonId": 50265, "AddressId": 1390770, "Specialty": "General Practice", "Photo": "findadentist.ada.org/Images/Profile/50265-Dr-Peter-Scelfo.png", "Name": "Dr Peter R Scelfo", "Email": "openwideviking35@gmail.com", "Phone": "(516) 694-2880", "Address": "863 Fulton St Farmingdale, NY 11735-3600", "City": "Farmingdale", "State": "NY", "Zip": "11735-3600", "AddressLine1": "863 Fulton St", "AddressLine2": "", "Distance": 1.6, "Latitude": 40.72669, "Longitude": -73.44085}, {"Sequence": 16, "PersonId": 51792, "AddressId": 2752673, "Specialty": "General Practice", "Photo": "findadentist.ada.org/Images/Profile/51792-Dr-Marc-Gottlieb.png", "Name": "Dr Marc M Gottlieb", "Email": "marc@AnxietyFreeDental.com", "Phone": "(516) 796-6600", "Address": "3601 Hempstead Tpke Ste 420 Levittown, NY 11756-1376", "City": "Levittown", "State": "NY", "Zip": "11756-1376", "AddressLine1": "3601 Hempstead Tpke Ste 420", "AddressLine2": "", "Distance": 1.8, "Latitude": 40.72825, "Longitude": -73.50461}, {"Sequence": 17, "PersonId": 51162, "AddressId": 1391667, "Specialty": "Oral and Maxillofacial Surgery", "Photo": "findadentist.ada.org/Images/Profile/51162-Dr-Thomas-Cerbone.png", "Name": "Dr Thomas A Cerbone", "Email": "", "Phone": "(516) 541-2400", "Address": "930 N Broadway Massapequa, NY 11758-2394", "City": "Massapequa", "State": "NY", "Zip": "11758-2394", "AddressLine1": "930 N Broadway", "AddressLine2": "", "Distance": 1.8, "Latitude": 40.70156, "Longitude": -73.46204}, {"Sequence": 18, "PersonId": 128645, "AddressId": 1469150, "Specialty": "Oral and Maxillofacial Surgery", "Photo": "findadentist.ada.org/Images/Profile/128645-Dr-Paul-Mazzei.png", "Name": "Dr. Paul W Mazzei", "Email": "", "Phone": "(516) 541-2400", "Address": "930 N Broadway Massapequa, NY 11758-2303", "City": "Massapequa", "State": "NY", "Zip": "11758-2303", "AddressLine1": "930 N Broadway", "AddressLine2": "", "Distance": 1.8, "Latitude": 40.70156, "Longitude": -73.46204}, {"Sequence": 19, "PersonId": 210584, "AddressId": 1551089, "Specialty": "Oral and Maxillofacial Surgery", "Photo": "findadentist.ada.org/Images/Profile/210584-Dr-Justin-Glazer.png", "Name": "Dr. Justin R Glazer", "Email": "", "Phone": "(516) 541-2400", "Address": "930 N Broadway Massapequa, NY 11758-2394", "City": "Massapequa", "State": "NY", "Zip": "11758-2394", "AddressLine1": "930 N Broadway", "AddressLine2": "", "Distance": 1.8, "Latitude": 40.70156, "Longitude": -73.46204}, {"Sequence": 20, "PersonId": 234221, "AddressId": 3528696, "Specialty": "Oral and Maxillofacial Surgery", "Photo": "findadentist.ada.org/Images/Profile/234221-Dr-Abdul-Karim.png", "Name": "Dr. Abdul B Karim", "Email": "", "Phone": "(516) 541-2400", "Address": "930 N Broadway Massapequa, NY 11758-2394", "City": "Massapequa", "State": "NY", "Zip": "11758-2394", "AddressLine1": "930 N Broadway", "AddressLine2": "", "Distance": 1.8, "Latitude": 40.70156, "Longitude": -73.46204}, {"Sequence": 21, "PersonId": 246967, "AddressId": 3546262, "Specialty": "General Practice", "Photo": "findadentist.ada.org/Images/Profile/246967-Dr-Eduard-Munarov.png", "Name": "Dr. Eduard Munarov", "Email": "", "Phone": "(516) 541-2400", "Address": "930 N Broadway Massapequa, NY 11758-2394", "City": "Massapequa", "State": "NY", "Zip": "11758-2394", "AddressLine1": "930 N Broadway", "AddressLine2": "", "Distance": 1.8, "Latitude": 40.70156, "Longitude": -73.46204}, {"Sequence": 22, "PersonId": 229890, "AddressId": 3350438, "Specialty": "General Practice", "Photo": "findadentist.ada.org/Images/Profile/229890-Dr-Jigar-Gandhi.png", "Name": "Dr. Jigar S Gandhi", "Email": "", "Phone": "(516) 797-0300", "Address": "875 N Broadway Massapequa, NY 11758-2344", "City": "Massapequa", "State": "NY", "Zip": "11758-2344", "AddressLine1": "875 N Broadway", "AddressLine2": "", "Distance": 2.1, "Latitude": 40.6976, "Longitude": -73.46362}, {"Sequence": 23, "PersonId": 51551, "AddressId": 1392056, "Specialty": "General Practice", "Photo": "findadentist.ada.org/Images/Profile/51551-Dr-Bradford-Zamer.png", "Name": "Dr Bradford A Zamer", "Email": "", "Phone": "(516) 798-4166", "Address": "818 N Broadway Massapequa, NY 11758-2335", "City": "Massapequa", "State": "NY", "Zip": "11758-2335", "AddressLine1": "818 N Broadway", "AddressLine2": "", "Distance": 2.3, "Latitude": 40.69443, "Longitude": -73.46433}, {"Sequence": 24, "PersonId": 51056, "AddressId": 1391561, "Specialty": "General Practice", "Photo": "findadentist.ada.org/Images/Profile/51056-Dr-Michael-Karter.png", "Name": "Dr Michael Karter", "Email": "info@drkarter.com", "Phone": "(516) 731-8198", "Address": "175 Jerusalem Ave Levittown, NY 11756-3749", "City": "Levittown", "State": "NY", "Zip": "11756-3749", "AddressLine1": "175 Jerusalem Ave", "AddressLine2": "", "Distance": 2.3, "Latitude": 40.73562, "Longitude": -73.51388}, {"Sequence": 25, "PersonId": 51032, "AddressId": 1391537, "Specialty": "General Practice", "Photo": "findadentist.ada.org/Images/Profile/51032-Dr-Richard-Bloom.png", "Name": "Dr Richard M Bloom", "Email": "rbloom@godental365.com", "Phone": "(516) 579-7744", "Address": "3254 Hempstead Tpke Levittown, NY 11756-1345", "City": "Levittown", "State": "NY", "Zip": "11756-1345", "AddressLine1": "3254 Hempstead Tpke", "AddressLine2": "", "Distance": 2.4, "Latitude": 40.72583, "Longitude": -73.51586}, {"Sequence": 26, "PersonId": 51928, "AddressId": 2762078, "Specialty": "Pediatric Dentistry", "Photo": "findadentist.ada.org/Images/Profile/51928-Dr-Mary Ellen-Nesnay.png", "Name": "Dr Mary Ellen Nesnay", "Email": "broadwaysmile1@aol.com", "Phone": "(516) 753-5437", "Address": "800 N Broadway Massapequa, NY 11758-2335", "City": "Massapequa", "State": "NY", "Zip": "11758-2335", "AddressLine1": "800 N Broadway", "AddressLine2": "", "Distance": 2.4, "Latitude": 40.69245, "Longitude": -73.4651}, {"Sequence": 27, "PersonId": 51751, "AddressId": 1392256, "Specialty": "General Practice", "Photo": "findadentist.ada.org/Images/Profile/51751-Dr-Victoria-Colombo.png", "Name": "Dr Victoria Colombo", "Email": "colombodental@optonline.net", "Phone": "(516) 799-1787", "Address": "996 Hicksville Rd Massapequa, NY 11758-1251", "City": "Massapequa", "State": "NY", "Zip": "11758-1251", "AddressLine1": "996 Hicksville Rd", "AddressLine2": "", "Distance": 2.5, "Latitude": 40.69069, "Longitude": -73.47722}, {"Sequence": 28, "PersonId": 52327, "AddressId": 1392832, "Specialty": "General Practice", "Photo": "findadentist.ada.org/Images/Profile/52327-Dr-Fred-Colombo.png", "Name": "Dr Fred J Colombo", "Email": "colombodental@optonline.net", "Phone": "(516) 799-1787", "Address": "996 Hicksville Rd Massapequa, NY 11758-1251", "City": "Massapequa", "State": "NY", "Zip": "11758-1251", "AddressLine1": "996 Hicksville Rd", "AddressLine2": "", "Distance": 2.5, "Latitude": 40.69069, "Longitude": -73.47722}, {"Sequence": 29, "PersonId": 195404, "AddressId": 3423831, "Specialty": "General Practice", "Photo": "findadentist.ada.org/Images/Profile/195404-Dr-Monica-Giuliani.png", "Name": "Dr. Monica S Giuliani", "Email": "", "Phone": "(516) 541-7300", "Address": "4250 Jerusalem Avenue Massapequa, NY 11758", "City": "Massapequa", "State": "NY", "Zip": "11758", "AddressLine1": "4250 Jerusalem Avenue", "AddressLine2": "", "Distance": 2.5, "Latitude": 40.69106, "Longitude": -73.47914}, {"Sequence": 30, "PersonId": 221450, "AddressId": 1561955, "Specialty": "General Practice", "Photo": "findadentist.ada.org/Images/Profile/221450-Dr-Manisha-Suri.png", "Name": "Dr. Manisha Suri", "Email": "", "Phone": "(516) 541-7300", "Address": "4250 Jerusalem Ave Massapequa, NY 11758-3315", "City": "Massapequa", "State": "NY", "Zip": "11758-3315", "AddressLine1": "4250 Jerusalem Ave", "AddressLine2": "", "Distance": 2.5, "Latitude": 40.69106, "Longitude": -73.47914}, {"Sequence": 31, "PersonId": 54831, "AddressId": 3552558, "Specialty": "General Practice", "Photo": "findadentist.ada.org/Images/Profile/54831-Dr-David-Herman.png", "Name": "Dr David J Herman", "Email": "gedc423@greatexpressions.com", "Phone": "(516) 731-0040", "Address": "542 Gardiners Ave Levittown, NY 11756-3712", "City": "Levittown", "State": "NY", "Zip": "11756-3712", "AddressLine1": "542 Gardiners Ave", "AddressLine2": "", "Distance": 2.6, "Latitude": 40.71104, "Longitude": -73.5152}, {"Sequence": 32, "PersonId": 51080, "AddressId": 1391585, "Specialty": "General Practice", "Photo": "findadentist.ada.org/Images/Profile/51080-Dr-Philip-Walters.png", "Name": "Dr Philip F Walters, Jr.", "Email": "waltersdds@optimum.net", "Phone": "(516) 935-0642", "Address": "96 Grohmans Ln Plainview, NY 11803-5433", "City": "Plainview", "State": "NY", "Zip": "11803-5433", "AddressLine1": "96 Grohmans Ln", "AddressLine2": "", "Distance": 2.7, "Latitude": 40.76584, "Longitude": -73.48049}, {"Sequence": 33, "PersonId": 51134, "AddressId": 1391639, "Specialty": "General Practice", "Photo": "findadentist.ada.org/Images/Profile/51134-Dr-Glenn-Forrest.png", "Name": "Dr Glenn S Forrest", "Email": "forrestdds@aol.com", "Phone": "(516) 797-3285", "Address": "627 Broadway Ste B3 Massapequa, NY 11758-5031", "City": "Massapequa", "State": "NY", "Zip": "11758-5031", "AddressLine1": "627 Broadway Ste B3", "AddressLine2": "", "Distance": 2.8, "Latitude": 40.6863, "Longitude": -73.46755}, {"Sequence": 34, "PersonId": 50296, "AddressId": 1390801, "Specialty": "General Practice", "Photo": "findadentist.ada.org/Images/Profile/50296-Dr-Lewis-Ricciuti.png", "Name": "Dr Lewis L Ricciuti", "Email": "nicesmiledr@optonline.net", "Phone": "(516) 735-3535", "Address": "3000 Hempstead Tpke Ste 100 Levittown, NY 11756-1410", "City": "Levittown", "State": "NY", "Zip": "11756-1410", "AddressLine1": "3000 Hempstead Tpke Ste 100", "AddressLine2": null, "Distance": 2.8, "Latitude": 40.72448, "Longitude": -73.52433}, {"Sequence": 35, "PersonId": 145859, "AddressId": 1486364, "Specialty": "General Practice", "Photo": "findadentist.ada.org/Images/Profile/145859-Dr-Jennifer-Moore.png", "Name": "Dr. Jennifer A Moore", "Email": "nicesmiledr@optonline.net", "Phone": "(516) 735-3535", "Address": "3000 Hempstead Tpke Ste 101 Levittown, NY 11756-1396", "City": "Levittown", "State": "NY", "Zip": "11756-1396", "AddressLine1": "3000 Hempstead Tpke Ste 101", "AddressLine2": "", "Distance": 2.8, "Latitude": 40.72447, "Longitude": -73.52433}, {"Sequence": 36, "PersonId": 152195, "AddressId": 3417123, "Specialty": "General Practice", "Photo": "findadentist.ada.org/Images/Profile/152195-Dr-James-Albanese.png", "Name": "Dr. James R Albanese", "Email": "dralbanese@msn.com", "Phone": "(516) 735-3535", "Address": "3000 Hempstead Tpke Ste 101 Levittown, NY 11756-1396", "City": "Levittown", "State": "NY", "Zip": "11756-1396", "AddressLine1": "3000 Hempstead Tpke Ste 101", "AddressLine2": "", "Distance": 2.8, "Latitude": 40.72447, "Longitude": -73.52433}, {"Sequence": 37, "PersonId": 187570, "AddressId": 3553856, "Specialty": "General Practice", "Photo": "findadentist.ada.org/Images/Profile/187570-Dr-Paul-Perciballi.png", "Name": "Dr. Paul A Perciballi", "Email": "", "Phone": "(631) 756-1900", "Address": "234 Airport Plaza Blvd Ste 3 Farmingdale, NY 11735-3938", "City": "Farmingdale", "State": "NY", "Zip": "11735-3938", "AddressLine1": "234 Airport Plaza Blvd Ste 3", "AddressLine2": "", "Distance": 2.9, "Latitude": 40.73744, "Longitude": -73.41794}, {"Sequence": 38, "PersonId": 39587, "AddressId": 1380092, "Specialty": "General Practice", "Photo": "findadentist.ada.org/Images/Profile/39587-Dr-Meena-Jaiswal.png", "Name": "Dr Meena Jaiswal", "Email": "info@docjaiswal.com", "Phone": "(516) 797-7521", "Address": "584 Broadway Massapequa, NY 11758-5022", "City": "Massapequa", "State": "NY", "Zip": "11758-5022", "AddressLine1": "584 Broadway", "AddressLine2": "", "Distance": 3.0, "Latitude": 40.68377, "Longitude": -73.46783}, {"Sequence": 39, "PersonId": 50171, "AddressId": 1390676, "Specialty": "Orthodontics and Dentofacial Orthopedics", "Photo": "findadentist.ada.org/Images/Profile/50171-Dr-David-Ostreicher.png", "Name": "Dr David S Ostreicher", "Email": "diana@ostreicher.com", "Phone": "(516) 735-8315", "Address": "93 Division Ave Levittown, NY 11756-2921", "City": "Levittown", "State": "NY", "Zip": "11756-2921", "AddressLine1": "93 Division Ave", "AddressLine2": "", "Distance": 3.0, "Latitude": 40.72736, "Longitude": -73.52764}, {"Sequence": 40, "PersonId": 50165, "AddressId": 3591715, "Specialty": "Oral and Maxillofacial Surgery", "Photo": "findadentist.ada.org/Images/Profile/50165-Dr-Kenneth-Hirsch.png", "Name": "Dr Kenneth H Hirsch", "Email": "kennethhirschdds@yahoo.com", "Phone": "(516) 735-8723", "Address": "2920 Hempstead Tpke Levittown, NY 11756-1402", "City": "Levittown", "State": "NY", "Zip": "11756-1402", "AddressLine1": "2920 Hempstead Tpke", "AddressLine2": "", "Distance": 3.0, "Latitude": 40.724, "Longitude": -73.52753}, {"Sequence": 41, "PersonId": 51138, "AddressId": 2762053, "Specialty": "General Practice", "Photo": "findadentist.ada.org/Images/Profile/51138-Dr-Gregory-Seiden.png", "Name": "Dr Gregory M Seiden", "Email": "", "Phone": "(516) 731-7660", "Address": "21 Division Ave Levittown, NY 11756-2919", "City": "Levittown", "State": "NY", "Zip": "11756-2919", "AddressLine1": "21 Division Ave", "AddressLine2": "", "Distance": 3.0, "Latitude": 40.72544, "Longitude": -73.52827}, {"Sequence": 42, "PersonId": 51147, "AddressId": 3086706, "Specialty": "General Practice", "Photo": "findadentist.ada.org/Images/Profile/51147-Dr-Philip-Tornatore.png", "Name": "Philip M Tornatore,DDS", "Email": "drphil@drphildds.com", "Phone": "(516) 931-5483", "Address": "404 Jerusalem Ave Hicksville, NY 11801-5545", "City": "Hicksville", "State": "NY", "Zip": "11801-5545", "AddressLine1": "404 Jerusalem Ave", "AddressLine2": "", "Distance": 3.0, "Latitude": 40.75028, "Longitude": -73.51919}, {"Sequence": 43, "PersonId": 52001, "AddressId": 1392506, "Specialty": "General Practice", "Photo": "findadentist.ada.org/Images/Profile/52001-Dr-Karen-Weiss Camhi.png", "Name": "Dr Karen L Weiss-Camhi", "Email": "", "Phone": "(516) 796-6588", "Address": "64 Division Ave Ste 200 Levittown, NY 11756-2995", "City": "Levittown", "State": "NY", "Zip": "11756-2995", "AddressLine1": "64 Division Ave Ste 200", "AddressLine2": "", "Distance": 3.0, "Latitude": 40.7265, "Longitude": -73.52731}, {"Sequence": 44, "PersonId": 152389, "AddressId": 1492894, "Specialty": "General Practice", "Photo": "findadentist.ada.org/Images/Profile/152389-Dr-Peter-DeTolla.png", "Name": "Dr. Peter J DeTolla", "Email": "", "Phone": "(516) 735-1234", "Address": "58 Church Rd Levittown, NY 11756-2232", "City": "Levittown", "State": "NY", "Zip": "11756-2232", "AddressLine1": "58 Church Rd", "AddressLine2": "", "Distance": 3.0, "Latitude": 40.72875, "Longitude": -73.52757}, {"Sequence": 45, "PersonId": 168701, "AddressId": 1509206, "Specialty": "General Practice", "Photo": "findadentist.ada.org/Images/Profile/168701-Dr-Allison-Napoli-Gambella.png", "Name": "Dr. Allison D Napoli-Gambella", "Email": "", "Phone": "(516) 683-9100", "Address": "2920 Hempstead Tpke Ste 2 Levittown, NY 11756-1402", "City": "Levittown", "State": "NY", "Zip": "11756-1402", "AddressLine1": "2920 Hempstead Tpke Ste 2", "AddressLine2": "", "Distance": 3.0, "Latitude": 40.72404, "Longitude": -73.52753}, {"Sequence": 46, "PersonId": 195845, "AddressId": 3553912, "Specialty": "General Practice", "Photo": "findadentist.ada.org/Images/Profile/195845-Dr-Moshe-Schuck.png", "Name": "Dr. Moshe A Schuck", "Email": "dentisthicksville@gmail.com", "Phone": "(516) 931-8899", "Address": "400 Jerusalem Ave Hicksville, NY 11801-5533", "City": "Hicksville", "State": "NY", "Zip": "11801-5533", "AddressLine1": "400 Jerusalem Ave", "AddressLine2": "", "Distance": 3.0, "Latitude": 40.75065, "Longitude": -73.51936}, {"Sequence": 47, "PersonId": 51563, "AddressId": 1392068, "Specialty": "General Practice", "Photo": "findadentist.ada.org/Images/Profile/51563-Dr-Lawrence-Rosenzweig.png", "Name": "Dr Lawrence R Rosenzweig", "Email": "", "Phone": "(516) 679-5959", "Address": "3305 Jerusalem Ave Ste 102 Wantagh, NY 11793-2028", "City": "Wantagh", "State": "NY", "Zip": "11793-2028", "AddressLine1": "3305 Jerusalem Ave Ste 102", "AddressLine2": "", "Distance": 3.1, "Latitude": 40.69367, "Longitude": -73.5098}, {"Sequence": 48, "PersonId": 51697, "AddressId": 1392202, "Specialty": "Orthodontics and Dentofacial Orthopedics", "Photo": "findadentist.ada.org/Images/Profile/51697-Dr-Harry-Tsotsos.png", "Name": "Dr Harry J Tsotsos", "Email": "", "Phone": "(516) 221-0925", "Address": "3306 Jerusalem Ave Wantagh, NY 11793-2014", "City": "Wantagh", "State": "NY", "Zip": "11793-2014", "AddressLine1": "3306 Jerusalem Ave", "AddressLine2": null, "Distance": 3.1, "Latitude": 40.69311, "Longitude": -73.5097}, {"Sequence": 49, "PersonId": 50128, "AddressId": 1390633, "Specialty": "General Practice", "Photo": "findadentist.ada.org/Images/Profile/50128-Dr-Paul-Kosarin.png", "Name": "Dr Paul A Kosarin", "Email": "dkosarin@optonline.net", "Phone": "(516) 785-0730", "Address": "1228 Wantagh Ave Wantagh, NY 11793-2209", "City": "Wantagh", "State": "NY", "Zip": "11793-2209", "AddressLine1": "1228 Wantagh Ave", "AddressLine2": "", "Distance": 3.1, "Latitude": 40.6926, "Longitude": -73.50824}, {"Sequence": 50, "PersonId": 128282, "AddressId": 1468787, "Specialty": "Oral and Maxillofacial Surgery", "Photo": "findadentist.ada.org/Images/Profile/128282-Dr-Mitchell-Brookstone.png", "Name": "Dr. Mitchell S Brookstone", "Email": "drbrookstone@verizon.net", "Phone": "(516) 826-1666", "Address": "1228 Wantagh Ave Ste 101 Wantagh, NY 11793-2209", "City": "Wantagh", "State": "NY", "Zip": "11793-2209", "AddressLine1": "1228 Wantagh Ave Ste 101", "AddressLine2": null, "Distance": 3.1, "Latitude": 40.6926, "Longitude": -73.50824}, {"Sequence": 51, "PersonId": 160083, "AddressId": 3152390, "Specialty": "General Practice", "Photo": "findadentist.ada.org/Images/Profile/160083-Dr-Julia-Aida.png", "Name": "Dr. Julia M Aida", "Email": "", "Phone": "(516) 785-5239", "Address": "3299 Cherrywood Dr Wantagh, NY 11793-1827", "City": "Wantagh", "State": "NY", "Zip": "11793-1827", "AddressLine1": "3299 Cherrywood Dr", "AddressLine2": "", "Distance": 3.1, "Latitude": 40.69356, "Longitude": -73.5102}, {"Sequence": 52, "PersonId": 255549, "AddressId": 3459639, "Specialty": "General Practice", "Photo": "findadentist.ada.org/Images/Profile/255549-Dr-Kevin-von Werkheiser.png", "Name": "Dr. Kevin von Werkheiser", "Email": "drvondental@gmail.com", "Phone": "(516) 541-7600", "Address": "549 Broadway Ste 102 Massapequa, NY 11758-5012", "City": "Massapequa", "State": "NY", "Zip": "11758-5012", "AddressLine1": "549 Broadway Ste 102", "AddressLine2": "", "Distance": 3.2, "Latitude": 40.6807, "Longitude": -73.4696}, {"Sequence": 53, "PersonId": 50201, "AddressId": 1390706, "Specialty": "Periodontics", "Photo": "findadentist.ada.org/Images/Profile/50201-Dr-Frank-Palmaccio.png", "Name": "Dr. Frank J Palmaccio", "Email": "drpalmaccio@gmail.com", "Phone": "(516) 367-8288", "Address": "875 Old Country Rd Ste 101 Plainview, NY 11803-4934", "City": "Plainview", "State": "NY", "Zip": "11803-4934", "AddressLine1": "875 Old Country Rd Ste 101", "AddressLine2": "", "Distance": 3.3, "Latitude": 40.77387, "Longitude": -73.47924}, {"Sequence": 54, "PersonId": 50200, "AddressId": 3584496, "Specialty": "General Practice", "Photo": "findadentist.ada.org/Images/Profile/50200-Dr-Wayne-Michaels.png", "Name": "Dr Wayne Michaels", "Email": "wmichaelsdds@optimum.net", "Phone": "(516) 931-1221", "Address": "875 Old Country Rd Ste 101 Plainview, NY 11803-4934", "City": "Plainview", "State": "NY", "Zip": "11803-4934", "AddressLine1": "875 Old Country Rd Ste 101", "AddressLine2": "", "Distance": 3.3, "Latitude": 40.77389, "Longitude": -73.47927}, {"Sequence": 55, "PersonId": 51073, "AddressId": 1391578, "Specialty": "General Practice", "Photo": "findadentist.ada.org/Images/Profile/51073-Dr-Edward-Papa.png", "Name": "Dr Edward J Papa", "Email": "drejpapa@yahoo.com", "Phone": "(516) 798-3297", "Address": "530 Hicksville Rd Massapequa, NY 11758-1206", "City": "Massapequa", "State": "NY", "Zip": "11758-1206", "AddressLine1": "530 Hicksville Rd", "AddressLine2": "", "Distance": 3.3, "Latitude": 40.67929, "Longitude": -73.47387}, {"Sequence": 56, "PersonId": 50947, "AddressId": 1391452, "Specialty": "Orthodontics and Dentofacial Orthopedics", "Photo": "findadentist.ada.org/Images/Profile/50947-Dr-Gary-Weinberger.png", "Name": "Dr Gary Weinberger", "Email": "", "Phone": "(516) 822-4554", "Address": "1097 Old Country Rd Ste 203 Plainview, NY 11803-6505", "City": "Plainview", "State": "NY", "Zip": "11803-6505", "AddressLine1": "1097 Old Country Rd Ste 203", "AddressLine2": "", "Distance": 3.4, "Latitude": 40.77609, "Longitude": -73.46779}, {"Sequence": 57, "PersonId": 51738, "AddressId": 1392243, "Specialty": "General Practice", "Photo": "findadentist.ada.org/Images/Profile/51738-Dr-Philip-Gold.png", "Name": "Dr Philip Gold", "Email": "smilesbygold@yahoo.com", "Phone": "(516) 822-8500", "Address": "1097 Old Country Rd Ste 208 Plainview, NY 11803-6505", "City": "Plainview", "State": "NY", "Zip": "11803-6505", "AddressLine1": "1097 Old Country Rd Ste 208", "AddressLine2": "", "Distance": 3.4, "Latitude": 40.77609, "Longitude": -73.46779}, {"Sequence": 58, "PersonId": 51883, "AddressId": 2986426, "Specialty": "Periodontics", "Photo": "findadentist.ada.org/Images/Profile/51883-Dr-Glenn-Ludwig.png", "Name": "Miss Glenn S Ludwig", "Email": "gludwic@periosmiles.com", "Phone": "(516) 681-9500", "Address": "1097 Old Country Rd Plainview, NY 11803-6505", "City": "Plainview", "State": "NY", "Zip": "11803-6505", "AddressLine1": "1097 Old Country Rd", "AddressLine2": "", "Distance": 3.4, "Latitude": 40.77611, "Longitude": -73.46777}, {"Sequence": 59, "PersonId": 51909, "AddressId": 3066761, "Specialty": "General Practice", "Photo": "findadentist.ada.org/Images/Profile/51909-Dr-Jay-Lubliner.png", "Name": "Dr Jay B Lubliner", "Email": "lublinerdmd@ultimatedentistry.com", "Phone": "(516) 798-0223", "Address": "89 Grand Ave Massapequa, NY 11758-4905", "City": "Massapequa", "State": "NY", "Zip": "11758-4905", "AddressLine1": "89 Grand Ave", "AddressLine2": "", "Distance": 3.4, "Latitude": 40.67789, "Longitude": -73.47279}, {"Sequence": 60, "PersonId": 53048, "AddressId": 1393553, "Specialty": "General Practice", "Photo": "findadentist.ada.org/Images/Profile/53048-Dr-Lea-Bram.png", "Name": "Dr Lea Bram", "Email": "", "Phone": "(516) 681-3322", "Address": "998 Old Country Rd Ste 3 Plainview, NY 11803-4981", "City": "Plainview", "State": "NY", "Zip": "11803-4981", "AddressLine1": "998 Old Country Rd Ste 3", "AddressLine2": null, "Distance": 3.4, "Latitude": 40.77573, "Longitude": -73.47412}, {"Sequence": 61, "PersonId": 53571, "AddressId": 1394076, "Specialty": "General Practice", "Photo": "findadentist.ada.org/Images/Profile/53571-Dr-Mark-Bram.png", "Name": "Dr Mark Bram", "Email": "", "Phone": "(516) 681-3322", "Address": "998 Old Country Rd Ste 3 Plainview, NY 11803-4981", "City": "Plainview", "State": "NY", "Zip": "11803-4981", "AddressLine1": "998 Old Country Rd Ste 3", "AddressLine2": null, "Distance": 3.4, "Latitude": 40.77573, "Longitude": -73.47412}, {"Sequence": 62, "PersonId": 126325, "AddressId": 2698255, "Specialty": "Oral and Maxillofacial Surgery", "Photo": "findadentist.ada.org/Images/Profile/126325-Dr-Tracey-Rosenberg.png", "Name": "Dr. Tracey J Rosenberg", "Email": "", "Phone": "(516) 822-7881", "Address": "1181 Old Country Rd Plainview, NY 11803-5018", "City": "Plainview", "State": "NY", "Zip": "11803-5018", "AddressLine1": "1181 Old Country Rd", "AddressLine2": "", "Distance": 3.4, "Latitude": 40.77572, "Longitude": -73.46337}, {"Sequence": 63, "PersonId": 146949, "AddressId": 1487454, "Specialty": "General Practice", "Photo": "findadentist.ada.org/Images/Profile/146949-Dr-James-Woltmann.png", "Name": "Dr. James Woltmann", "Email": "mail@greaterlidental.com", "Phone": "(516) 798-4223", "Address": "101 New York Ave Massapequa, NY 11758-4910", "City": "Massapequa", "State": "NY", "Zip": "11758-4910", "AddressLine1": "101 New York Ave", "AddressLine2": "", "Distance": 3.4, "Latitude": 40.67834, "Longitude": -73.47227}, {"Sequence": 64, "PersonId": 159848, "AddressId": 1500353, "Specialty": "Oral and Maxillofacial Surgery", "Photo": "findadentist.ada.org/Images/Profile/159848-Dr-David-Jurman.png", "Name": "Dr. David L Jurman", "Email": "", "Phone": "(516) 822-7880", "Address": "1181 Old Country Rd Plainview, NY 11803-5018", "City": "Plainview", "State": "NY", "Zip": "11803-5018", "AddressLine1": "1181 Old Country Rd", "AddressLine2": "", "Distance": 3.4, "Latitude": 40.77568, "Longitude": -73.46336}, {"Sequence": 65, "PersonId": 195242, "AddressId": 1535747, "Specialty": "Prosthodontics", "Photo": "findadentist.ada.org/Images/Profile/195242-Dr-Donna-Gentile.png", "Name": "Dr. Donna Gentile", "Email": "gentiledentalcare@outlook.com", "Phone": "(516) 639-6975", "Address": "89 Grand Ave Massapequa, NY 11758-4905", "City": "Massapequa", "State": "NY", "Zip": "11758-4905", "AddressLine1": "89 Grand Ave", "AddressLine2": "", "Distance": 3.4, "Latitude": 40.67789, "Longitude": -73.47279}, {"Sequence": 66, "PersonId": 251105, "AddressId": 3333572, "Specialty": "Oral and Maxillofacial Surgery", "Photo": "findadentist.ada.org/Images/Profile/251105-Dr-Daniel-Fleischman.png", "Name": "Dr. Daniel H Fleischman", "Email": "info@plainvieworal.com", "Phone": "(516) 822-7880", "Address": "1181 Old Country Rd Ste 4 Plainview, NY 11803-5018", "City": "Plainview", "State": "NY", "Zip": "11803-5018", "AddressLine1": "1181 Old Country Rd Ste 4", "AddressLine2": "", "Distance": 3.4, "Latitude": 40.77568, "Longitude": -73.46336}, {"Sequence": 67, "PersonId": 256423, "AddressId": 3454987, "Specialty": "Oral and Maxillofacial Surgery", "Photo": "findadentist.ada.org/Images/Profile/256423-Dr-Robert-Bacigalupo.png", "Name": "Dr. Robert Bacigalupo", "Email": "drbacigalupo@plainvieworal.com", "Phone": null, "Address": "1181 Old Country Rd Plainview, NY 11803-5018", "City": "Plainview", "State": "NY", "Zip": "11803-5018", "AddressLine1": "1181 Old Country Rd", "AddressLine2": "", "Distance": 3.4, "Latitude": 40.77572, "Longitude": -73.46337}, {"Sequence": 68, "PersonId": 329836, "AddressId": 1670341, "Specialty": "Orthodontics and Dentofacial Orthopedics", "Photo": "findadentist.ada.org/Images/Profile/329836-Dr-Todd-Weinberger.png", "Name": "Dr Todd  Weinberger", "Email": "INFO@WEINBERGERORTHO.COM", "Phone": "(516) 822-4554", "Address": "1097 Old Country Rd Ste 203 Plainview, NY 11803-6505", "City": "Plainview", "State": "NY", "Zip": "11803-6505", "AddressLine1": "1097 Old Country Rd Ste 203", "AddressLine2": "", "Distance": 3.4, "Latitude": 40.77609, "Longitude": -73.46779}, {"Sequence": 69, "PersonId": 51544, "AddressId": 3522044, "Specialty": "General Practice", "Photo": "findadentist.ada.org/Images/Profile/51544-Dr-Khalida-Stutman.png", "Name": "Dr. Khalida K Stutman", "Email": "patientcare@smilesofstyle.com", "Phone": "(516) 798-3808", "Address": "4600 Sunrise Hwy Massapequa Park, NY 11762-2914", "City": "Massapequa Park", "State": "NY", "Zip": "11762-2914", "AddressLine1": "4600 Sunrise Hwy", "AddressLine2": "", "Distance": 3.5, "Latitude": 40.67664, "Longitude": -73.46226}, {"Sequence": 70, "PersonId": 51543, "AddressId": 1392048, "Specialty": "General Practice", "Photo": "findadentist.ada.org/Images/Profile/51543-Dr-Dory-Stutman.png", "Name": "Dr Dory H Stutman", "Email": "patientcare@smilesofstyle.com", "Phone": "(516) 798-3808", "Address": "4600 Sunrise Hwy Massapequa Park, NY 11762-2914", "City": "Massapequa Park", "State": "NY", "Zip": "11762-2914", "AddressLine1": "4600 Sunrise Hwy", "AddressLine2": "", "Distance": 3.5, "Latitude": 40.67664, "Longitude": -73.46227}, {"Sequence": 71, "PersonId": 50992, "AddressId": 3034678, "Specialty": "General Practice", "Photo": "findadentist.ada.org/Images/Profile/50992-Dr-Edward-Sloyer.png", "Name": "Dr Edward Sloyer", "Email": "care@smiledesignsli.com", "Phone": "(516) 935-5222", "Address": "26 Holyoke Rd Hicksville, NY 11801-3454", "City": "Hicksville", "State": "NY", "Zip": "11801-3454", "AddressLine1": "26 Holyoke Rd", "AddressLine2": "", "Distance": 3.5, "Latitude": 40.7718, "Longitude": -73.50181}, {"Sequence": 72, "PersonId": 51924, "AddressId": 1392429, "Specialty": "Oral and Maxillofacial Surgery", "Photo": "findadentist.ada.org/Images/Profile/51924-Dr-Peter-Scharfenberger.png", "Name": "Dr Peter L Scharfenberger", "Email": "", "Phone": "(516) 742-0544", "Address": "4180 Sunrise Hwy Massapequa, NY 11758-5303", "City": "Massapequa", "State": "NY", "Zip": "11758-5303", "AddressLine1": "4180 Sunrise Hwy", "AddressLine2": "", "Distance": 3.5, "Latitude": 40.67681, "Longitude": -73.45919}, {"Sequence": 73, "PersonId": 194862, "AddressId": 3432534, "Specialty": "Endodontics", "Photo": "findadentist.ada.org/Images/Profile/194862-Dr-Raffi-Haroun.png", "Name": "Dr. Raffi Haroun", "Email": "massapequaengo@gmail.com", "Phone": "(516) 308-4445", "Address": "4770 Sunrise Hwy Ste 102 Massapequa Park, NY 11762-2911", "City": "Massapequa Park", "State": "NY", "Zip": "11762-2911", "AddressLine1": "4770 Sunrise Hwy Ste 102", "AddressLine2": "", "Distance": 3.5, "Latitude": 40.67681, "Longitude": -73.45919}, {"Sequence": 74, "PersonId": 215111, "AddressId": 3574287, "Specialty": "General Practice", "Photo": "findadentist.ada.org/Images/Profile/215111-Dr-Brian-Davis.png", "Name": "Dr. Brian J Davis", "Email": "care@smiledesignsli.com", "Phone": "(516) 935-5222", "Address": "26 Holyoke Rd Hicksville, NY 11801-3454", "City": "Hicksville", "State": "NY", "Zip": "11801-3454", "AddressLine1": "26 Holyoke Rd", "AddressLine2": "", "Distance": 3.5, "Latitude": 40.77183, "Longitude": -73.50187}, {"Sequence": 75, "PersonId": 223542, "AddressId": 3425920, "Specialty": "Oral and Maxillofacial Surgery", "Photo": "findadentist.ada.org/Images/Profile/223542-Dr-Jason-Kneller.png", "Name": "Dr. Jason M Kneller", "Email": "Info@PlainviewOral.com", "Phone": "(516) 798-4143", "Address": "4180 Sunrise Hwy Massapequa, NY 11758-5303", "City": "Massapequa", "State": "NY", "Zip": "11758-5303", "AddressLine1": "4180 Sunrise Hwy", "AddressLine2": "", "Distance": 3.6, "Latitude": 40.67498, "Longitude": -73.4789}, {"Sequence": 76, "PersonId": 223542, "AddressId": 3425920, "Specialty": "Oral and Maxillofacial Surgery", "Photo": "findadentist.ada.org/Images/Profile/223542-Dr-Jason-Kneller.png", "Name": "Dr. Jason M Kneller", "Email": "Info@PlainviewOral.com", "Phone": "(516) 822-7880", "Address": "4180 Sunrise Hwy Massapequa, NY 11758-5303", "City": "Massapequa", "State": "NY", "Zip": "11758-5303", "AddressLine1": "4180 Sunrise Hwy", "AddressLine2": "", "Distance": 3.6, "Latitude": 40.67498, "Longitude": -73.4789}, {"Sequence": 77, "PersonId": 251105, "AddressId": 3425475, "Specialty": "Oral and Maxillofacial Surgery", "Photo": "findadentist.ada.org/Images/Profile/251105-Dr-Daniel-Fleischman.png", "Name": "Dr. Daniel H Fleischman", "Email": "info@plainvieworal.com", "Phone": "(516) 798-4143", "Address": "4180 Sunrise Hwy Massapequa, NY 11758-5303", "City": "Massapequa", "State": "NY", "Zip": "11758-5303", "AddressLine1": "4180 Sunrise Hwy", "AddressLine2": "", "Distance": 3.6, "Latitude": 40.67498, "Longitude": -73.4789}, {"Sequence": 78, "PersonId": 50263, "AddressId": 1390768, "Specialty": "General Practice", "Photo": "findadentist.ada.org/Images/Profile/50263-Dr-Roger-Giuliani.png", "Name": "Dr Roger M Giuliani", "Email": "", "Phone": "(516) 799-5577", "Address": "25 Carmans Rd Massapequa, NY 11758-4749", "City": "Massapequa", "State": "NY", "Zip": "11758-4749", "AddressLine1": "25 Carmans Rd", "AddressLine2": "", "Distance": 3.7, "Latitude": 40.68239, "Longitude": -73.43078}, {"Sequence": 79, "PersonId": 50407, "AddressId": 2762035, "Specialty": "General Practice", "Photo": "findadentist.ada.org/Images/Profile/50407-Dr-Maureen-Tredwell.png", "Name": "Dr Maureen A Tredwell", "Email": "TredwellDental@aol.com", "Phone": "(516) 785-7529", "Address": "1599 Wantagh Ave Wantagh, NY 11793-3936", "City": "Wantagh", "State": "NY", "Zip": "11793-3936", "AddressLine1": "1599 Wantagh Ave", "AddressLine2": "", "Distance": 3.7, "Latitude": 40.68283, "Longitude": -73.50966}, {"Sequence": 80, "PersonId": 188558, "AddressId": 1529063, "Specialty": "General Practice", "Photo": "findadentist.ada.org/Images/Profile/188558-Dr-Michael-Giuliani.png", "Name": "Dr. Michael F Giuliani", "Email": "", "Phone": "(516) 799-5577", "Address": "25 Carmans Rd Massapequa, NY 11758-4749", "City": "Massapequa", "State": "NY", "Zip": "11758-4749", "AddressLine1": "25 Carmans Rd", "AddressLine2": "", "Distance": 3.7, "Latitude": 40.68239, "Longitude": -73.43078}, {"Sequence": 81, "PersonId": 195404, "AddressId": 1535909, "Specialty": "General Practice", "Photo": "findadentist.ada.org/Images/Profile/195404-Dr-Monica-Giuliani.png", "Name": "Dr. Monica S Giuliani", "Email": "", "Phone": "(516) 799-5577", "Address": "25 Carmans Rd Massapequa, NY 11758-4749", "City": "Massapequa", "State": "NY", "Zip": "11758-4749", "AddressLine1": "25 Carmans Rd", "AddressLine2": "", "Distance": 3.7, "Latitude": 40.68239, "Longitude": -73.43078}, {"Sequence": 82, "PersonId": 50958, "AddressId": 1391463, "Specialty": "Pediatric Dentistry", "Photo": "findadentist.ada.org/Images/Profile/50958-Dr-Charles-Pillar.png", "Name": "Dr Charles J Pillar", "Email": "", "Phone": "(516) 931-7171", "Address": "146A Manetto Hill Rd Ste 100 Plainview, NY 11803-1323", "City": "Plainview", "State": "NY", "Zip": "11803-1323", "AddressLine1": "146A Manetto Hill Rd Ste 100", "AddressLine2": null, "Distance": 3.8, "Latitude": 40.7824, "Longitude": -73.47346}, {"Sequence": 83, "PersonId": 51123, "AddressId": 3416704, "Specialty": "General Practice", "Photo": "findadentist.ada.org/Images/Profile/51123-Dr-John-Marino.png", "Name": "John Marino", "Email": "info@jmarinodds.com", "Phone": "(516) 938-0929", "Address": "118 Jerusalem Ave Hicksville, NY 11801-4952", "City": "Hicksville", "State": "NY", "Zip": "11801-4952", "AddressLine1": "118 Jerusalem Ave", "AddressLine2": "", "Distance": 3.8, "Latitude": 40.76385, "Longitude": -73.52439}, {"Sequence": 84, "PersonId": 189001, "AddressId": 1529506, "Specialty": "Orthodontics and Dentofacial Orthopedics", "Photo": "findadentist.ada.org/Images/Profile/189001-Dr-Christian-Miller.png", "Name": "Dr. Christian E Miller", "Email": "Drchris@greatsmiles4longisland.com", "Phone": "(516) 932-1101", "Address": "100 Manetto Hill Rd Ste 208 Plainview, NY 11803-1311", "City": "Plainview", "State": "NY", "Zip": "11803-1311", "AddressLine1": "100 Manetto Hill Rd Ste 208", "AddressLine2": "", "Distance": 3.8, "Latitude": 40.78135, "Longitude": -73.47239}, {"Sequence": 85, "PersonId": 216559, "AddressId": 3467190, "Specialty": "Orthodontics and Dentofacial Orthopedics", "Photo": "findadentist.ada.org/Images/Profile/216559-Dr-Ari-Pillar.png", "Name": "Dr. Ari M Pillar", "Email": "", "Phone": "(516) 931-7171", "Address": "146A Manetto Hill Rd Ste 100 Plainview, NY 11803-1323", "City": "Plainview", "State": "NY", "Zip": "11803-1323", "AddressLine1": "146A Manetto Hill Rd Ste 100", "AddressLine2": "", "Distance": 3.8, "Latitude": 40.7824, "Longitude": -73.47346}, {"Sequence": 86, "PersonId": 130243, "AddressId": 3419527, "Specialty": "Periodontics", "Photo": "findadentist.ada.org/Images/Profile/130243-Dr-Vanita-Mudgil.png", "Name": "Dr. Vanita A Mudgil", "Email": "vmudgil@mudgilperio.com", "Phone": "(516) 597-4272", "Address": "99 Woodbury Rd Hicksville, NY 11801-3043", "City": "Hicksville", "State": "NY", "Zip": "11801-3043", "AddressLine1": "99 Woodbury Rd", "AddressLine2": "", "Distance": 3.9, "Latitude": 40.77103, "Longitude": -73.51869}, {"Sequence": 87, "PersonId": 196184, "AddressId": 1536689, "Specialty": "General Practice", "Photo": "findadentist.ada.org/Images/Profile/196184-Dr-Monika-Bhatia.png", "Name": "Dr. Monika Bhatia", "Email": "", "Phone": "(516) 935-5391", "Address": "267 Old Country Rd Hicksville, NY 11801-4014", "City": "Hicksville", "State": "NY", "Zip": "11801-4014", "AddressLine1": "267 Old Country Rd", "AddressLine2": "", "Distance": 3.9, "Latitude": 40.76078, "Longitude": -73.53037}, {"Sequence": 88, "PersonId": 51224, "AddressId": 1391729, "Specialty": "General Practice", "Photo": "findadentist.ada.org/Images/Profile/51224-Dr-Lawrence-Lambroia.png", "Name": "Dr Lawrence A Lambroia", "Email": "laldds@optonline.net", "Phone": "(516) 735-8700", "Address": "2246 Bright Ave East Meadow, NY 11554-2023", "City": "East Meadow", "State": "NY", "Zip": "11554-2023", "AddressLine1": "2246 Bright Ave", "AddressLine2": "", "Distance": 4.0, "Latitude": 40.72447, "Longitude": -73.54653}, {"Sequence": 89, "PersonId": 50294, "AddressId": 1390799, "Specialty": "General Practice", "Photo": "findadentist.ada.org/Images/Profile/50294-Dr-David-Miller.png", "Name": "Dr. David J Miller", "Email": "", "Phone": "(516) 221-6716", "Address": "467 Newbridge Rd East Meadow, NY 11554-4121", "City": "East Meadow", "State": "NY", "Zip": "11554-4121", "AddressLine1": "467 Newbridge Rd", "AddressLine2": "", "Distance": 4.0, "Latitude": 40.71193, "Longitude": -73.54415}, {"Sequence": 90, "PersonId": 39320, "AddressId": 3423999, "Specialty": "General Practice", "Photo": "findadentist.ada.org/Images/Profile/39320-Dr-Matthew-Hyde.png", "Name": "Dr Matthew Hyde", "Email": "plainviewdental1@gmail.com", "Phone": "(516) 249-2858", "Address": "1670 Old Country Rd Ste 216 Plainview, NY 11803-5020", "City": "Plainview", "State": "NY", "Zip": "11803-5020", "AddressLine1": "1670 Old Country Rd Ste 216", "AddressLine2": "", "Distance": 4.0, "Latitude": 40.78156, "Longitude": -73.44706}, {"Sequence": 91, "PersonId": 159882, "AddressId": 3091021, "Specialty": "General Practice", "Photo": "findadentist.ada.org/Images/Profile/159882-Dr-Sofia-Fokas.png", "Name": "Dr. Sofia M Fokas", "Email": "info@fokassmiles.com", "Phone": "(516) 605-0011", "Address": "25 Holyoke Rd Hicksville, NY 11801-3447", "City": "Hicksville", "State": "NY", "Zip": "11801-3447", "AddressLine1": "25 Holyoke Rd", "AddressLine2": "Fokas Dental", "Distance": 4.0, "Latitude": 40.76843, "Longitude": -73.52513}, {"Sequence": 92, "PersonId": 197251, "AddressId": 1537756, "Specialty": "Prosthodontics", "Photo": "findadentist.ada.org/Images/Profile/197251-Dr-Andrew-Pacinelli.png", "Name": "Dr. Andrew J Pacinelli", "Email": "pacinelli@hotmail.com", "Phone": "(516) 804-5955", "Address": "3402 Park Ave Wantagh, NY 11793-3702", "City": "Wantagh", "State": "NY", "Zip": "11793-3702", "AddressLine1": "3402 Park Ave", "AddressLine2": "", "Distance": 4.1, "Latitude": 40.67393, "Longitude": -73.50636}, {"Sequence": 93, "PersonId": 50975, "AddressId": 3084595, "Specialty": "General Practice", "Photo": "findadentist.ada.org/Images/Profile/50975-Dr-Norman-Rich.png", "Name": "Dr Norman E Rich", "Email": "drrichnorm@optonline.net", "Phone": "(516) 785-1188", "Address": "3366 Park Ave Wantagh, NY 11793-3770", "City": "Wantagh", "State": "NY", "Zip": "11793-3770", "AddressLine1": "3366 Park Ave", "AddressLine2": "", "Distance": 4.2, "Latitude": 40.67368, "Longitude": -73.50812}, {"Sequence": 94, "PersonId": 51000, "AddressId": 1391505, "Specialty": "Periodontics", "Photo": "findadentist.ada.org/Images/Profile/51000-Dr-Leslie-Batnick.png", "Name": "Dr Leslie G Batnick", "Email": "mail@southshoreliperio.com", "Phone": "(516) 826-4949", "Address": "3366 Park Ave Wantagh, NY 11793-3770", "City": "Wantagh", "State": "NY", "Zip": "11793-3770", "AddressLine1": "3366 Park Ave", "AddressLine2": "", "Distance": 4.2, "Latitude": 40.67368, "Longitude": -73.50812}, {"Sequence": 95, "PersonId": 51139, "AddressId": 3431663, "Specialty": "Periodontics", "Photo": "findadentist.ada.org/Images/Profile/51139-Dr-Lois-Levine.png", "Name": "Dr Lois B Levine, Jr.", "Email": "mail@southshoreliperio.com", "Phone": "(516) 826-4949", "Address": "3366 Park Ave Fl 1 Wantagh, NY 11793-3718", "City": "Wantagh", "State": "NY", "Zip": "11793-3718", "AddressLine1": "3366 Park Ave Fl 1", "AddressLine2": "", "Distance": 4.2, "Latitude": 40.67368, "Longitude": -73.50812}, {"Sequence": 96, "PersonId": 51814, "AddressId": 1392319, "Specialty": "General Practice", "Photo": "findadentist.ada.org/Images/Profile/51814-Dr-Jeffrey-Sender.png", "Name": "Dr Jeffrey B Sender", "Email": "", "Phone": "(516) 681-2525", "Address": "82 W John St Hicksville, NY 11801-1020", "City": "Hicksville", "State": "NY", "Zip": "11801-1020", "AddressLine1": "82 W John St", "AddressLine2": "", "Distance": 4.2, "Latitude": 40.76893, "Longitude": -73.52991}, {"Sequence": 97, "PersonId": 51815, "AddressId": 1392320, "Specialty": "General Practice", "Photo": "findadentist.ada.org/Images/Profile/51815-Dr-Scott-Russ.png", "Name": "Dr Scott M Russ", "Email": "broadwaydental@optonline.net", "Phone": "(516) 681-2525", "Address": "82 W John St Hicksville, NY 11801-1020", "City": "Hicksville", "State": "NY", "Zip": "11801-1020", "AddressLine1": "82 W John St", "AddressLine2": "", "Distance": 4.2, "Latitude": 40.76891, "Longitude": -73.52992}, {"Sequence": 98, "PersonId": 51983, "AddressId": 3009766, "Specialty": "General Practice", "Photo": "findadentist.ada.org/Images/Profile/51983-Dr-Anthony-Bacchi.png", "Name": "Dr. Anthony J Bacchi", "Email": "office@ajbdental.com", "Phone": "(516) 785-2255", "Address": "3366 Park Ave Ste 201 Wantagh, NY 11793-3718", "City": "Wantagh", "State": "NY", "Zip": "11793-3718", "AddressLine1": "3366 Park Ave Ste 201", "AddressLine2": "", "Distance": 4.2, "Latitude": 40.67367, "Longitude": -73.50814}, {"Sequence": 99, "PersonId": 190977, "AddressId": 3377452, "Specialty": "General Practice", "Photo": "findadentist.ada.org/Images/Profile/190977-Dr-Jay-Ritter.png", "Name": "Dr. Jay Ritter", "Email": "", "Phone": "(516) 798-6300", "Address": "4160 Merrick Rd #4 Massapequa, NY 11758-6027", "City": "Massapequa", "State": "NY", "Zip": "11758-6027", "AddressLine1": "4160 Merrick Rd #4", "AddressLine2": "", "Distance": 4.2, "Latitude": 40.66645, "Longitude": -73.47917}, {"Sequence": 100, "PersonId": 209853, "AddressId": 3377451, "Specialty": "General Practice", "Photo": "findadentist.ada.org/Images/Profile/209853-Dr-Frank-Tarantino.png", "Name": "Dr. Frank J Tarantino", "Email": "drfranktarantino@gmail.com", "Phone": "(516) 308-7121", "Address": "4891 Merrick Rd Massapequa Park, NY 11762-3804", "City": "Massapequa Park", "State": "NY", "Zip": "11762-3804", "AddressLine1": "4891 Merrick Rd", "AddressLine2": "South Shore Aesthetic Dentistry", "Distance": 4.2, "Latitude": 40.66667, "Longitude": -73.45486}]