[{"Sequence": 1, "PersonId": 141827, "AddressId": 1482332, "Specialty": "General Practice", "Photo": "findadentist.ada.org/Images/Profile/ADA.png", "Name": "Dr. Beauvoir Abellard", "Email": "", "Phone": "(718) 856-9603", "Address": "47 E 32nd St Brooklyn, NY 11226-4207", "City": "Brooklyn", "State": "NY", "Zip": "11226-4207", "AddressLine1": "47 E 32nd St", "AddressLine2": "", "Distance": 0.4, "Latitude": 40.64977, "Longitude": -73.94724}, {"Sequence": 2, "PersonId": 42375, "AddressId": 1382880, "Specialty": "General Practice", "Photo": "findadentist.ada.org/Images/Profile/ADA.png", "Name": "Dr Ellen J Heuman", "Email": "", "Phone": "(718) 856-9500", "Address": "865 Flatbush Ave Brooklyn, NY 11226-3105", "City": "Brooklyn", "State": "NY", "Zip": "11226-3105", "AddressLine1": "865 Flatbush Ave", "AddressLine2": "", "Distance": 0.4, "Latitude": 40.65105, "Longitude": -73.95862}, {"Sequence": 3, "PersonId": 190994, "AddressId": 1531499, "Specialty": "General Practice", "Photo": "findadentist.ada.org/Images/Profile/ADA.png", "Name": "Dr. Chia-Hung Yuan", "Email": "", "Phone": "(718) 762-1080", "Address": "100 Parkside Ave Brooklyn, NY 11226-1192", "City": "Brooklyn", "State": "NY", "Zip": "11226-1192", "AddressLine1": "100 Parkside Ave", "AddressLine2": "", "Distance": 0.7, "Latitude": 40.65335, "Longitude": -73.96459}, {"Sequence": 4, "PersonId": 41999, "AddressId": 1382504, "Specialty": "Orthodontics and Dentofacial Orthopedics", "Photo": "findadentist.ada.org/Images/Profile/ADA.png", "Name": "Dr Isabel T Whitehill-Grayson", "Email": "", "Phone": "(718) 284-5656", "Address": "539 E 18th St Brooklyn, NY 11226-6703", "City": "Brooklyn", "State": "NY", "Zip": "11226-6703", "AddressLine1": "539 E 18th St", "AddressLine2": "", "Distance": 0.8, "Latitude": 40.63758, "Longitude": -73.96053}, {"Sequence": 5, "PersonId": 43215, "AddressId": 1383720, "Specialty": "General Practice", "Photo": "findadentist.ada.org/Images/Profile/ADA.png", "Name": "Dr Roy Schmukler", "Email": "", "Phone": "((718)) 462-3541", "Address": "1316 Cortelyou Rd Brooklyn, NY 11226-5604", "City": "Brooklyn", "State": "NY", "Zip": "11226-5604", "AddressLine1": "1316 Cortelyou Rd", "AddressLine2": "", "Distance": 0.8, "Latitude": 40.64046, "Longitude": -73.96553}, {"Sequence": 6, "PersonId": 300432, "AddressId": 1640937, "Specialty": "General Practice", "Photo": "findadentist.ada.org/Images/Profile/ADA.png", "Name": "Dr Ulky Saint-Vil", "Email": "", "Phone": "(718) 434-9313", "Address": "1012 Ocean Ave Ste 1B Brooklyn, NY 11226-7465", "City": "Brooklyn", "State": "NY", "Zip": "11226-7465", "AddressLine1": "1012 Ocean Ave Ste 1B", "AddressLine2": null, "Distance": 0.7, "Latitude": 40.63739, "Longitude": -73.95897}, {"Sequence": 7, "PersonId": 43252, "AddressId": 2767572, "Specialty": "General Practice", "Photo": "findadentist.ada.org/Images/Profile/ADA.png", "Name": "Dr Ronald Gutman", "Email": "", "Phone": "(718) 941-7400", "Address": "865 Flatbush Ave Brooklyn, NY 11226-3105", "City": "Brooklyn", "State": "NY", "Zip": "11226-3105", "AddressLine1": "865 Flatbush Ave", "AddressLine2": "", "Distance": 0.4, "Latitude": 40.65105, "Longitude": -73.95862}]