[{"Sequence": 1, "PersonId": 191913, "AddressId": 3470717, "Specialty": "Oral and Maxillofacial Surgery", "Photo": "findadentist.ada.org/Images/Profile/191913-Dr-Arian-Sadeghi.png", "Name": "Dr. Arian Sadeghi", "Email": "", "Phone": "(347) 579-5159", "Address": "10308 Roosevelt Ave Fl 2 Corona, NY 11368-2330", "City": "Corona", "State": "NY", "Zip": "11368-2330", "AddressLine1": "10308 Roosevelt Ave Fl 2", "AddressLine2": "", "Distance": 0.8, "Latitude": 40.74939, "Longitude": -73.86264}, {"Sequence": 2, "PersonId": 211480, "AddressId": 1551985, "Specialty": "General Practice", "Photo": "findadentist.ada.org/Images/Profile/211480-Dr-Lynda-Albandoz Fuentes.png", "Name": "Dr. Lynda M Albandoz Fuentes", "Email": "", "Phone": null, "Address": "10017 Northern Blvd Corona, NY 11368-1038", "City": "Corona", "State": "NY", "Zip": "11368-1038", "AddressLine1": "10017 Northern Blvd", "AddressLine2": "", "Distance": 1.2, "Latitude": 40.75768, "Longitude": -73.86777}, {"Sequence": 3, "PersonId": 53556, "AddressId": 3553465, "Specialty": "General Practice", "Photo": "findadentist.ada.org/Images/Profile/53556-Dr-Mercedes-Mota-Martinez.png", "Name": "Dr. Mercedes Mota-Martinez", "Email": "", "Phone": "(718) 779-2214", "Address": "10401 Roosevelt Ave Corona, NY 11368-2327", "City": "Corona", "State": "NY", "Zip": "11368-2327", "AddressLine1": "10401 Roosevelt Ave", "AddressLine2": "", "Distance": 0.7, "Latitude": 40.7502, "Longitude": -73.86164}, {"Sequence": 4, "PersonId": 219024, "AddressId": 3465468, "Specialty": "General Practice", "Photo": "findadentist.ada.org/Images/Profile/ADA.png", "Name": "Dr. Lourdes M Albandoz", "Email": "", "Phone": "(718) 424-9210", "Address": "10017 Northern Blvd Fl Ground Corona, NY 11368-1038", "City": "Corona", "State": "NY", "Zip": "11368-1038", "AddressLine1": "10017 Northern Blvd Fl Ground", "AddressLine2": "", "Distance": 1.2, "Latitude": 40.75768, "Longitude": -73.86777}, {"Sequence": 5, "PersonId": 52965, "AddressId": 1393470, "Specialty": "General Practice", "Photo": "findadentist.ada.org/Images/Profile/ADA.png", "Name": "Dr Sam Cosentino", "Email": "", "Phone": "(718) 271-3100", "Address": "5212 108th St Corona, NY 11368-3335", "City": "Corona", "State": "NY", "Zip": "11368-3335", "AddressLine1": "5212 108th St", "AddressLine2": "", "Distance": 0.7, "Latitude": 40.74284, "Longitude": -73.85494}, {"Sequence": 6, "PersonId": 53118, "AddressId": 2796211, "Specialty": "General Practice", "Photo": "findadentist.ada.org/Images/Profile/ADA.png", "Name": "Dr Juan J Pesantes", "Email": "", "Phone": "(718) 651-3939", "Address": "4104 102nd St Apt 2 Corona, NY 11368-2483", "City": "Corona", "State": "NY", "Zip": "11368-2483", "AddressLine1": "4104 102nd St Apt 2", "AddressLine2": "", "Distance": 0.8, "Latitude": 40.74832, "Longitude": -73.86347}, {"Sequence": 7, "PersonId": 53561, "AddressId": 3561288, "Specialty": "General Practice", "Photo": "findadentist.ada.org/Images/Profile/ADA.png", "Name": "Dr Hanette S Gomez", "Email": "Hanettegomezdds@gmail.com", "Phone": "(718) 651-7070", "Address": "9605 40th Rd Corona, NY 11368-2138", "City": "Corona", "State": "NY", "Zip": "11368-2138", "AddressLine1": "9605 40th Rd", "AddressLine2": "", "Distance": 1.1, "Latitude": 40.74855, "Longitude": -73.86862}]