[{"Sequence": 1, "PersonId": 190176, "AddressId": 2761999, "Specialty": "Orthodontics and Dentofacial Orthopedics", "Photo": "findadentist.ada.org/Images/Profile/190176-Dr-Victor-Grazina.png", "Name": "Dr. Victor J Grazina", "Email": "info@facingthefuture.com", "Phone": "(631) 604-2206", "Address": "87 Newtown Ln Ste 4 East Hampton, NY 11937-2485", "City": "East Hampton", "State": "NY", "Zip": "11937-2485", "AddressLine1": "87 Newtown Ln Ste 4", "AddressLine2": "", "Distance": 8.8, "Latitude": 40.96446, "Longitude": -72.18967}, {"Sequence": 2, "PersonId": 54816, "AddressId": 3397562, "Specialty": "General Practice", "Photo": "findadentist.ada.org/Images/Profile/54816-Dr-Philip-Centonze.png", "Name": "Dr Philip J Centonze", "Email": "drill52@aol.com", "Phone": "(631) 298-4667", "Address": "5700 County Road 48 Mattituck, NY 11952", "City": "Mattituck", "State": "NY", "Zip": "11952", "AddressLine1": "5700 County Road 48", "AddressLine2": "", "Distance": 11.5, "Latitude": 40.99441, "Longitude": -72.53473}, {"Sequence": 3, "PersonId": 189001, "AddressId": 3554230, "Specialty": "Orthodontics and Dentofacial Orthopedics", "Photo": "findadentist.ada.org/Images/Profile/189001-Dr-Christian-Miller.png", "Name": "Dr. Christian E Miller", "Email": "Drchris@greatsmiles4longisland.com", "Phone": "(631) 407-0961", "Address": "715 Roanoke Ave Riverhead, NY 11901-2769", "City": "Riverhead", "State": "NY", "Zip": "11901-2769", "AddressLine1": "715 Roanoke Ave", "AddressLine2": "", "Distance": 16.9, "Latitude": 40.92363, "Longitude": -72.66729}, {"Sequence": 4, "PersonId": 190384, "AddressId": 2762000, "Specialty": "General Practice", "Photo": "findadentist.ada.org/Images/Profile/190384-Dr-John-French.png", "Name": "Dr. John F French", "Email": "info@sagharbordental.com", "Phone": "(631) 725-2000", "Address": "82 Hampton St Sag Harbor, NY 11963-4202", "City": "Sag Harbor", "State": "NY", "Zip": "11963-4202", "AddressLine1": "82 Hampton St", "AddressLine2": "", "Distance": 6.5, "Latitude": 40.99685, "Longitude": -72.28841}, {"Sequence": 5, "PersonId": 54684, "AddressId": 3553920, "Specialty": "Pediatric Dentistry", "Photo": "findadentist.ada.org/Images/Profile/54684-Dr-Patricia-Hanlon.png", "Name": "Dr Patricia M Hanlon", "Email": "drshanlonsanders@aol.com", "Phone": "(631) 369-0300", "Address": "1149 Old Country Rd Ste B1 Riverhead, NY 11901-2060", "City": "Riverhead", "State": "NY", "Zip": "11901-2060", "AddressLine1": "1149 Old Country Rd Ste B1", "AddressLine2": "", "Distance": 17.5, "Latitude": 40.93101, "Longitude": -72.67799}, {"Sequence": 6, "PersonId": 199972, "AddressId": 3468118, "Specialty": "General Practice", "Photo": "findadentist.ada.org/Images/Profile/199972-Dr-Brian-Park.png", "Name": "Dr. Brian Park", "Email": "hdgstaff@optonline.net", "Phone": "(631) 283-0352", "Address": "325 Meeting House Ln Bldg 2 Southampton, NY 11968-5087", "City": "Southampton", "State": "NY", "Zip": "11968-5087", "AddressLine1": "325 Meeting House Ln Bldg 2", "AddressLine2": "", "Distance": 2.6, "Latitude": 40.88686, "Longitude": -72.37898}, {"Sequence": 7, "PersonId": 54090, "AddressId": 1394595, "Specialty": "Prosthodontics", "Photo": "findadentist.ada.org/Images/Profile/54090-Dr-David-Pascoe.png", "Name": "Dr David F Pascoe", "Email": "david@nfdoc.com", "Phone": "(631) 765-1919", "Address": "51100 Route 25 Southold, NY 11971-4655", "City": "Southold", "State": "NY", "Zip": "11971-4655", "AddressLine1": "51100 Route 25", "AddressLine2": "", "Distance": 11.1, "Latitude": 41.05879, "Longitude": -72.43415}, {"Sequence": 8, "PersonId": 203227, "AddressId": 3529048, "Specialty": "Oral and Maxillofacial Pathology", "Photo": "findadentist.ada.org/Images/Profile/203227-Dr-Sarah-Schroetter.png", "Name": "Dr. Sarah B Schroetter", "Email": "", "Phone": "(631) 604-2206", "Address": "87 Newtown Ln Ste 4 East Hampton, NY 11937-2485", "City": "East Hampton", "State": "NY", "Zip": "11937-2485", "AddressLine1": "87 Newtown Ln Ste 4", "AddressLine2": "", "Distance": 8.8, "Latitude": 40.96446, "Longitude": -72.18967}, {"Sequence": 9, "PersonId": 54870, "AddressId": 3553932, "Specialty": "General Practice", "Photo": "findadentist.ada.org/Images/Profile/54870-Dr-Guy-Spinner.png", "Name": "Dr Guy A Spinner", "Email": "drspinner@gmail.com", "Phone": "(631) 288-9000", "Address": "16 Riverhead Rd Westhampton Beach, NY 11978-1401", "City": "Westhampton Beach", "State": "NY", "Zip": "11978-1401", "AddressLine1": "16 Riverhead Rd", "AddressLine2": "", "Distance": 17.0, "Latitude": 40.82301, "Longitude": -72.64642}, {"Sequence": 10, "PersonId": 54980, "AddressId": 3397565, "Specialty": "General Practice", "Photo": "findadentist.ada.org/Images/Profile/54980-Dr-Gary-Manowitz.png", "Name": "Dr Gary E Manowitz", "Email": "hdgstaff@optonline.net", "Phone": "(631) 283-0352", "Address": "325 Meeting House Ln  Bldg 2 Southampton, NY 11968-5087", "City": "Southampton", "State": "NY", "Zip": "11968-5087", "AddressLine1": "325 Meeting House Ln  Bldg 2", "AddressLine2": "", "Distance": 2.6, "Latitude": 40.88686, "Longitude": -72.37898}, {"Sequence": 11, "PersonId": 54685, "AddressId": 1395190, "Specialty": "General Practice", "Photo": "findadentist.ada.org/Images/Profile/54685-Dr-Terry-Sanders.png", "Name": "Dr Terry M Sanders", "Email": "drshanlonsanders@aol.com", "Phone": "(631) 369-0300", "Address": "1149 Old Country Rd Ste B1 Riverhead, NY 11901-2060", "City": "Riverhead", "State": "NY", "Zip": "11901-2060", "AddressLine1": "1149 Old Country Rd Ste B1", "AddressLine2": null, "Distance": 17.5, "Latitude": 40.93101, "Longitude": -72.67799}, {"Sequence": 12, "PersonId": 151845, "AddressId": 3391945, "Specialty": "General Practice", "Photo": "findadentist.ada.org/Images/Profile/151845-Dr-Eric-Christensen.png", "Name": "Dr. Eric C Christensen", "Email": "office@westhamptondental.com", "Phone": "(631) 288-4422", "Address": "45 Montauk Hwy # 680 Westhampton, NY 11977-1212", "City": "Westhampton", "State": "NY", "Zip": "11977-1212", "AddressLine1": "45 Montauk Hwy # 680", "AddressLine2": "", "Distance": 17.6, "Latitude": 40.82302, "Longitude": -72.65909}, {"Sequence": 13, "PersonId": 151845, "AddressId": 2795120, "Specialty": "General Practice", "Photo": "findadentist.ada.org/Images/Profile/151845-Dr-Eric-Christensen.png", "Name": "Dr. Eric C Christensen", "Email": "office@westhamptondental.com", "Phone": "(631) 288-4422", "Address": "45 Montauk Hwy # 680 Westhampton, NY 11977-1212", "City": "Westhampton", "State": "NY", "Zip": "11977-1212", "AddressLine1": "45 Montauk Hwy # 680", "AddressLine2": "# 680", "Distance": 17.6, "Latitude": 40.82305, "Longitude": -72.65902}, {"Sequence": 14, "PersonId": 51576, "AddressId": 3390222, "Specialty": "General Practice", "Photo": "findadentist.ada.org/Images/Profile/51576-Dr-Julie-Izen.png", "Name": "Dr Julie Izen", "Email": "drizenoffice@yahoo.com", "Phone": "(631) 288-2959", "Address": "61 Montauk Hwy Quogue, NY 11959-4000", "City": "Quogue", "State": "NY", "Zip": "11959-4000", "AddressLine1": "61 Montauk Hwy", "AddressLine2": "Po Box 323", "Distance": 15.0, "Latitude": 40.82328, "Longitude": -72.60523}, {"Sequence": 15, "PersonId": 209675, "AddressId": 3531865, "Specialty": "General Practice", "Photo": "findadentist.ada.org/Images/Profile/209675-Dr-Anthony-Caruso.png", "Name": "Dr. Anthony J Caruso", "Email": "shdentalarts490@gmail.com", "Phone": "(631) 283-2208", "Address": "490 County Road 39A Southampton, NY 11968-5268", "City": "Southampton", "State": "NY", "Zip": "11968-5268", "AddressLine1": "490 County Road 39A", "AddressLine2": "", "Distance": 3.9, "Latitude": 40.89642, "Longitude": -72.41499}, {"Sequence": 16, "PersonId": 54471, "AddressId": 3535571, "Specialty": "General Practice", "Photo": "findadentist.ada.org/Images/Profile/54471-Dr-Kerry-Lane.png", "Name": "Dr Kerry Lane", "Email": "", "Phone": "(631) 283-1543", "Address": "325 Meeting House Ln Ste H Southampton, NY 11968-5087", "City": "Southampton", "State": "NY", "Zip": "11968-5087", "AddressLine1": "325 Meeting House Ln Ste H", "AddressLine2": "", "Distance": 2.6, "Latitude": 40.88684, "Longitude": -72.37893}, {"Sequence": 17, "PersonId": 264139, "AddressId": 3140274, "Specialty": "General Practice", "Photo": "findadentist.ada.org/Images/Profile/264139-Dr-Kathryn-Mirras.png", "Name": "Dr. Kathryn D Mirras", "Email": "wainscottdental@gmail.com", "Phone": "(631) 537-6364", "Address": "384 Montauk Hwy Wainscott, NY 11975-2000", "City": "Wainscott", "State": "NY", "Zip": "11975-2000", "AddressLine1": "384 Montauk Hwy", "AddressLine2": "", "Distance": 5.3, "Latitude": 40.94695, "Longitude": -72.25145}, {"Sequence": 18, "PersonId": 54441, "AddressId": 3032486, "Specialty": "Endodontics", "Photo": "findadentist.ada.org/Images/Profile/54441-Dr-Timothy-Ingrao.png", "Name": "Dr Timothy C Ingrao", "Email": "", "Phone": "(631) 204-0202", "Address": "325 Meeting House Ln Southampton, NY 11968-5087", "City": "Southampton", "State": "NY", "Zip": "11968-5087", "AddressLine1": "325 Meeting House Ln", "AddressLine2": "", "Distance": 2.6, "Latitude": 40.88686, "Longitude": -72.37898}, {"Sequence": 19, "PersonId": 42456, "AddressId": 3396746, "Specialty": "Prosthodontics", "Photo": "findadentist.ada.org/Images/Profile/42456-Dr-Robert-Sicurelli.png", "Name": "Dr Robert J Sicurelli, Jr.", "Email": "info@HamptonSmile.com", "Phone": "(631) 287-4300", "Address": "157 Wickapogue Rd Southampton, NY 11968-3014", "City": "Southampton", "State": "NY", "Zip": "11968-3014", "AddressLine1": "157 Wickapogue Rd", "AddressLine2": "", "Distance": 2.5, "Latitude": 40.88611, "Longitude": -72.37365}, {"Sequence": 20, "PersonId": 130229, "AddressId": 1470734, "Specialty": "Orthodontics and Dentofacial Orthopedics", "Photo": "findadentist.ada.org/Images/Profile/130229-Dr-Joshua-Rothenberg.png", "Name": "Dr. Joshua H Rothenberg", "Email": "nfo1@optonline.net", "Phone": "(631) 727-4040", "Address": "940 Roanoke Ave Riverhead, NY 11901-2749", "City": "Riverhead", "State": "NY", "Zip": "11901-2749", "AddressLine1": "940 Roanoke Ave", "AddressLine2": "", "Distance": 17.1, "Latitude": 40.92788, "Longitude": -72.6694}, {"Sequence": 21, "PersonId": 50206, "AddressId": 1390711, "Specialty": "Pediatric Dentistry", "Photo": "findadentist.ada.org/Images/Profile/50206-Dr-Nancy-Cosenza.png", "Name": "Dr Nancy Cosenza", "Email": "", "Phone": "(631) 287-8687", "Address": "97 N Main St Southampton, NY 11968-3309", "City": "Southampton", "State": "NY", "Zip": "11968-3309", "AddressLine1": "97 N Main St", "AddressLine2": "", "Distance": 3.0, "Latitude": 40.89171, "Longitude": -72.3922}, {"Sequence": 22, "PersonId": 54348, "AddressId": 1394853, "Specialty": "Endodontics", "Photo": "findadentist.ada.org/Images/Profile/54348-Dr-Alan-Nevins.png", "Name": "Dr. Alan J Nevins", "Email": "", "Phone": "(631) 287-4824", "Address": "339 Meeting House Ln Southampton, NY 11968-5139", "City": "Southampton", "State": "NY", "Zip": "11968-5139", "AddressLine1": "339 Meeting House Ln", "AddressLine2": "", "Distance": 2.6, "Latitude": 40.88674, "Longitude": -72.37756}, {"Sequence": 23, "PersonId": 159981, "AddressId": 3471530, "Specialty": "Periodontics", "Photo": "findadentist.ada.org/Images/Profile/159981-Dr-David-Leonoff.png", "Name": "Dr. David Leonoff", "Email": "drleonoff@me.com", "Phone": "(631) 369-5300", "Address": "54 Commerce Ave Ste 8 Riverhead, NY 11901-4454", "City": "Riverhead", "State": "NY", "Zip": "11901-4454", "AddressLine1": "54 Commerce Ave Ste 8", "AddressLine2": "", "Distance": 18.7, "Latitude": 40.92676, "Longitude": -72.70029}, {"Sequence": 24, "PersonId": 236228, "AddressId": 2768131, "Specialty": "General Practice", "Photo": "findadentist.ada.org/Images/Profile/236228-Dr-Michael-Salkin.png", "Name": "Dr. Michael Salkin", "Email": "mattituck@thesmilist.com", "Phone": "(631) 246-4561", "Address": "11535 Main Rd Mattituck, NY 11952-1566", "City": "Mattituck", "State": "NY", "Zip": "11952-1566", "AddressLine1": "11535 Main Rd", "AddressLine2": "", "Distance": 11.3, "Latitude": 40.98806, "Longitude": -72.53553}, {"Sequence": 25, "PersonId": 54707, "AddressId": 1395212, "Specialty": "Periodontics", "Photo": "findadentist.ada.org/Images/Profile/54707-Dr-Gregory-Davis.png", "Name": "Dr Gregory A Davis", "Email": "", "Phone": "(631) 287-3600", "Address": "325 Meeting House Ln Southampton, NY 11968-5087", "City": "Southampton", "State": "NY", "Zip": "11968-5087", "AddressLine1": "325 Meeting House Ln", "AddressLine2": "", "Distance": 2.6, "Latitude": 40.88686, "Longitude": -72.37898}, {"Sequence": 26, "PersonId": 152256, "AddressId": 3397975, "Specialty": "General Practice", "Photo": "findadentist.ada.org/Images/Profile/152256-Dr-Jason-Parli.png", "Name": "Dr. Jason M Parli", "Email": "", "Phone": "(631) 325-0731", "Address": "195 Montauk Highway Speonk, NY 11972-0497", "City": "Speonk", "State": "NY", "Zip": "11972-0497", "AddressLine1": "195 Montauk Highway", "AddressLine2": "", "Distance": 19.7, "Latitude": 40.81864, "Longitude": -72.69803}, {"Sequence": 27, "PersonId": 254864, "AddressId": 2961053, "Specialty": "General Practice", "Photo": "findadentist.ada.org/Images/Profile/254864-Dr-Christopher-Bickford.png", "Name": "Dr. Christopher R Bickford", "Email": "Bickforddental@gmail.com", "Phone": "(631) 728-5606", "Address": "154 W Montauk Hwy Hampton Bays, NY 11946-4015", "City": "Hampton Bays", "State": "NY", "Zip": "11946-4015", "AddressLine1": "154 W Montauk Hwy", "AddressLine2": "", "Distance": 10.1, "Latitude": 40.87717, "Longitude": -72.52965}, {"Sequence": 28, "PersonId": 51223, "AddressId": 3496165, "Specialty": "General Practice", "Photo": "findadentist.ada.org/Images/Profile/51223-Dr-Andrew-Shemella.png", "Name": "Dr. Andrew Shemella", "Email": "andrew@greenportdental.com", "Phone": "(631) 477-0123", "Address": "310 Front St Greenport, NY 11944-1516", "City": "Greenport", "State": "NY", "Zip": "11944-1516", "AddressLine1": "310 Front St", "AddressLine2": "", "Distance": 13.1, "Latitude": 41.1017, "Longitude": -72.36353}, {"Sequence": 29, "PersonId": 54028, "AddressId": 1394533, "Specialty": "General Practice", "Photo": "findadentist.ada.org/Images/Profile/54028-Dr-G-Frost.png", "Name": "Dr G Gregory Frost", "Email": "drgreg@drgfrost.com", "Phone": "(631) 288-6663", "Address": "567 Montauk Hwy Westhampton Beach, NY 11978-1802", "City": "Westhampton Beach", "State": "NY", "Zip": "11978-1802", "AddressLine1": "567 Montauk Hwy", "AddressLine2": "", "Distance": 16.2, "Latitude": 40.82206, "Longitude": -72.62842}, {"Sequence": 30, "PersonId": 5142, "AddressId": 1345647, "Specialty": "Orthodontics and Dentofacial Orthopedics", "Photo": "findadentist.ada.org/Images/Profile/ADA.png", "Name": "Dr David C Hou", "Email": "", "Phone": "(631) 283-0222", "Address": "1308 Montauk Hwy Water Mill, NY 11976-2630", "City": "Water Mill", "State": "NY", "Zip": "11976-2630", "AddressLine1": "1308 Montauk Hwy", "AddressLine2": "", "Distance": 0.7, "Latitude": 40.92247, "Longitude": -72.33936}, {"Sequence": 31, "PersonId": 54447, "AddressId": 1394952, "Specialty": "General Practice", "Photo": "findadentist.ada.org/Images/Profile/ADA.png", "Name": "Dr. Beth T Rosner", "Email": "drbethrosner@optonline.net", "Phone": "(631) 726-7005", "Address": "1414 Montauk Hwy Water Mill, NY 11976-2631", "City": "Water Mill", "State": "NY", "Zip": "11976-2631", "AddressLine1": "1414 Montauk Hwy", "AddressLine2": "", "Distance": 0.8, "Latitude": 40.92422, "Longitude": -72.3366}, {"Sequence": 32, "PersonId": 53977, "AddressId": 1394482, "Specialty": "General Practice", "Photo": "findadentist.ada.org/Images/Profile/ADA.png", "Name": "Dr Silvia M Baker", "Email": "", "Phone": "(631) 727-0103", "Address": "715 Roanoke Ave Ste 2 Riverhead, NY 11901-2769", "City": "Riverhead", "State": "NY", "Zip": "11901-2769", "AddressLine1": "715 Roanoke Ave Ste 2", "AddressLine2": "", "Distance": 16.9, "Latitude": 40.9237, "Longitude": -72.66712}, {"Sequence": 33, "PersonId": 54031, "AddressId": 1394536, "Specialty": "General Practice", "Photo": "findadentist.ada.org/Images/Profile/ADA.png", "Name": "Dr Sullivan S Gallo", "Email": "", "Phone": "(631) 288-9232", "Address": "228 Mill Rd Westhampton Beach, NY 11978-2051", "City": "Westhampton Beach", "State": "NY", "Zip": "11978-2051", "AddressLine1": "228 Mill Rd", "AddressLine2": "", "Distance": 17.3, "Latitude": 40.81569, "Longitude": -72.64791}, {"Sequence": 34, "PersonId": 54454, "AddressId": 1394959, "Specialty": "General Practice", "Photo": "findadentist.ada.org/Images/Profile/ADA.png", "Name": "Dr H T Gioscia", "Email": "", "Phone": "(631) 722-5478", "Address": "1158 Main Rd Jamesport, NY 11947-2010", "City": "Jamesport", "State": "NY", "Zip": "11947-2010", "AddressLine1": "1158 Main Rd", "AddressLine2": "", "Distance": 13.6, "Latitude": 40.94855, "Longitude": -72.59959}, {"Sequence": 35, "PersonId": 54380, "AddressId": 1394885, "Specialty": "General Practice", "Photo": "findadentist.ada.org/Images/Profile/ADA.png", "Name": "Dr. Alan Katz", "Email": "", "Phone": "(631) 324-5015", "Address": "80 Park Pl East Hampton, NY 11937-2467", "City": "East Hampton", "State": "NY", "Zip": "11937-2467", "AddressLine1": "80 Park Pl", "AddressLine2": "", "Distance": 8.8, "Latitude": 40.96363, "Longitude": -72.18729}, {"Sequence": 36, "PersonId": 53872, "AddressId": 1394377, "Specialty": "General Practice", "Photo": "findadentist.ada.org/Images/Profile/ADA.png", "Name": "Dr Lewis W Wright", "Email": "", "Phone": "(631) 287-4853", "Address": "491 Hampton Rd Southampton, NY 11968-3004", "City": "Southampton", "State": "NY", "Zip": "11968-3004", "AddressLine1": "491 Hampton Rd", "AddressLine2": "", "Distance": 2.1, "Latitude": 40.89527, "Longitude": -72.37618}, {"Sequence": 37, "PersonId": 229884, "AddressId": 3553921, "Specialty": "General Practice", "Photo": "findadentist.ada.org/Images/Profile/ADA.png", "Name": "Dr. Elizabeth A Doroski", "Email": "", "Phone": "(631) 727-0770", "Address": "887 Old Country Rd Ste B Riverhead, NY 11901-2115", "City": "Riverhead", "State": "NY", "Zip": "11901-2115", "AddressLine1": "887 Old Country Rd Ste B", "AddressLine2": "", "Distance": 17.1, "Latitude": 40.93384, "Longitude": -72.67004}, {"Sequence": 38, "PersonId": 54822, "AddressId": 1395327, "Specialty": "General Practice", "Photo": "findadentist.ada.org/Images/Profile/ADA.png", "Name": "Dr Gregory P Doroski", "Email": "", "Phone": "(631) 727-0770", "Address": "887 Old Country Rd Riverhead, NY 11901-2115", "City": "Riverhead", "State": "NY", "Zip": "11901-2115", "AddressLine1": "887 Old Country Rd", "AddressLine2": "", "Distance": 17.1, "Latitude": 40.93386, "Longitude": -72.67006}, {"Sequence": 39, "PersonId": 159843, "AddressId": 1500348, "Specialty": "General Practice", "Photo": "findadentist.ada.org/Images/Profile/ADA.png", "Name": "Dr. Peter W Redmond", "Email": "", "Phone": "(631) 298-9168", "Address": "7555 Main Rd Mattituck, NY 11952-1516", "City": "Mattituck", "State": "NY", "Zip": "11952-1516", "AddressLine1": "7555 Main Rd", "AddressLine2": "", "Distance": 11.5, "Latitude": 40.97925, "Longitude": -72.54497}, {"Sequence": 40, "PersonId": 55053, "AddressId": 3553923, "Specialty": "General Practice", "Photo": "findadentist.ada.org/Images/Profile/ADA.png", "Name": "Dr Kevin L Sheren", "Email": "hamptonbaysdent@aol.com", "Phone": "(631) 728-8400", "Address": "188 W Montauk Hwy Ste E8 Hampton Bays, NY 11946-2363", "City": "Hampton Bays", "State": "NY", "Zip": "11946-2363", "AddressLine1": "188 W Montauk Hwy Ste E8", "AddressLine2": "", "Distance": 10.3, "Latitude": 40.8772, "Longitude": -72.53382}, {"Sequence": 41, "PersonId": 53697, "AddressId": 1394202, "Specialty": "General Practice", "Photo": "findadentist.ada.org/Images/Profile/ADA.png", "Name": "Dr Joel Schwitzer", "Email": "", "Phone": "(631) 594-3100", "Address": "34 E Montauk Kwy #2 Hampton Bays, NY 11946", "City": "Hampton Bays", "State": "NY", "Zip": "11946", "AddressLine1": "34 E Montauk Kwy #2", "AddressLine2": "", "Distance": 9.6, "Latitude": 40.87866, "Longitude": -72.52102}, {"Sequence": 42, "PersonId": 54410, "AddressId": 1394915, "Specialty": "Endodontics", "Photo": "findadentist.ada.org/Images/Profile/ADA.png", "Name": "Dr Robert P Iovino", "Email": "", "Phone": "(631) 283-5626", "Address": "351 Meeting House Ln Southampton, NY 11968-5141", "City": "Southampton", "State": "NY", "Zip": "11968-5141", "AddressLine1": "351 Meeting House Ln", "AddressLine2": "", "Distance": 2.7, "Latitude": 40.88618, "Longitude": -72.37943}, {"Sequence": 43, "PersonId": 129016, "AddressId": 1469521, "Specialty": "General Practice", "Photo": "findadentist.ada.org/Images/Profile/ADA.png", "Name": "Dr. Richard K Fishler", "Email": "", "Phone": "(631) 727-0103", "Address": "715 Roanoke Ave Riverhead, NY 11901-2769", "City": "Riverhead", "State": "NY", "Zip": "11901-2769", "AddressLine1": "715 Roanoke Ave", "AddressLine2": "", "Distance": 16.9, "Latitude": 40.92363, "Longitude": -72.66729}, {"Sequence": 44, "PersonId": 54771, "AddressId": 2972547, "Specialty": "General Practice", "Photo": "findadentist.ada.org/Images/Profile/ADA.png", "Name": "Dr Robert N Bickford", "Email": "rbigford1978@aol.com", "Phone": "(631) 728-5606", "Address": "154 W Montauk Hwy Hampton Bays, NY 11946-4015", "City": "Hampton Bays", "State": "NY", "Zip": "11946-4015", "AddressLine1": "154 W Montauk Hwy", "AddressLine2": "", "Distance": 10.1, "Latitude": 40.87717, "Longitude": -72.52965}, {"Sequence": 45, "PersonId": 152233, "AddressId": 1492738, "Specialty": "General Practice", "Photo": "findadentist.ada.org/Images/Profile/ADA.png", "Name": "Dr. Alexis Gersten", "Email": "", "Phone": "(631) 325-0731", "Address": "195 Montauk Highway Speonk, NY 11972", "City": "Speonk", "State": "NY", "Zip": "11972", "AddressLine1": "195 Montauk Highway", "AddressLine2": "", "Distance": 19.7, "Latitude": 40.81864, "Longitude": -72.69803}, {"Sequence": 46, "PersonId": 55005, "AddressId": 1395510, "Specialty": "General Practice", "Photo": "findadentist.ada.org/Images/Profile/ADA.png", "Name": "Dr Perry L Silver", "Email": "", "Phone": "(631) 324-1919", "Address": "496 Sag Harbor Tpke East Hampton, NY 11937-2555", "City": "East Hampton", "State": "NY", "Zip": "11937-2555", "AddressLine1": "496 Sag Harbor Tpke", "AddressLine2": "", "Distance": 8.0, "Latitude": 40.96039, "Longitude": -72.2021}, {"Sequence": 47, "PersonId": 54512, "AddressId": 2896977, "Specialty": "General Practice", "Photo": "findadentist.ada.org/Images/Profile/ADA.png", "Name": "Dr Robert D Wendt", "Email": "stationdental@aol.com", "Phone": "(631) 208-3068", "Address": "177 Old Country Rd Riverhead, NY 11901-2102", "City": "Riverhead", "State": "NY", "Zip": "11901-2102", "AddressLine1": "177 Old Country Rd", "AddressLine2": "", "Distance": 16.1, "Latitude": 40.93638, "Longitude": -72.65053}, {"Sequence": 48, "PersonId": 54877, "AddressId": 3413501, "Specialty": "General Practice", "Photo": "findadentist.ada.org/Images/Profile/ADA.png", "Name": "Dr. John J Romano", "Email": "johnromanodds@optonline.net", "Phone": "(631) 653-4479", "Address": "426 Montauk Hwy East Quogue, NY 11942-3923", "City": "East Quogue", "State": "NY", "Zip": "11942-3923", "AddressLine1": "426 Montauk Hwy", "AddressLine2": "", "Distance": 12.7, "Latitude": 40.85097, "Longitude": -72.57258}, {"Sequence": 49, "PersonId": 53978, "AddressId": 1394483, "Specialty": "Orthodontics and Dentofacial Orthopedics", "Photo": "findadentist.ada.org/Images/Profile/ADA.png", "Name": "Dr John E Baker, Jr", "Email": "", "Phone": "(631) 584-5523", "Address": "27 Riverhead Rd Westhampton Beach, NY 11978-1402", "City": "Westhampton Beach", "State": "NY", "Zip": "11978-1402", "AddressLine1": "27 Riverhead Rd", "AddressLine2": "", "Distance": 17.0, "Latitude": 40.82414, "Longitude": -72.64714}, {"Sequence": 50, "PersonId": 40173, "AddressId": 3567139, "Specialty": "Endodontics", "Photo": "findadentist.ada.org/Images/Profile/ADA.png", "Name": "Dr. Arthur F Shemet", "Email": "", "Phone": "(631) 288-8822", "Address": "52 Main St Ste C Westhampton Beach, NY 11978-2662", "City": "Westhampton Beach", "State": "NY", "Zip": "11978-2662", "AddressLine1": "52 Main St Ste C", "AddressLine2": "", "Distance": 17.3, "Latitude": 40.80918, "Longitude": -72.64528}, {"Sequence": 51, "PersonId": 53884, "AddressId": 1394389, "Specialty": "General Practice", "Photo": "findadentist.ada.org/Images/Profile/ADA.png", "Name": "Dr Louis S Profera", "Email": "", "Phone": null, "Address": "65 Montauk Hwy East Hampton, NY 11937-3285", "City": "East Hampton", "State": "NY", "Zip": "11937-3285", "AddressLine1": "65 Montauk Hwy", "AddressLine2": "", "Distance": 12.0, "Latitude": 40.97659, "Longitude": -72.12931}, {"Sequence": 52, "PersonId": 54383, "AddressId": 1394888, "Specialty": "General Practice", "Photo": "findadentist.ada.org/Images/Profile/ADA.png", "Name": "Dr. Berry J Vaughan", "Email": "", "Phone": "(631) 324-8300", "Address": "26 Gingerbread Ln East Hampton, NY 11937-2470", "City": "East Hampton", "State": "NY", "Zip": "11937-2470", "AddressLine1": "26 Gingerbread Ln", "AddressLine2": "", "Distance": 8.4, "Latitude": 40.96359, "Longitude": -72.19744}]