[{"Sequence": 1, "PersonId": 40732, "AddressId": 3530988, "Specialty": "General Practice", "Photo": "findadentist.ada.org/Images/Profile/40732-Dr-Jeffrey-Cohen.png", "Name": "Dr Jeffrey Cohen", "Email": "smiles@cohendentistry.com", "Phone": "(845) 794-7925", "Address": "816 Old Route 17 Harris, NY 12742-5015", "City": "Harris", "State": "NY", "Zip": "12742-5015", "AddressLine1": "816 Old Route 17", "AddressLine2": "PO Box 410", "Distance": 0.0, "Latitude": 41.70826, "Longitude": -74.72847}, {"Sequence": 2, "PersonId": 203739, "AddressId": 3418899, "Specialty": "General Practice", "Photo": "findadentist.ada.org/Images/Profile/203739-Dr-Neesha-Duggal.png", "Name": "Dr. Neesha Duggal", "Email": "wurtsborodental@gmail.com", "Phone": "(845) 888-8001", "Address": "187 Kingston Ave Wurtsboro, NY 12790-7624", "City": "Wurtsboro", "State": "NY", "Zip": "12790-7624", "AddressLine1": "187 Kingston Ave", "AddressLine2": "PO Box 787", "Distance": 15.3, "Latitude": 41.57766, "Longitude": -74.48806}, {"Sequence": 3, "PersonId": 49124, "AddressId": 2806674, "Specialty": "General Practice", "Photo": "findadentist.ada.org/Images/Profile/49124-Dr-Anthony-Danas.png", "Name": "Dr. Anthony P Danas", "Email": "", "Phone": "(845) 292-3900", "Address": "37 Triangle Rd Liberty, NY 12754-3371", "City": "Liberty", "State": "NY", "Zip": "12754-3371", "AddressLine1": "37 Triangle Rd", "AddressLine2": "", "Distance": 5.6, "Latitude": 41.78973, "Longitude": -74.73143}, {"Sequence": 4, "PersonId": 329829, "AddressId": 1670334, "Specialty": "General Practice", "Photo": "findadentist.ada.org/Images/Profile/329829-Dr-Faisal-Uppal.png", "Name": "Dr Faisal  Uppal", "Email": "", "Phone": "(845) 794-0706", "Address": "523 Broadway Monticello, NY 12701-1111", "City": "Monticello", "State": "NY", "Zip": "12701-1111", "AddressLine1": "523 Broadway", "AddressLine2": "", "Distance": 4.1, "Latitude": 41.65568, "Longitude": -74.693}, {"Sequence": 5, "PersonId": 43824, "AddressId": 3494771, "Specialty": "General Practice", "Photo": "findadentist.ada.org/Images/Profile/43824-Dr-Maureen-Whipple.png", "Name": "Dr. Maureen Whipple", "Email": "", "Phone": "(845) 794-6423", "Address": "20 Gregory St Callicoon, NY 12723-5322", "City": "Callicoon", "State": "NY", "Zip": "12723-5322", "AddressLine1": "20 Gregory St", "AddressLine2": "Po Box 307", "Distance": 17.4, "Latitude": 41.76806, "Longitude": -75.05679}, {"Sequence": 6, "PersonId": 55203, "AddressId": 2837365, "Specialty": "General Practice", "Photo": "findadentist.ada.org/Images/Profile/55203-Dr-Antonio-Ardisana.png", "Name": "Dr. Antonio F Ardisana", "Email": "", "Phone": "(845) 292-3900", "Address": "37 Triangle Rd Ste 1 Liberty, NY 12754-3370", "City": "Liberty", "State": "NY", "Zip": "12754-3370", "AddressLine1": "37 Triangle Rd Ste 1", "AddressLine2": "", "Distance": 5.6, "Latitude": 41.78973, "Longitude": -74.73143}, {"Sequence": 7, "PersonId": 49709, "AddressId": 3502896, "Specialty": "General Practice", "Photo": "findadentist.ada.org/Images/Profile/49709-Dr-Paul-Lonstein.png", "Name": "Dr Paul Lonstein", "Email": "barbara@drlonstein.com", "Phone": "(845) 647-2222", "Address": "42 Canal St Ellenville, NY 12428-1225", "City": "Ellenville", "State": "NY", "Zip": "12428-1225", "AddressLine1": "42 Canal St", "AddressLine2": "PO Box 288", "Distance": 17.0, "Latitude": 41.7196, "Longitude": -74.39863}, {"Sequence": 8, "PersonId": 49642, "AddressId": 1390147, "Specialty": "General Practice", "Photo": "findadentist.ada.org/Images/Profile/49642-Dr-Randolph-Katz.png", "Name": "Dr Randolph C Katz", "Email": "randolphckatzdmd@hvc.rr.com", "Phone": "(845) 796-2505", "Address": "23 High St Monticello, NY 12701-1331", "City": "Monticello", "State": "NY", "Zip": "12701-1331", "AddressLine1": "23 High St", "AddressLine2": null, "Distance": 4.2, "Latitude": 41.65821, "Longitude": -74.68359}, {"Sequence": 9, "PersonId": 246966, "AddressId": 3101358, "Specialty": "Periodontics", "Photo": "findadentist.ada.org/Images/Profile/246966-Dr-Comlan-Missih.png", "Name": "Dr. Comlan M Missih", "Email": "dr.missihdds@gmail.com", "Phone": "(845) 796-0294", "Address": "60 Liberty St Monticello, NY 12701-1213", "City": "Monticello", "State": "NY", "Zip": "12701-1213", "AddressLine1": "60 Liberty St", "AddressLine2": "", "Distance": 4.0, "Latitude": 41.6593, "Longitude": -74.68863}, {"Sequence": 10, "PersonId": 49530, "AddressId": 2700244, "Specialty": "General Practice", "Photo": "findadentist.ada.org/Images/Profile/49530-Dr-Kunwar-Nagpal.png", "Name": "Dr Kunwar G Nagpal", "Email": "implants@warwick.net", "Phone": "(845) 557-8865", "Address": "619 State Route 55 Eldred, NY 12732-5006", "City": "Eldred", "State": "NY", "Zip": "12732-5006", "AddressLine1": "619 State Route 55", "AddressLine2": "", "Distance": 14.6, "Latitude": 41.53023, "Longitude": -74.88171}, {"Sequence": 11, "PersonId": 49530, "AddressId": 2701087, "Specialty": "General Practice", "Photo": "findadentist.ada.org/Images/Profile/49530-Dr-Kunwar-Nagpal.png", "Name": "Dr Kunwar G Nagpal", "Email": "implants@warwick.net", "Phone": "(845) 252-3951", "Address": "247 Bridge St Narrowsburg, NY 12764-6408", "City": "Narrowsburg", "State": "NY", "Zip": "12764-6408", "AddressLine1": "247 Bridge St", "AddressLine2": "", "Distance": 18.5, "Latitude": 41.60854, "Longitude": -75.06071}, {"Sequence": 12, "PersonId": 75195, "AddressId": 1415700, "Specialty": "General Practice", "Photo": "findadentist.ada.org/Images/Profile/ADA.png", "Name": "Dr Robert J Haray", "Email": "", "Phone": "(570) 224-6700", "Address": "1731 Cochecton Tpke Damascus, PA 18415-3001", "City": "Damascus", "State": "PA", "Zip": "18415-3001", "AddressLine1": "1731 Cochecton Tpke", "AddressLine2": "", "Distance": 17.9, "Latitude": 41.7008, "Longitude": -75.0748}, {"Sequence": 13, "PersonId": 40738, "AddressId": 2759994, "Specialty": "General Practice", "Photo": "findadentist.ada.org/Images/Profile/ADA.png", "Name": "Dr Gary Berson", "Email": "gary.berson@verizon.net", "Phone": "(845) 796-3368", "Address": "523 Broadway Ste 2 Monticello, NY 12701-1111", "City": "Monticello", "State": "NY", "Zip": "12701-1111", "AddressLine1": "523 Broadway Ste 2", "AddressLine2": "", "Distance": 4.1, "Latitude": 41.65568, "Longitude": -74.693}, {"Sequence": 14, "PersonId": 45391, "AddressId": 3105372, "Specialty": "General Practice", "Photo": "findadentist.ada.org/Images/Profile/ADA.png", "Name": "Dr Elaine V Drelich", "Email": "", "Phone": "(607) 761-4089", "Address": "10-5 Lower Vacation Blvd #TH4 Loch Sheldrake, NY 12759-1003", "City": "Loch Sheldrake", "State": "NY", "Zip": "12759-1003", "AddressLine1": "10-5 Lower Vacation Blvd #TH4", "AddressLine2": "PO Box 1003", "Distance": 5.5, "Latitude": 41.76774, "Longitude": -74.65853}, {"Sequence": 15, "PersonId": 49792, "AddressId": 1390297, "Specialty": "General Practice", "Photo": "findadentist.ada.org/Images/Profile/ADA.png", "Name": "Dr Mark Hyman", "Email": "", "Phone": "(845) 292-6880", "Address": "4471 State Route 55 Swan Lake, NY 12783-6514", "City": "Swan Lake", "State": "NY", "Zip": "12783-6514", "AddressLine1": "4471 State Route 55", "AddressLine2": "", "Distance": 4.0, "Latitude": 41.74919, "Longitude": -74.78353}]