[{"Sequence": 1, "PersonId": 260948, "AddressId": 3008884, "Specialty": "General Practice", "Photo": "findadentist.ada.org/Images/Profile/260948-Dr-Kaila-Clift.png", "Name": "Dr. Kaila A Clift", "Email": "info@5thavenuedental.com", "Phone": "(717) 272-9552", "Address": "1230 S 5th Ave Lebanon, PA 17042-7814", "City": "Lebanon", "State": "PA", "Zip": "17042-7814", "AddressLine1": "1230 S 5th Ave", "AddressLine2": "", "Distance": 7.1, "Latitude": 40.32624, "Longitude": -76.38406}, {"Sequence": 2, "PersonId": 76876, "AddressId": 1417381, "Specialty": "General Practice", "Photo": "findadentist.ada.org/Images/Profile/76876-Dr-Matthew-Patterson.png", "Name": "Matthew P. Patterson, D.M.D.", "Email": "info.dentistryforlife@comcast.net", "Phone": "(717) 569-3911", "Address": "620 Delp Road Lancaster, PA 17601-3035", "City": "Lancaster", "State": "PA", "Zip": "17601-3035", "AddressLine1": "620 Delp Road", "AddressLine2": "", "Distance": 14.5, "Latitude": 40.08622, "Longitude": -76.33977}, {"Sequence": 3, "PersonId": 132829, "AddressId": 3424958, "Specialty": "General Practice", "Photo": "findadentist.ada.org/Images/Profile/132829-Dr-Joseph-Regalla.png", "Name": "Dr. Joseph C Regalla", "Email": "cfdental@gmail.com", "Phone": "(717) 898-9099", "Address": "802 Estelle Dr Lancaster, PA 17601", "City": "Lancaster", "State": "PA", "Zip": "17601", "AddressLine1": "802 Estelle Dr", "AddressLine2": "", "Distance": 17.6, "Latitude": 40.05471, "Longitude": -76.39561}, {"Sequence": 4, "PersonId": 230390, "AddressId": 3533531, "Specialty": "Pediatric Dentistry", "Photo": "findadentist.ada.org/Images/Profile/230390-Dr-Silpa-Velivela.png", "Name": "Dr. Silpa Velivela", "Email": "", "Phone": "(610) 914-1700", "Address": "2230 Ridgewood Rd Wyomissing, PA 19610", "City": "Wyomissing", "State": "PA", "Zip": "19610", "AddressLine1": "2230 Ridgewood Rd", "AddressLine2": "", "Distance": 15.4, "Latitude": 40.34433, "Longitude": -75.97748}, {"Sequence": 5, "PersonId": 76797, "AddressId": 1417302, "Specialty": "Periodontics", "Photo": "findadentist.ada.org/Images/Profile/76797-Dr-Larry-Stender.png", "Name": "Lawrence R. Stender", "Email": "drstender@verizon.net", "Phone": "(717) 569-3226", "Address": "1834 Oregon Pike Lancaster, PA 17601-6463", "City": "Lancaster", "State": "PA", "Zip": "17601-6463", "AddressLine1": "1834 Oregon Pike", "AddressLine2": "", "Distance": 14.7, "Latitude": 40.07662, "Longitude": -76.29701}, {"Sequence": 6, "PersonId": 76084, "AddressId": 1416589, "Specialty": "Endodontics", "Photo": "findadentist.ada.org/Images/Profile/76084-Dr-Scott-Bram.png", "Name": "PRO Scott M Bram", "Email": "lmcmahon@berksendodontics.com", "Phone": "(610) 376-1536", "Address": "1150 Berkshire Blvd Ste 120 Wyomissing, PA 19610-1208", "City": "Wyomissing", "State": "PA", "Zip": "19610-1208", "AddressLine1": "1150 Berkshire Blvd Ste 120", "AddressLine2": "", "Distance": 15.4, "Latitude": 40.34225, "Longitude": -75.97634}, {"Sequence": 7, "PersonId": 131816, "AddressId": 3547437, "Specialty": "Orthodontics and Dentofacial Orthopedics", "Photo": "findadentist.ada.org/Images/Profile/131816-Dr-Warren-Daugherty.png", "Name": "Dr. Warren P Daugherty", "Email": "dcawmspt@comcast.net", "Phone": "(717) 274-2913", "Address": "710 S 12th St Lebanon, PA 17042-6901", "City": "Lebanon", "State": "PA", "Zip": "17042-6901", "AddressLine1": "710 S 12th St", "AddressLine2": "", "Distance": 9.4, "Latitude": 40.32896, "Longitude": -76.4287}, {"Sequence": 8, "PersonId": 212639, "AddressId": 3550540, "Specialty": "Orthodontics and Dentofacial Orthopedics", "Photo": "findadentist.ada.org/Images/Profile/212639-Dr-Serban-Nicolaescu.png", "Name": "Dr. Serban A Nicolaescu", "Email": "", "Phone": "(717) 481-7645", "Address": "2114 Spring Valley Rd Lancaster, PA 17601-2427", "City": "Lancaster", "State": "PA", "Zip": "17601-2427", "AddressLine1": "2114 Spring Valley Rd", "AddressLine2": "", "Distance": 16.3, "Latitude": 40.06344, "Longitude": -76.35853}, {"Sequence": 9, "PersonId": 221379, "AddressId": 1561884, "Specialty": "General Practice", "Photo": "findadentist.ada.org/Images/Profile/221379-Dr-David-Bluestone.png", "Name": "Dr. David S Bluestone", "Email": "sharon@yorktownedental.com", "Phone": "(610) 775-2226", "Address": "1829 New Holland Rd Ste 7 Reading, PA 19607-2229", "City": "Reading", "State": "PA", "Zip": "19607-2229", "AddressLine1": "1829 New Holland Rd Ste 7", "AddressLine2": "", "Distance": 16.5, "Latitude": 40.30001, "Longitude": -75.94701}, {"Sequence": 10, "PersonId": 200706, "AddressId": 1541211, "Specialty": "Pediatric Dentistry", "Photo": "findadentist.ada.org/Images/Profile/200706-Dr-Aaron-Miller.png", "Name": "Dr. Aaron D Miller", "Email": "kidscowboydentistry@gmail.com", "Phone": "(717) 569-4598", "Address": "394 E Roseville Rd Lancaster, PA 17601-3841", "City": "Lancaster", "State": "PA", "Zip": "17601-3841", "AddressLine1": "394 E Roseville Rd", "AddressLine2": "", "Distance": 14.5, "Latitude": 40.0788, "Longitude": -76.29589}, {"Sequence": 11, "PersonId": 76171, "AddressId": 1416676, "Specialty": "General Practice", "Photo": "findadentist.ada.org/Images/Profile/76171-Dr-Richard-Berg.png", "Name": "Dr Richard M Berg", "Email": "drberg@drberg.net", "Phone": "(717) 627-3113", "Address": "54 Copperfield Cir Lititz, PA 17543-9483", "City": "Lititz", "State": "PA", "Zip": "17543-9483", "AddressLine1": "54 Copperfield Cir", "AddressLine2": "", "Distance": 8.3, "Latitude": 40.174, "Longitude": -76.30863}, {"Sequence": 12, "PersonId": 76896, "AddressId": 1417401, "Specialty": "Periodontics", "Photo": "findadentist.ada.org/Images/Profile/76896-Dr-Amy-Chaballa-Wilde.png", "Name": "Dr. Amy Chaballa-Wilde", "Email": "", "Phone": "(717) 581-9394", "Address": "160 N Pointe Blvd Ste 205 Lancaster, PA 17601-4134", "City": "Lancaster", "State": "PA", "Zip": "17601-4134", "AddressLine1": "160 N Pointe Blvd Ste 205", "AddressLine2": "", "Distance": 15.0, "Latitude": 40.07271, "Longitude": -76.30169}, {"Sequence": 13, "PersonId": 74506, "AddressId": 1415011, "Specialty": "Periodontics", "Photo": "findadentist.ada.org/Images/Profile/74506-Dr-Gerald-Green.png", "Name": "Dr Gerald C Green", "Email": "office@drgumguy.com", "Phone": "(717) 299-5544", "Address": "2207 Oregon Pike Ste 201 Lancaster, PA 17601-4670", "City": "Lancaster", "State": "PA", "Zip": "17601-4670", "AddressLine1": "2207 Oregon Pike Ste 201", "AddressLine2": "", "Distance": 14.0, "Latitude": 40.08535, "Longitude": -76.28624}, {"Sequence": 14, "PersonId": 200586, "AddressId": 3401164, "Specialty": "General Practice", "Photo": "findadentist.ada.org/Images/Profile/200586-Dr-Jeffrey-Grove.png", "Name": "Dr. Jeffrey Grove", "Email": "scheduling@grove.dental", "Phone": "(610) 372-8406", "Address": "2228 State Hill Road Wyomissing, PA 19610", "City": "Wyomissing", "State": "PA", "Zip": "19610", "AddressLine1": "2228 State Hill Road", "AddressLine2": "", "Distance": 15.0, "Latitude": 40.3402, "Longitude": -75.98275}, {"Sequence": 15, "PersonId": 114479, "AddressId": 2743004, "Specialty": "General Practice", "Photo": "findadentist.ada.org/Images/Profile/114479-Dr-Vanessa-Matos.png", "Name": "Dr. Vanessa I Matos", "Email": "", "Phone": "(717) 843-8011", "Address": "432 S Angle St Mount Joy, PA 17552", "City": "Mount Joy", "State": "PA", "Zip": "17552", "AddressLine1": "432 S Angle St", "AddressLine2": "", "Distance": 18.6, "Latitude": 40.10987, "Longitude": -76.52316}, {"Sequence": 16, "PersonId": 221321, "AddressId": 3512690, "Specialty": "Orthodontics and Dentofacial Orthopedics", "Photo": "findadentist.ada.org/Images/Profile/221321-Dr-Robert-Wertz.png", "Name": "Dr. Robert G Wertz, Jr.", "Email": "", "Phone": "(717) 273-1037", "Address": "404 Clays Xing Lebanon, PA 17042", "City": "Lebanon", "State": "PA", "Zip": "17042", "AddressLine1": "404 Clays Xing", "AddressLine2": "", "Distance": 6.4, "Latitude": 40.30958, "Longitude": -76.37775}, {"Sequence": 17, "PersonId": 75978, "AddressId": 1416483, "Specialty": "General Practice", "Photo": "findadentist.ada.org/Images/Profile/75978-Dr-John-Hottenstein.png", "Name": "Dr John Hottenstein", "Email": "centralberksdental@live.com", "Phone": "(610) 926-5705", "Address": "1st & Peach St Lees Port, PA 19533-0724", "City": "Lees Port", "State": "PA", "Zip": "19533-0724", "AddressLine1": "1st & Peach St", "AddressLine2": "PO Box 724", "Distance": 19.2, "Latitude": 40.44674, "Longitude": -75.96135}, {"Sequence": 18, "PersonId": 216031, "AddressId": 1556536, "Specialty": "Pediatric Dentistry", "Photo": "findadentist.ada.org/Images/Profile/216031-Dr-Laura-Snyder.png", "Name": "Dr. Laura G Snyder", "Email": "FRONTDESK@BERKSKIDSDENTISTRY.COM", "Phone": "(610) 916-7600", "Address": "1001 James Dr Ste A10 Leesport, PA 19533-8867", "City": "Leesport", "State": "PA", "Zip": "19533-8867", "AddressLine1": "1001 James Dr Ste A10", "AddressLine2": "", "Distance": 15.7, "Latitude": 40.39216, "Longitude": -75.99573}, {"Sequence": 19, "PersonId": 75973, "AddressId": 1416478, "Specialty": "General Practice", "Photo": "findadentist.ada.org/Images/Profile/75973-Dr-David-Huber.png", "Name": "Dr David C Huber", "Email": "", "Phone": "(610) 678-0153", "Address": "1920 Van Reed Rd Wyomissing, PA 19610-1006", "City": "Wyomissing", "State": "PA", "Zip": "19610-1006", "AddressLine1": "1920 Van Reed Rd", "AddressLine2": "", "Distance": 14.3, "Latitude": 40.34489, "Longitude": -75.9993}, {"Sequence": 20, "PersonId": 132821, "AddressId": 2792688, "Specialty": "General Practice", "Photo": "findadentist.ada.org/Images/Profile/132821-Dr-Richard-Yazinski.png", "Name": "Dr. Richard L Yazinski", "Email": "", "Phone": "(717) 533-3550", "Address": "756 East Chocolate Avenue Hershey, PA 17033-1211", "City": "Hershey", "State": "PA", "Zip": "17033-1211", "AddressLine1": "756 East Chocolate Avenue", "AddressLine2": "", "Distance": 19.7, "Latitude": 40.29195, "Longitude": -76.63259}, {"Sequence": 21, "PersonId": 76602, "AddressId": 3582239, "Specialty": "General Practice", "Photo": "findadentist.ada.org/Images/Profile/76602-Dr-Andrew-Gould.png", "Name": "Dr. Andrew D Gould", "Email": "AndrewDGouldDMD@verizon.net", "Phone": "(717) 838-5425", "Address": "1230 East Main Street Palmyra, PA 17078", "City": "Palmyra", "State": "PA", "Zip": "17078", "AddressLine1": "1230 East Main Street", "AddressLine2": "", "Distance": 16.7, "Latitude": 40.31699, "Longitude": -76.57382}, {"Sequence": 22, "PersonId": 76884, "AddressId": 3549949, "Specialty": "General Practice", "Photo": "findadentist.ada.org/Images/Profile/76884-Dr-Thomas-Dudas.png", "Name": "Dr Thomas P Dudas", "Email": "millersville@lifetimedentalusa.com", "Phone": "(717) 985-7303b", "Address": "365 Comet Dr Millersville, PA 17551", "City": "Millersville", "State": "PA", "Zip": "17551", "AddressLine1": "365 Comet Dr", "AddressLine2": "", "Distance": 19.8, "Latitude": 40.00897, "Longitude": -76.34491}, {"Sequence": 23, "PersonId": 76884, "AddressId": 3493636, "Specialty": "General Practice", "Photo": "findadentist.ada.org/Images/Profile/76884-Dr-Thomas-Dudas.png", "Name": "Dr Thomas P Dudas", "Email": "millersville@lifetimedentalusa.com", "Phone": "(717) 590-1504", "Address": "101 North Pointe Blvd Lancaster, PA 17601", "City": "Lancaster", "State": "PA", "Zip": "17601", "AddressLine1": "101 North Pointe Blvd", "AddressLine2": "Suite", "Distance": 15.1, "Latitude": 40.07117, "Longitude": -76.30149}, {"Sequence": 24, "PersonId": 131433, "AddressId": 1471938, "Specialty": "General Practice", "Photo": "findadentist.ada.org/Images/Profile/131433-Dr-Kenneth-Balatgek.png", "Name": "Dr. Kenneth A Balatgek", "Email": "jessb@sinkingspringdental.com", "Phone": "(610) 678-2777", "Address": "803 Mountain Home Rd Sinking Spring, PA 19608-9319", "City": "Sinking Spring", "State": "PA", "Zip": "19608-9319", "AddressLine1": "803 Mountain Home Rd", "AddressLine2": "", "Distance": 12.4, "Latitude": 40.31961, "Longitude": -76.0282}, {"Sequence": 25, "PersonId": 135907, "AddressId": 3548676, "Specialty": "Pediatric Dentistry", "Photo": "findadentist.ada.org/Images/Profile/135907-Dr-Kristin-Gordos.png", "Name": "Dr. Kristin A Gordos", "Email": "FRONTDESK@BERKSKIDSDENTISTRY.COM", "Phone": "(610) 916-7600", "Address": "1001 James Dr Ste A10 Leesport, PA 19533-8867", "City": "Leesport", "State": "PA", "Zip": "19533-8867", "AddressLine1": "1001 James Dr Ste A10", "AddressLine2": "", "Distance": 15.7, "Latitude": 40.39216, "Longitude": -75.99573}, {"Sequence": 26, "PersonId": 76001, "AddressId": 1416506, "Specialty": "General Practice", "Photo": "findadentist.ada.org/Images/Profile/76001-Dr-Stephen-Maniaci.png", "Name": "Dr Stephen A Maniaci", "Email": "", "Phone": "(610) 678-5858", "Address": "320 Abington Dr Wyomissing, PA 19610-1898", "City": "Wyomissing", "State": "PA", "Zip": "19610-1898", "AddressLine1": "320 Abington Dr", "AddressLine2": "", "Distance": 14.8, "Latitude": 40.34112, "Longitude": -75.98767}, {"Sequence": 27, "PersonId": 223752, "AddressId": 3450195, "Specialty": "General Practice", "Photo": "findadentist.ada.org/Images/Profile/223752-Dr-Julie-Lehr.png", "Name": "Dr. Julie R Lehr", "Email": "myharvestdental@gmail.com", "Phone": "(717) 466-6655", "Address": "250 N. Reading Rd Ephrata, PA 17522-1649", "City": "Ephrata", "State": "PA", "Zip": "17522-1649", "AddressLine1": "250 N. Reading Rd", "AddressLine2": "", "Distance": 8.0, "Latitude": 40.18987, "Longitude": -76.1795}, {"Sequence": 28, "PersonId": 76913, "AddressId": 3488805, "Specialty": "General Practice", "Photo": "findadentist.ada.org/Images/Profile/76913-Dr-Stephen-Raffensperger.png", "Name": "Dr Stephen P Raffensperger", "Email": "", "Phone": "(717) 768-8530", "Address": "3413 Harvest Dr Gordonville, PA 17529-9586", "City": "Gordonville", "State": "PA", "Zip": "17529-9586", "AddressLine1": "3413 Harvest Dr", "AddressLine2": "Suite 1", "Distance": 19.3, "Latitude": 40.03047, "Longitude": -76.11565}, {"Sequence": 29, "PersonId": 76017, "AddressId": 1416522, "Specialty": "General Practice", "Photo": "findadentist.ada.org/Images/Profile/76017-Dr-Andrew-Parks.png", "Name": "Dr. Andrew W Parks", "Email": "info@andrewparksdmd.com", "Phone": "(610) 777-7560", "Address": "221 E Lancaster Ave Reading, PA 19607-2614", "City": "Reading", "State": "PA", "Zip": "19607-2614", "AddressLine1": "221 E Lancaster Ave", "AddressLine2": "", "Distance": 15.7, "Latitude": 40.3058, "Longitude": -75.96332}, {"Sequence": 30, "PersonId": 76887, "AddressId": 1417392, "Specialty": "General Practice", "Photo": "findadentist.ada.org/Images/Profile/76887-Dr-John-Cooper.png", "Name": "Dr John A Cooper", "Email": "JohnCooperdentistry@gmail.com", "Phone": "(717) 392-3211", "Address": "231 N Shippen St Ste 30 Lancaster, PA 17602-2771", "City": "Lancaster", "State": "PA", "Zip": "17602-2771", "AddressLine1": "231 N Shippen St Ste 30", "AddressLine2": "", "Distance": 17.0, "Latitude": 40.04288, "Longitude": -76.29978}, {"Sequence": 31, "PersonId": 77074, "AddressId": 1417579, "Specialty": "Endodontics", "Photo": "findadentist.ada.org/Images/Profile/77074-Dr-Wayne-Paymer.png", "Name": "Dr Wayne D Paymer", "Email": "heather@endodonticsassociates.net", "Phone": "(717) 545-7400", "Address": "1108 E Chocolate Ave Hershey, PA 17033-1242", "City": "Hershey", "State": "PA", "Zip": "17033-1242", "AddressLine1": "1108 E Chocolate Ave", "AddressLine2": "", "Distance": 19.2, "Latitude": 40.29505, "Longitude": -76.62447}, {"Sequence": 32, "PersonId": 204874, "AddressId": 1545379, "Specialty": "General Practice", "Photo": "findadentist.ada.org/Images/Profile/204874-Dr-Anthony-Skiadas.png", "Name": "Dr. Anthony P Skiadas", "Email": "", "Phone": "(717) 481-7645", "Address": "1685 Crown Ave Ste 200 Lancaster, PA 17601-6320", "City": "Lancaster", "State": "PA", "Zip": "17601-6320", "AddressLine1": "1685 Crown Ave Ste 200", "AddressLine2": "", "Distance": 15.5, "Latitude": 40.06601, "Longitude": -76.30165}, {"Sequence": 33, "PersonId": 75752, "AddressId": 1416257, "Specialty": "General Practice", "Photo": "findadentist.ada.org/Images/Profile/75752-Dr-H-Ayle.png", "Name": "Dr H S Ayle", "Email": "office@palmyralaserdentistry.com", "Phone": "(717) 838-5425", "Address": "1230 E Main St Palmyra, PA 17078-9505", "City": "Palmyra", "State": "PA", "Zip": "17078-9505", "AddressLine1": "1230 E Main St", "AddressLine2": "", "Distance": 16.7, "Latitude": 40.31683, "Longitude": -76.57373}, {"Sequence": 34, "PersonId": 77019, "AddressId": 1417524, "Specialty": "General Practice", "Photo": "findadentist.ada.org/Images/Profile/77019-Dr-William-Funk.png", "Name": "Dr William C Funk", "Email": "info@cocalicodental.com", "Phone": "(717) 336-2807", "Address": "601 N 6Th St Denver, PA 17517-1313", "City": "Denver", "State": "PA", "Zip": "17517-1313", "AddressLine1": "601 N 6Th St", "AddressLine2": "", "Distance": 7.4, "Latitude": 40.23929, "Longitude": -76.13503}, {"Sequence": 35, "PersonId": 241016, "AddressId": 2738690, "Specialty": "General Practice", "Photo": "findadentist.ada.org/Images/Profile/241016-Dr-Christin-Buehler.png", "Name": "Dr. Christin R Buehler", "Email": "", "Phone": "(717) 656-0005", "Address": "912 W Main St Ste 404 New Holland, PA 17557", "City": "New Holland", "State": "PA", "Zip": "17557", "AddressLine1": "912 W Main St Ste 404", "AddressLine2": "", "Distance": 15.4, "Latitude": 40.09164, "Longitude": -76.12178}, {"Sequence": 36, "PersonId": 221254, "AddressId": 1561759, "Specialty": "General Practice", "Photo": "findadentist.ada.org/Images/Profile/221254-Dr-Laura-Harkin.png", "Name": "Dr. Laura Sheaffer Harkin", "Email": "info@drharkin.com", "Phone": "(717) 354-4081", "Address": "507 W Broad St New Holland, PA 17557-1103", "City": "New Holland", "State": "PA", "Zip": "17557-1103", "AddressLine1": "507 W Broad St", "AddressLine2": "", "Distance": 15.4, "Latitude": 40.09994, "Longitude": -76.10172}, {"Sequence": 37, "PersonId": 188796, "AddressId": 1529301, "Specialty": "General Practice", "Photo": "findadentist.ada.org/Images/Profile/188796-Dr-Jennifer-Davis.png", "Name": "Dr. Jennifer S Davis", "Email": "jen.dentalartimages@comcast.net", "Phone": "(717) 272-8500", "Address": "221 W Penn Ave Ste 213 Cleona, PA 17042-3230", "City": "Cleona", "State": "PA", "Zip": "17042-3230", "AddressLine1": "221 W Penn Ave Ste 213", "AddressLine2": "", "Distance": 12.1, "Latitude": 40.3369, "Longitude": -76.47987}, {"Sequence": 38, "PersonId": 76089, "AddressId": 1416594, "Specialty": "General Practice", "Photo": "findadentist.ada.org/Images/Profile/76089-Dr-Edmund-Kotula.png", "Name": "Dr Edmund N Kotula", "Email": "", "Phone": "(610) 376-6771", "Address": "3011 Kutztown Rd Reading, PA 19605-3406", "City": "Reading", "State": "PA", "Zip": "19605-3406", "AddressLine1": "3011 Kutztown Rd", "AddressLine2": "", "Distance": 19.0, "Latitude": 40.3804, "Longitude": -75.91935}, {"Sequence": 39, "PersonId": 77069, "AddressId": 1417574, "Specialty": "Orthodontics and Dentofacial Orthopedics", "Photo": "findadentist.ada.org/Images/Profile/77069-Dr-Michael-Palasz.png", "Name": "Dr. Michael V Palasz", "Email": "schedule@lititzortho.com", "Phone": "(717) 626-0600", "Address": "4A Toll Gate Rd Ste A Lititz, PA 17543-9424", "City": "Lititz", "State": "PA", "Zip": "17543-9424", "AddressLine1": "4A Toll Gate Rd Ste A", "AddressLine2": "", "Distance": 8.2, "Latitude": 40.17493, "Longitude": -76.3098}, {"Sequence": 40, "PersonId": 76260, "AddressId": 1416765, "Specialty": "General Practice", "Photo": "findadentist.ada.org/Images/Profile/76260-Dr-Brian-Sowatsky.png", "Name": "Dr Brian D Sowatsky", "Email": "lititz@lifetimedentalusa.com", "Phone": "(717) 627-0964", "Address": "1575 Highlands Dr Ste 100 Lititz, PR 17543", "City": "Lititz", "State": "PR", "Zip": "17543", "AddressLine1": "1575 Highlands Dr Ste 100", "AddressLine2": null, "Distance": 11.2, "Latitude": 40.13041, "Longitude": -76.31045}, {"Sequence": 41, "PersonId": 76072, "AddressId": 2765229, "Specialty": "General Practice", "Photo": "findadentist.ada.org/Images/Profile/76072-Dr-Eric-Zehner.png", "Name": "Dr Eric D Zehner", "Email": "info@ezdentalsolutions.com", "Phone": "(610) 777-9203", "Address": "300 N Kenhorst Blvd Reading, PA 19607-1472", "City": "Reading", "State": "PA", "Zip": "19607-1472", "AddressLine1": "300 N Kenhorst Blvd", "AddressLine2": "", "Distance": 16.4, "Latitude": 40.31612, "Longitude": -75.95041}, {"Sequence": 42, "PersonId": 75849, "AddressId": 2809418, "Specialty": "General Practice", "Photo": "findadentist.ada.org/Images/Profile/75849-Dr-Joseph-Blackburn.png", "Name": "Dr Joseph E Blackburn", "Email": "drblackburn@comcast.net", "Phone": "(610) 375-3366", "Address": "1500 Penn Ave Wyomissing, PA 19610-2136", "City": "Wyomissing", "State": "PA", "Zip": "19610-2136", "AddressLine1": "1500 Penn Ave", "AddressLine2": "", "Distance": 15.5, "Latitude": 40.33086, "Longitude": -75.9712}, {"Sequence": 43, "PersonId": 76074, "AddressId": 1416579, "Specialty": "Orthodontics and Dentofacial Orthopedics", "Photo": "findadentist.ada.org/Images/Profile/76074-Dr-James-Barrer.png", "Name": "Dr James G Barrer", "Email": "braces@barrerandwhite.com", "Phone": "(610) 376-3956", "Address": "311 Penn Ave Reading, PA 19611-1128", "City": "Reading", "State": "PA", "Zip": "19611-1128", "AddressLine1": "311 Penn Ave", "AddressLine2": "", "Distance": 16.9, "Latitude": 40.33564, "Longitude": -75.9448}, {"Sequence": 44, "PersonId": 75830, "AddressId": 1416335, "Specialty": "General Practice", "Photo": "findadentist.ada.org/Images/Profile/75830-Dr-David-Stachowicz.png", "Name": "Dr David H Stachowicz", "Email": "drstachowicz@hotmail.com", "Phone": "(717) 273-7162", "Address": "303 E Walnut St Lebanon, PA 17042-5648", "City": "Lebanon", "State": "PA", "Zip": "17042-5648", "AddressLine1": "303 E Walnut St", "AddressLine2": "", "Distance": 8.5, "Latitude": 40.33853, "Longitude": -76.40634}, {"Sequence": 45, "PersonId": 76147, "AddressId": 1416652, "Specialty": "General Practice", "Photo": "findadentist.ada.org/Images/Profile/76147-Dr-Marvin-Nolt.png", "Name": "Dr Marvin B Nolt", "Email": "", "Phone": "(717) 738-1353", "Address": "1261 Division Hwy Ephrata, PA 17522-8822", "City": "Ephrata", "State": "PA", "Zip": "17522-8822", "AddressLine1": "1261 Division Hwy", "AddressLine2": "", "Distance": 10.9, "Latitude": 40.15852, "Longitude": -76.1409}, {"Sequence": 46, "PersonId": 268324, "AddressId": 3533539, "Specialty": "Pediatric Dentistry", "Photo": "findadentist.ada.org/Images/Profile/268324-Dr-Dana-Al Baroudi.png", "Name": "Dr. Dana A Al Baroudi", "Email": "", "Phone": "(610) 622-1849", "Address": "1671 Oregon Pike Lancaster, PA 17601-4390", "City": "Lancaster", "State": "PA", "Zip": "17601-4390", "AddressLine1": "1671 Oregon Pike", "AddressLine2": "", "Distance": 15.5, "Latitude": 40.06595, "Longitude": -76.30407}, {"Sequence": 47, "PersonId": 76241, "AddressId": 1416746, "Specialty": "General Practice", "Photo": "findadentist.ada.org/Images/Profile/76241-Dr-Roger-Strause.png", "Name": "Dr Roger Strause", "Email": "cfdental@gmail.com", "Phone": "(717) 898-9099", "Address": "803 Estelle Dr Lancaster, PA 17601-2130", "City": "Lancaster", "State": "PA", "Zip": "17601-2130", "AddressLine1": "803 Estelle Dr", "AddressLine2": "", "Distance": 17.7, "Latitude": 40.05401, "Longitude": -76.39612}, {"Sequence": 48, "PersonId": 124922, "AddressId": 1465427, "Specialty": "Oral and Maxillofacial Surgery", "Photo": "findadentist.ada.org/Images/Profile/124922-Dr-Brandon-Iverson.png", "Name": "Dr. Brandon R Iverson", "Email": "", "Phone": "(717) 394-3033", "Address": "190 Good Dr Lancaster, PA 17603-2353", "City": "Lancaster", "State": "PA", "Zip": "17603-2353", "AddressLine1": "190 Good Dr", "AddressLine2": "", "Distance": 17.6, "Latitude": 40.04405, "Longitude": -76.35926}, {"Sequence": 49, "PersonId": 76848, "AddressId": 1417353, "Specialty": "General Practice", "Photo": "findadentist.ada.org/Images/Profile/76848-Dr-John-Backof.png", "Name": "Dr John Backof", "Email": "dental@jsbackof.comcastbiz.net", "Phone": "(717) 351-7342", "Address": "119 W. Main St New Holland, PA 17557-1203", "City": "New Holland", "State": "PA", "Zip": "17557-1203", "AddressLine1": "119 W. Main St", "AddressLine2": "", "Distance": 15.6, "Latitude": 40.10226, "Longitude": -76.09028}, {"Sequence": 50, "PersonId": 156387, "AddressId": 1496892, "Specialty": "Orthodontics and Dentofacial Orthopedics", "Photo": "findadentist.ada.org/Images/Profile/156387-Dr-George-Georgelis.png", "Name": "Dr. George Georgelis", "Email": "", "Phone": "(717) 569-7090", "Address": "2175 Oregon Pike Lancaster, PA 17601-4604", "City": "Lancaster", "State": "PA", "Zip": "17601-4604", "AddressLine1": "2175 Oregon Pike", "AddressLine2": "", "Distance": 14.1, "Latitude": 40.08463, "Longitude": -76.28768}, {"Sequence": 51, "PersonId": 240184, "AddressId": 3327502, "Specialty": "Oral and Maxillofacial Surgery", "Photo": "findadentist.ada.org/Images/Profile/240184-Dr-Geoffrey-Zinberg.png", "Name": "Dr. Geoffrey S Zinberg", "Email": "", "Phone": "(610) 374-4093", "Address": "1075 Berkshire Blvd Ste 800 Wyomissing, PA 19610-1264", "City": "Wyomissing", "State": "PA", "Zip": "19610-1264", "AddressLine1": "1075 Berkshire Blvd Ste 800", "AddressLine2": "Berks Oral Surgery", "Distance": 15.6, "Latitude": 40.34575, "Longitude": -75.97392}, {"Sequence": 52, "PersonId": 76891, "AddressId": 3429589, "Specialty": "Orthodontics and Dentofacial Orthopedics", "Photo": "findadentist.ada.org/Images/Profile/76891-Dr-Lewis-Storb.png", "Name": "Dr Lewis A Storb", "Email": "", "Phone": "(717) 445-4422", "Address": "422 Maple Street Terre Hill, PA 17581", "City": "Terre Hill", "State": "PA", "Zip": "17581", "AddressLine1": "422 Maple Street", "AddressLine2": "PO Box 730", "Distance": 15.0, "Latitude": 40.07271, "Longitude": -76.30169}, {"Sequence": 53, "PersonId": 76883, "AddressId": 1417388, "Specialty": "General Practice", "Photo": "findadentist.ada.org/Images/Profile/76883-Dr-John-Voler.png", "Name": "Dr John F Voler", "Email": "", "Phone": "(717) 336-2807", "Address": "601 N 6th St Denver, PA 17517-1313", "City": "Denver", "State": "PA", "Zip": "17517-1313", "AddressLine1": "601 N 6th St", "AddressLine2": "", "Distance": 7.4, "Latitude": 40.23929, "Longitude": -76.13503}, {"Sequence": 54, "PersonId": 76533, "AddressId": 1417038, "Specialty": "Pediatric Dentistry", "Photo": "findadentist.ada.org/Images/Profile/76533-Dr-Peter-Ross.png", "Name": "Dr Peter J Ross", "Email": "", "Phone": "(717) 560-9002", "Address": "1875 Lititz Pike Ste 9 Lancaster, PA 17601-6515", "City": "Lancaster", "State": "PA", "Zip": "17601-6515", "AddressLine1": "1875 Lititz Pike Ste 9", "AddressLine2": "", "Distance": 14.8, "Latitude": 40.07585, "Longitude": -76.30809}, {"Sequence": 55, "PersonId": 76016, "AddressId": 1416521, "Specialty": "Oral and Maxillofacial Surgery", "Photo": "findadentist.ada.org/Images/Profile/76016-Dr-Frederick-Ciabattoni.png", "Name": "Dr Frederick J Ciabattoni", "Email": "", "Phone": "(610) 374-4093", "Address": "1075 Berkshire Blvd Wyomissing, PA 19610-1264", "City": "Wyomissing", "State": "PA", "Zip": "19610-1264", "AddressLine1": "1075 Berkshire Blvd", "AddressLine2": "", "Distance": 15.6, "Latitude": 40.34575, "Longitude": -75.97392}, {"Sequence": 56, "PersonId": 204778, "AddressId": 1545283, "Specialty": "Oral and Maxillofacial Pathology", "Photo": "findadentist.ada.org/Images/Profile/204778-Dr-Michael-Balthaser.png", "Name": "Dr. Michael B Balthaser", "Email": "", "Phone": "(610) 678-2175", "Address": "1075 Berkshire Blvd Ste 950 Wyomissing, PA 19610-1264", "City": "Wyomissing", "State": "PA", "Zip": "19610-1264", "AddressLine1": "1075 Berkshire Blvd Ste 950", "AddressLine2": "", "Distance": 15.6, "Latitude": 40.34575, "Longitude": -75.97392}, {"Sequence": 57, "PersonId": 250534, "AddressId": 2974096, "Specialty": "General Practice", "Photo": "findadentist.ada.org/Images/Profile/250534-Dr-Bhargav-Patel.png", "Name": "Dr. Bhargav Patel", "Email": "hersheydentalcare@gmail.com", "Phone": "(717) 312-7030", "Address": "555 E Chocolate Ave Ste 101 Hershey, PA 17033-1334", "City": "Hershey", "State": "PA", "Zip": "17033-1334", "AddressLine1": "555 E Chocolate Ave Ste 101", "AddressLine2": "", "Distance": 19.9, "Latitude": 40.29118, "Longitude": -76.63686}, {"Sequence": 58, "PersonId": 75970, "AddressId": 1416475, "Specialty": "General Practice", "Photo": "findadentist.ada.org/Images/Profile/75970-Dr-James-Schmoyer.png", "Name": "Dr James G Schmoyer", "Email": "penncom202@comcast.net", "Phone": "(610) 374-8009", "Address": "560 Van Reed Rd Ste 202 Wyomissing, PA 19610-1799", "City": "Wyomissing", "State": "PA", "Zip": "19610-1799", "AddressLine1": "560 Van Reed Rd Ste 202", "AddressLine2": "", "Distance": 16.2, "Latitude": 40.34043, "Longitude": -75.96085}, {"Sequence": 59, "PersonId": 76898, "AddressId": 1417403, "Specialty": "General Practice", "Photo": "findadentist.ada.org/Images/Profile/76898-Dr-Matthew-Freedman.png", "Name": "Dr Matthew D Freedman", "Email": "mdfdmd@aol.com", "Phone": "(717) 392-8376", "Address": "416 N Duke St Lancaster, PA 17602-4932", "City": "Lancaster", "State": "PA", "Zip": "17602-4932", "AddressLine1": "416 N Duke St", "AddressLine2": "", "Distance": 16.9, "Latitude": 40.045, "Longitude": -76.30518}, {"Sequence": 60, "PersonId": 76792, "AddressId": 3401392, "Specialty": "General Practice", "Photo": "findadentist.ada.org/Images/Profile/76792-Dr-Kenneth-Loeffler.png", "Name": "Dr Kenneth D Loeffler, II", "Email": "LP.Lanc@LoefflerPitt.net", "Phone": "(717) 569-6484", "Address": "2131 Oregon Pike Lancaster, PA 17601-4614", "City": "Lancaster", "State": "PA", "Zip": "17601-4614", "AddressLine1": "2131 Oregon Pike", "AddressLine2": "", "Distance": 14.3, "Latitude": 40.08198, "Longitude": -76.29165}, {"Sequence": 61, "PersonId": 155218, "AddressId": 1495723, "Specialty": "Prosthodontics", "Photo": "findadentist.ada.org/Images/Profile/155218-Dr-Christian-Silvaggio.png", "Name": "Dr. Christian A Silvaggio", "Email": "", "Phone": "(717) 393-0550", "Address": "230 Harrisburg Ave Ste 9 Lancaster, PA 17603-2975", "City": "Lancaster", "State": "PA", "Zip": "17603-2975", "AddressLine1": "230 Harrisburg Ave Ste 9", "AddressLine2": "", "Distance": 16.9, "Latitude": 40.04616, "Longitude": -76.31129}, {"Sequence": 62, "PersonId": 138411, "AddressId": 1478916, "Specialty": "General Practice", "Photo": "findadentist.ada.org/Images/Profile/138411-Dr-William-Poole.png", "Name": "Dr. William Poole", "Email": "contact@williampooledds.com", "Phone": "(717) 656-2586", "Address": "21 E Main St Leola, PA 17540-1938", "City": "Leola", "State": "PA", "Zip": "17540-1938", "AddressLine1": "21 E Main St", "AddressLine2": "", "Distance": 14.3, "Latitude": 40.08909, "Longitude": -76.18091}, {"Sequence": 63, "PersonId": 76981, "AddressId": 1417486, "Specialty": "Oral and Maxillofacial Surgery", "Photo": "findadentist.ada.org/Images/Profile/76981-Dr-Steven-Sudbrink.png", "Name": "Dr Steven D Sudbrink", "Email": "staff@secure.jawdoctor.com", "Phone": "(717) 733-8645", "Address": "800 Grandview Dr Ephrata, PA 17522-1635", "City": "Ephrata", "State": "PA", "Zip": "17522-1635", "AddressLine1": "800 Grandview Dr", "AddressLine2": "", "Distance": 7.9, "Latitude": 40.18846, "Longitude": -76.18298}, {"Sequence": 64, "PersonId": 76054, "AddressId": 3529454, "Specialty": "Oral and Maxillofacial Surgery", "Photo": "findadentist.ada.org/Images/Profile/76054-Dr-Alexandre-Balaci.png", "Name": "Dr. Alexandre Balaci", "Email": "", "Phone": null, "Address": "1 Jasons Way Annville, PA 17003", "City": "Annville", "State": "PA", "Zip": "17003", "AddressLine1": "1 Jasons Way", "AddressLine2": "", "Distance": 12.7, "Latitude": 40.33381, "Longitude": -76.49187}, {"Sequence": 65, "PersonId": 75984, "AddressId": 3024912, "Specialty": "General Practice", "Photo": "findadentist.ada.org/Images/Profile/75984-Dr-John-Reitz.png", "Name": "Dr John V Reitz", "Email": "jreitzdds@ptd.net", "Phone": "(610) 320-9993", "Address": "30 Commerce Dr Ste 2 Reading, PA 19610-3322", "City": "Reading", "State": "PA", "Zip": "19610-3322", "AddressLine1": "30 Commerce Dr Ste 2", "AddressLine2": "", "Distance": 14.8, "Latitude": 40.34721, "Longitude": -75.98873}, {"Sequence": 66, "PersonId": 75961, "AddressId": 1416466, "Specialty": "General Practice", "Photo": "findadentist.ada.org/Images/Profile/75961-Dr-Robert-Forry.png", "Name": "Dr Robert A Forry", "Email": "", "Phone": "(610) 678-0153", "Address": "1920 Van Reed Rd Wyomissing, PA 19610-1006", "City": "Wyomissing", "State": "PA", "Zip": "19610-1006", "AddressLine1": "1920 Van Reed Rd", "AddressLine2": "", "Distance": 14.3, "Latitude": 40.34489, "Longitude": -75.9993}, {"Sequence": 67, "PersonId": 134519, "AddressId": 1475024, "Specialty": "Oral and Maxillofacial Surgery", "Photo": "findadentist.ada.org/Images/Profile/134519-Dr-Daniel-Henrichsen.png", "Name": "Dr. Daniel P Henrichsen", "Email": "", "Phone": "(717) 394-3033", "Address": "190 Good Dr Lancaster, PA 17603-2353", "City": "Lancaster", "State": "PA", "Zip": "17603-2353", "AddressLine1": "190 Good Dr", "AddressLine2": "", "Distance": 17.6, "Latitude": 40.04405, "Longitude": -76.35926}, {"Sequence": 68, "PersonId": 135867, "AddressId": 1476372, "Specialty": "Pediatric Dentistry", "Photo": "findadentist.ada.org/Images/Profile/135867-Dr-Kimberly-Figart.png", "Name": "Dr. Kimberly A Figart", "Email": "", "Phone": "(717) 560-9002", "Address": "1875 Lititz Pike Lancaster, PA 17601-6515", "City": "Lancaster", "State": "PA", "Zip": "17601-6515", "AddressLine1": "1875 Lititz Pike", "AddressLine2": "", "Distance": 14.8, "Latitude": 40.07585, "Longitude": -76.30809}, {"Sequence": 69, "PersonId": 132752, "AddressId": 3498524, "Specialty": "Endodontics", "Photo": "findadentist.ada.org/Images/Profile/132752-Dr-Brian-Frey.png", "Name": "Dr. Brian N Frey", "Email": "", "Phone": "(610) 376-1536", "Address": "1150 Berkshire Blvd Ste 120 Wyomissing, PA 19610-1208", "City": "Wyomissing", "State": "PA", "Zip": "19610-1208", "AddressLine1": "1150 Berkshire Blvd Ste 120", "AddressLine2": "", "Distance": 15.4, "Latitude": 40.34225, "Longitude": -75.97634}, {"Sequence": 70, "PersonId": 76829, "AddressId": 1417334, "Specialty": "General Practice", "Photo": "findadentist.ada.org/Images/Profile/76829-Dr-Steven-Crognale.png", "Name": "Dr Steven D Crognale", "Email": "sdcrog77@gmail.com", "Phone": "(717) 898-6068", "Address": "2958 Marietta Ave Lancaster, PA 17601-2126", "City": "Lancaster", "State": "PA", "Zip": "17601-2126", "AddressLine1": "2958 Marietta Ave", "AddressLine2": "", "Distance": 17.5, "Latitude": 40.05715, "Longitude": -76.39803}, {"Sequence": 71, "PersonId": 75738, "AddressId": 2765218, "Specialty": "General Practice", "Photo": "findadentist.ada.org/Images/Profile/75738-Dr-David-Causa.png", "Name": "Dr David M Causa", "Email": "davidcausa@yahoo.com", "Phone": "(610) 777-1001", "Address": "206 Revere Blvd Reading, PA 19609-2463", "City": "Reading", "State": "PA", "Zip": "19609-2463", "AddressLine1": "206 Revere Blvd", "AddressLine2": "", "Distance": 14.5, "Latitude": 40.31, "Longitude": -75.98647}, {"Sequence": 72, "PersonId": 76855, "AddressId": 1417360, "Specialty": "Oral and Maxillofacial Surgery", "Photo": "findadentist.ada.org/Images/Profile/76855-Dr-Michael-Eckhart.png", "Name": "Dr Michael P Eckhart", "Email": "", "Phone": "(717) 394-3033", "Address": "190 Good Dr Lancaster, PA 17603-2353", "City": "Lancaster", "State": "PA", "Zip": "17603-2353", "AddressLine1": "190 Good Dr", "AddressLine2": "", "Distance": 17.6, "Latitude": 40.04405, "Longitude": -76.35926}, {"Sequence": 73, "PersonId": 77003, "AddressId": 1417508, "Specialty": "General Practice", "Photo": "findadentist.ada.org/Images/Profile/77003-Dr-Daniel-Springer.png", "Name": "Dr Daniel W Springer", "Email": "drdwcollt@windstream.net", "Phone": "(717) 733-2147", "Address": "23 Hummer Rd Ephrata, PA 17522-1508", "City": "Ephrata", "State": "PA", "Zip": "17522-1508", "AddressLine1": "23 Hummer Rd", "AddressLine2": "", "Distance": 7.2, "Latitude": 40.1934, "Longitude": -76.19921}, {"Sequence": 74, "PersonId": 75853, "AddressId": 1416358, "Specialty": "General Practice", "Photo": "findadentist.ada.org/Images/Profile/75853-Dr-Richard-Koslowski.png", "Name": "Dr. Richard L Koslowski, Jr.", "Email": "cornwallfamilydentistry@gmail.com", "Phone": "(717) 272-3079", "Address": "850 Norman Dr Lebanon, PA 17042-7444", "City": "Lebanon", "State": "PA", "Zip": "17042-7444", "AddressLine1": "850 Norman Dr", "AddressLine2": "", "Distance": 9.4, "Latitude": 40.32938, "Longitude": -76.42909}, {"Sequence": 75, "PersonId": 132381, "AddressId": 1472886, "Specialty": "General Practice", "Photo": "findadentist.ada.org/Images/Profile/132381-Dr-John-Dever.png", "Name": "Dr. John W Dever", "Email": "", "Phone": "(717) 733-2100", "Address": "815 Martin Ave Ephrata, PA 17522-1642", "City": "Ephrata", "State": "PA", "Zip": "17522-1642", "AddressLine1": "815 Martin Ave", "AddressLine2": "", "Distance": 7.9, "Latitude": 40.18845, "Longitude": -76.18369}, {"Sequence": 76, "PersonId": 196054, "AddressId": 1536559, "Specialty": "General Practice", "Photo": "findadentist.ada.org/Images/Profile/196054-Dr-Allison-McCracken.png", "Name": "Dr. Allison D McCracken", "Email": "", "Phone": null, "Address": "1 Cardinal Dr Stevens, PA 17578-9590", "City": "Stevens", "State": "PA", "Zip": "17578-9590", "AddressLine1": "1 Cardinal Dr", "AddressLine2": "", "Distance": 8.6, "Latitude": 40.21532, "Longitude": -76.12708}, {"Sequence": 77, "PersonId": 76871, "AddressId": 1417376, "Specialty": "General Practice", "Photo": "findadentist.ada.org/Images/Profile/76871-Dr-Stefan-Bender.png", "Name": "Dr Stefan F Bender", "Email": "", "Phone": "(717) 285-3030", "Address": "313 Primrose Ln Ste A-B Mountville, PA 17554-1229", "City": "Mountville", "State": "PA", "Zip": "17554-1229", "AddressLine1": "313 Primrose Ln Ste A-B", "AddressLine2": "", "Distance": 18.7, "Latitude": 40.04809, "Longitude": -76.42331}, {"Sequence": 78, "PersonId": 75728, "AddressId": 1416233, "Specialty": "Orthodontics and Dentofacial Orthopedics", "Photo": "findadentist.ada.org/Images/Profile/75728-Dr-Natalie-Parisi.png", "Name": "Dr Natalie M Parisi", "Email": "braces@fantasticsmiles.com", "Phone": "(610) 374-4097", "Address": "1268 Penn Ave Wyomissing, PA 19610-2130", "City": "Wyomissing", "State": "PA", "Zip": "19610-2130", "AddressLine1": "1268 Penn Ave", "AddressLine2": "", "Distance": 15.8, "Latitude": 40.33234, "Longitude": -75.96619}, {"Sequence": 79, "PersonId": 76903, "AddressId": 2696883, "Specialty": "General Practice", "Photo": "findadentist.ada.org/Images/Profile/76903-Dr-Christopher-Sicher.png", "Name": "Dr Christopher M Sicher", "Email": "sicherfrontdesk@comcast.net", "Phone": null, "Address": "1344 E Chocolate Ave Hershey, PA 17033-1116", "City": "Hershey", "State": "PA", "Zip": "17033-1116", "AddressLine1": "1344 E Chocolate Ave", "AddressLine2": "", "Distance": 19.0, "Latitude": 40.29716, "Longitude": -76.61914}, {"Sequence": 80, "PersonId": 76003, "AddressId": 1416508, "Specialty": "General Practice", "Photo": "findadentist.ada.org/Images/Profile/76003-Dr-Larry-Fisher.png", "Name": "Dr Larry E Fisher", "Email": "", "Phone": "(610) 777-4002", "Address": "200 Elmwood Ave Reading, PA 19609-2469", "City": "Reading", "State": "PA", "Zip": "19609-2469", "AddressLine1": "200 Elmwood Ave", "AddressLine2": "Lincoln Park", "Distance": 14.5, "Latitude": 40.31064, "Longitude": -75.9857}, {"Sequence": 81, "PersonId": 132661, "AddressId": 2765438, "Specialty": "Endodontics", "Photo": "findadentist.ada.org/Images/Profile/132661-Dr-Minh-Snyder.png", "Name": "Dr. Minh H Snyder", "Email": "snyderendodontics@gmail.com", "Phone": "(717) 826-9959", "Address": "32E East Roseville Rd Lancaster, PA 17601", "City": "Lancaster", "State": "PA", "Zip": "17601", "AddressLine1": "32E East Roseville Rd", "AddressLine2": "", "Distance": 14.8, "Latitude": 40.0757, "Longitude": -76.30558}, {"Sequence": 82, "PersonId": 226429, "AddressId": 2938750, "Specialty": "Oral and Maxillofacial Surgery", "Photo": "findadentist.ada.org/Images/Profile/226429-Dr-David-Winans.png", "Name": "Dr. David L Winans", "Email": "", "Phone": null, "Address": "1075 Berkshire Blvd Ste 800 Reading, PA 19610-1264", "City": "Reading", "State": "PA", "Zip": "19610-1264", "AddressLine1": "1075 Berkshire Blvd Ste 800", "AddressLine2": "", "Distance": 15.6, "Latitude": 40.34575, "Longitude": -75.97392}, {"Sequence": 83, "PersonId": 75957, "AddressId": 3550369, "Specialty": "Orthodontics and Dentofacial Orthopedics", "Photo": "findadentist.ada.org/Images/Profile/75957-Dr-Robert-Wertz.png", "Name": "Dr Robert G Wertz", "Email": "bethb@wertzortho.com", "Phone": "(717) 273-9780", "Address": "855 Norman Dr Lebanon, PA 17042-7445", "City": "Lebanon", "State": "PA", "Zip": "17042-7445", "AddressLine1": "855 Norman Dr", "AddressLine2": "", "Distance": 8.5, "Latitude": 40.31627, "Longitude": -76.41565}, {"Sequence": 84, "PersonId": 129533, "AddressId": 3511485, "Specialty": "Oral and Maxillofacial Surgery", "Photo": "findadentist.ada.org/Images/Profile/129533-Dr-Maxwell-Adams.png", "Name": "Dr. Maxwell Adams", "Email": "", "Phone": "(717) 519-5297", "Address": "1834 Oregon Pike Ste 21 Lancaster, PA 17601-2400", "City": "Lancaster", "State": "PA", "Zip": "17601-2400", "AddressLine1": "1834 Oregon Pike Ste 21", "AddressLine2": "", "Distance": 14.7, "Latitude": 40.07659, "Longitude": -76.29704}, {"Sequence": 85, "PersonId": 76050, "AddressId": 1416555, "Specialty": "Orthodontics and Dentofacial Orthopedics", "Photo": "findadentist.ada.org/Images/Profile/76050-Dr-Robert-Doleva.png", "Name": "Dr Robert E Doleva", "Email": "braces@fantasticsmiles.com", "Phone": "(610) 374-4097", "Address": "1268 Penn Ave Wyomissing, PA 19610-2130", "City": "Wyomissing", "State": "PA", "Zip": "19610-2130", "AddressLine1": "1268 Penn Ave", "AddressLine2": null, "Distance": 15.8, "Latitude": 40.33234, "Longitude": -75.96619}, {"Sequence": 86, "PersonId": 76990, "AddressId": 1417495, "Specialty": "General Practice", "Photo": "findadentist.ada.org/Images/Profile/76990-Dr-Jose-Perez.png", "Name": "Dr Jose M Perez", "Email": "", "Phone": "(717) 569-7787", "Address": "600D Eden Rd Lancaster, PA 17601-4205", "City": "Lancaster", "State": "PA", "Zip": "17601-4205", "AddressLine1": "600D Eden Rd", "AddressLine2": "", "Distance": 15.1, "Latitude": 40.07006, "Longitude": -76.29227}, {"Sequence": 87, "PersonId": 33166, "AddressId": 3038521, "Specialty": "Periodontics", "Photo": "findadentist.ada.org/Images/Profile/33166-Dr-Ross-Kline.png", "Name": "Dr Ross E Kline", "Email": "hersey@periodontalassociates.com", "Phone": "(717) 533-5950", "Address": "1108 E Chocolate Ave Hershey, PA 17033", "City": "Hershey", "State": "PA", "Zip": "17033", "AddressLine1": "1108 E Chocolate Ave", "AddressLine2": "", "Distance": 19.2, "Latitude": 40.29505, "Longitude": -76.62447}, {"Sequence": 88, "PersonId": 230390, "AddressId": 1570895, "Specialty": "Pediatric Dentistry", "Photo": "findadentist.ada.org/Images/Profile/230390-Dr-Silpa-Velivela.png", "Name": "Dr. Silpa Velivela", "Email": "", "Phone": "(717) 984-2136", "Address": "1671 Oregon Pike Lancaster, PA 17601", "City": "Lancaster", "State": "PA", "Zip": "17601", "AddressLine1": "1671 Oregon Pike", "AddressLine2": "", "Distance": 15.5, "Latitude": 40.06595, "Longitude": -76.30407}, {"Sequence": 89, "PersonId": 262019, "AddressId": 3384017, "Specialty": "Orthodontics and Dentofacial Orthopedics", "Photo": "findadentist.ada.org/Images/Profile/262019-Dr-Paul-Weibel.png", "Name": "Dr. Paul E Weibel", "Email": "", "Phone": "(717) 898-0220", "Address": "3019 Marietta Ave Lancaster, PA 17601-1398", "City": "Lancaster", "State": "PA", "Zip": "17601-1398", "AddressLine1": "3019 Marietta Ave", "AddressLine2": "", "Distance": 17.5, "Latitude": 40.05825, "Longitude": -76.4002}, {"Sequence": 90, "PersonId": 223781, "AddressId": 3582248, "Specialty": "General Practice", "Photo": "findadentist.ada.org/Images/Profile/223781-Dr-Katherine-Dively.png", "Name": "Dr. Katherine L Dively", "Email": "office@palmyralaserdentistry.com", "Phone": "(717) 838-5425", "Address": "1230 East Main Street Palmyra, PA 17078", "City": "Palmyra", "State": "PA", "Zip": "17078", "AddressLine1": "1230 East Main Street", "AddressLine2": "", "Distance": 16.7, "Latitude": 40.31699, "Longitude": -76.57382}, {"Sequence": 91, "PersonId": 75969, "AddressId": 1416474, "Specialty": "Periodontics", "Photo": "findadentist.ada.org/Images/Profile/75969-Dr-Samuel-Greenlee.png", "Name": "Dr Samuel D Greenlee", "Email": "penncom202@comcast.net", "Phone": "(610) 374-8009", "Address": "560 Van Reed Rd Ste 202 Wyomissing, PA 19610-1799", "City": "Wyomissing", "State": "PA", "Zip": "19610-1799", "AddressLine1": "560 Van Reed Rd Ste 202", "AddressLine2": null, "Distance": 16.2, "Latitude": 40.34043, "Longitude": -75.96085}, {"Sequence": 92, "PersonId": 76884, "AddressId": 1417389, "Specialty": "General Practice", "Photo": "findadentist.ada.org/Images/Profile/76884-Dr-Thomas-Dudas.png", "Name": "Dr Thomas P Dudas", "Email": "millersville@lifetimedentalusa.com", "Phone": "(717) 656-3051", "Address": "355 W Main St Leola, PA 17540-2107", "City": "Leola", "State": "PA", "Zip": "17540-2107", "AddressLine1": "355 W Main St", "AddressLine2": "", "Distance": 14.1, "Latitude": 40.08581, "Longitude": -76.21546}, {"Sequence": 93, "PersonId": 76815, "AddressId": 1417320, "Specialty": "General Practice", "Photo": "findadentist.ada.org/Images/Profile/76815-Dr-Michael-Cohen.png", "Name": "Dr Michael H Cohen", "Email": "", "Phone": "(717) 733-7971", "Address": "815 Martin Ave Ephrata, PA 17522-1642", "City": "Ephrata", "State": "PA", "Zip": "17522-1642", "AddressLine1": "815 Martin Ave", "AddressLine2": "", "Distance": 7.9, "Latitude": 40.18845, "Longitude": -76.18369}, {"Sequence": 94, "PersonId": 8649, "AddressId": 1349154, "Specialty": "General Practice", "Photo": "findadentist.ada.org/Images/Profile/8649-Dr-Jeffrey-Eby.png", "Name": "Dr Jeffrey Eby", "Email": "", "Phone": "(717) 859-4170", "Address": "240 N 7th St Ste 400 Akron, PA 17501-1366", "City": "Akron", "State": "PA", "Zip": "17501-1366", "AddressLine1": "240 N 7th St Ste 400", "AddressLine2": null, "Distance": 9.1, "Latitude": 40.16286, "Longitude": -76.20202}, {"Sequence": 95, "PersonId": 271061, "AddressId": 3155063, "Specialty": "General Practice", "Photo": "findadentist.ada.org/Images/Profile/271061-Dr-Travis-Tucker.png", "Name": "Dr. Travis C Tucker", "Email": "frontdesk@guilfordhillsdental.com", "Phone": "(717) 267-0800", "Address": "912 Alandale Drive Chambersburg, PA 17202", "City": "Chambersburg", "State": "PA", "Zip": "17202", "AddressLine1": "912 Alandale Drive", "AddressLine2": "", "Distance": 15.5, "Latitude": 40.06605, "Longitude": -76.3015}, {"Sequence": 96, "PersonId": 76766, "AddressId": 3397641, "Specialty": "Pediatric Dentistry", "Photo": "findadentist.ada.org/Images/Profile/76766-Dr-Stephen-Miller.png", "Name": "Dr Stephen D Miller", "Email": "", "Phone": "(717) 569-4597", "Address": "394 E Roseville Rd Lancaster, PA 17601-3841", "City": "Lancaster", "State": "PA", "Zip": "17601-3841", "AddressLine1": "394 E Roseville Rd", "AddressLine2": "", "Distance": 14.5, "Latitude": 40.0788, "Longitude": -76.29589}, {"Sequence": 97, "PersonId": 135604, "AddressId": 1476109, "Specialty": "Pediatric Dentistry", "Photo": "findadentist.ada.org/Images/Profile/135604-Dr-Jeannette-Pikarski.png", "Name": "Dr. Jeannette D Pikarski", "Email": "brightersmiles@comcast.net", "Phone": "(717) 626-8282", "Address": "100 Highlands Dr Ste 304 Lititz, PA 17543-7692", "City": "Lititz", "State": "PA", "Zip": "17543-7692", "AddressLine1": "100 Highlands Dr Ste 304", "AddressLine2": "", "Distance": 10.7, "Latitude": 40.13688, "Longitude": -76.30455}, {"Sequence": 98, "PersonId": 76587, "AddressId": 1417092, "Specialty": "General Practice", "Photo": "findadentist.ada.org/Images/Profile/76587-Dr-Michael-Schreder.png", "Name": "Dr Michael J Schreder", "Email": "info@schrederdental.com", "Phone": "(717) 394-5260", "Address": "151 Good Dr Lancaster, PA 17603-2390", "City": "Lancaster", "State": "PA", "Zip": "17603-2390", "AddressLine1": "151 Good Dr", "AddressLine2": "", "Distance": 17.6, "Latitude": 40.0437, "Longitude": -76.35829}, {"Sequence": 99, "PersonId": 76981, "AddressId": 3503659, "Specialty": "Oral and Maxillofacial Surgery", "Photo": "findadentist.ada.org/Images/Profile/76981-Dr-Steven-Sudbrink.png", "Name": "Dr Steven D Sudbrink", "Email": "staff@secure.jawdoctor.com", "Phone": "(717) 627-2299", "Address": "1575 Highlands Dr Lititz, PA 17543-7507", "City": "Lititz", "State": "PA", "Zip": "17543-7507", "AddressLine1": "1575 Highlands Dr", "AddressLine2": "", "Distance": 11.2, "Latitude": 40.13035, "Longitude": -76.31048}, {"Sequence": 100, "PersonId": 114549, "AddressId": 1455054, "Specialty": "General Practice", "Photo": "findadentist.ada.org/Images/Profile/114549-Dr-Stephen-Springer.png", "Name": "Dr. Stephen D Springer", "Email": "drdwcollt@windstream.net", "Phone": "(717) 733-2147", "Address": "23 Hummer Rd Ephrata, PA 17522-1508", "City": "Ephrata", "State": "PA", "Zip": "17522-1508", "AddressLine1": "23 Hummer Rd", "AddressLine2": "", "Distance": 7.3, "Latitude": 40.19327, "Longitude": -76.19898}]