[{"Sequence": 1, "PersonId": 249315, "AddressId": 2837048, "Specialty": "General Practice", "Photo": "findadentist.ada.org/Images/Profile/249315-Dr-Gunther-Heyder.png", "Name": "Dr. Gunther P Heyder", "Email": "", "Phone": "(252) 261-7700", "Address": "3704 N Croatan Hwy Kitty Hawk, NC 27949-9208", "City": "Kitty Hawk", "State": "NC", "Zip": "27949-9208", "AddressLine1": "3704 N Croatan Hwy", "AddressLine2": "", "Distance": 9.0, "Latitude": 36.05901, "Longitude": -75.68933}, {"Sequence": 2, "PersonId": 254004, "AddressId": 2940984, "Specialty": "General Practice", "Photo": "findadentist.ada.org/Images/Profile/254004-Dr-David-Morgan.png", "Name": "Dr. David E Morgan", "Email": "drpatmorgan@embarqmail.com", "Phone": "(252) 453-2181", "Address": "153 Worth Guard Rd Coinjock, NC 27923-9766", "City": "Coinjock", "State": "NC", "Zip": "27923-9766", "AddressLine1": "153 Worth Guard Rd", "AddressLine2": "", "Distance": 16.5, "Latitude": 36.34867, "Longitude": -75.9561}, {"Sequence": 3, "PersonId": 58251, "AddressId": 1398756, "Specialty": "General Practice", "Photo": "findadentist.ada.org/Images/Profile/58251-Dr-Jeffrey-Jacobson.png", "Name": "Dr Jeffrey D Jacobson", "Email": "obxjake@charter.net", "Phone": "(252) 441-8882", "Address": "1024 Colington Rd Ste 1 Kill Devil Hills, NC 27948-8019", "City": "Kill Devil Hills", "State": "NC", "Zip": "27948-8019", "AddressLine1": "1024 Colington Rd Ste 1", "AddressLine2": "", "Distance": 11.6, "Latitude": 36.0138, "Longitude": -75.6776}, {"Sequence": 4, "PersonId": 197538, "AddressId": 3510955, "Specialty": "General Practice", "Photo": "findadentist.ada.org/Images/Profile/197538-Dr-Markus-Heyder.png", "Name": "Dr. Markus Heyder", "Email": "", "Phone": "(252) 261-7700", "Address": "3704 N Croatan Hwy Kitty Hawk, NC 27949-9208", "City": "Kitty Hawk", "State": "NC", "Zip": "27949-9208", "AddressLine1": "3704 N Croatan Hwy", "AddressLine2": "", "Distance": 9.0, "Latitude": 36.05901, "Longitude": -75.68933}, {"Sequence": 5, "PersonId": 144364, "AddressId": 1484869, "Specialty": "Endodontics", "Photo": "findadentist.ada.org/Images/Profile/ADA.png", "Name": "Dr. Thomas M Buttke", "Email": "", "Phone": "(252) 480-6646", "Address": "2522 S Croatan Hwy Ste 1C Nags Head, NC 27959-8993", "City": "Nags Head", "State": "NC", "Zip": "27959-8993", "AddressLine1": "2522 S Croatan Hwy Ste 1C", "AddressLine2": "", "Distance": 14.4, "Latitude": 35.9839, "Longitude": -75.64484}, {"Sequence": 6, "PersonId": 143849, "AddressId": 3573149, "Specialty": "General Practice", "Photo": "findadentist.ada.org/Images/Profile/ADA.png", "Name": "Dr. J. Trahey Maner", "Email": "", "Phone": "(252) 441-1006", "Address": "2518 S Croatan Hwy Nags Head, NC 27959-8994", "City": "Nags Head", "State": "NC", "Zip": "27959-8994", "AddressLine1": "2518 S Croatan Hwy", "AddressLine2": "Ste C", "Distance": 14.4, "Latitude": 35.98436, "Longitude": -75.64486}]