[{"Sequence": 1, "PersonId": 77195, "AddressId": 3397644, "Specialty": "General Practice", "Photo": "findadentist.ada.org/Images/Profile/77195-Dr-Jason-Klevansky.png", "Name": "Dr Jason Klevansky", "Email": "", "Phone": "(770) 921-1115", "Address": "3455 Lawrenceville Hwy Lawrenceville, GA 30044-4101", "City": "Lawrenceville", "State": "GA", "Zip": "30044-4101", "AddressLine1": "3455 Lawrenceville Hwy", "AddressLine2": "", "Distance": 2.0, "Latitude": 33.91544, "Longitude": -84.09762}, {"Sequence": 2, "PersonId": 379208, "AddressId": 3377154, "Specialty": "General Practice", "Photo": "findadentist.ada.org/Images/Profile/379208-Dr-Sangeetha-Asokan.png", "Name": "Dr. Sangeetha Asokan", "Email": "info@peachsmiles.com", "Phone": "(770) 609-6620", "Address": "4825 SUGARLOAF PARKWAY LAWRENCEVILLE, GA 30044", "City": "LAWRENCEVILLE", "State": "GA", "Zip": "30044", "AddressLine1": "4825 SUGARLOAF PARKWAY", "AddressLine2": "SUITE A", "Distance": 5.1, "Latitude": 33.8901, "Longitude": -84.14297}, {"Sequence": 3, "PersonId": 157332, "AddressId": 3392562, "Specialty": "General Practice", "Photo": "findadentist.ada.org/Images/Profile/157332-Dr-Tonique-Reynolds.png", "Name": "Dr. Tonique L Reynolds", "Email": "info@familysmilecenter.net", "Phone": "(770) 822-9500", "Address": "1846 Old Norcross Rd Ste 300 Lawrenceville, GA 30044-8801", "City": "Lawrenceville", "State": "GA", "Zip": "30044-8801", "AddressLine1": "1846 Old Norcross Rd Ste 300", "AddressLine2": "", "Distance": 1.5, "Latitude": 33.95238, "Longitude": -84.05804}, {"Sequence": 4, "PersonId": 308158, "AddressId": 1648663, "Specialty": "Orthodontics and Dentofacial Orthopedics", "Photo": "findadentist.ada.org/Images/Profile/308158-Dr-Daniel-Dunwody.png", "Name": "Dr Daniel D Dunwody, III", "Email": "", "Phone": "(770) 923-7111", "Address": "3675 Lawrenceville Hwy Lawrenceville, GA 30044-4107", "City": "Lawrenceville", "State": "GA", "Zip": "30044-4107", "AddressLine1": "3675 Lawrenceville Hwy", "AddressLine2": "", "Distance": 2.6, "Latitude": 33.90967, "Longitude": -84.10434}, {"Sequence": 5, "PersonId": 274227, "AddressId": 2808468, "Specialty": "General Practice", "Photo": "findadentist.ada.org/Images/Profile/274227-Dr-Steven-Glasser.png", "Name": "Dr. Steven D Glasser", "Email": "steven.glasser@greatexpression.com", "Phone": "(770) 995-6109", "Address": "4850 Sugarloaf Pkwy Ste 204 Lawrenceville, GA 30044-2861", "City": "Lawrenceville", "State": "GA", "Zip": "30044-2861", "AddressLine1": "4850 Sugarloaf Pkwy Ste 204", "AddressLine2": "", "Distance": 1.7, "Latitude": 33.95392, "Longitude": -84.05628}, {"Sequence": 6, "PersonId": 230348, "AddressId": 3328725, "Specialty": "General Practice", "Photo": "findadentist.ada.org/Images/Profile/230348-Dr-Praveen-Gudipati.png", "Name": "Dr. Praveen R Gudipati", "Email": "FRONTDESK@THEAFFORDABLE.COM", "Phone": "(770) 609-6620", "Address": "4825 Sugarloaf Parkway LAWRENCEVILLE, GA 30044", "City": "LAWRENCEVILLE", "State": "GA", "Zip": "30044", "AddressLine1": "4825 Sugarloaf Parkway", "AddressLine2": "Suite # A", "Distance": 1.8, "Latitude": 33.95499, "Longitude": -84.05214}, {"Sequence": 7, "PersonId": 157813, "AddressId": 1498318, "Specialty": "General Practice", "Photo": "findadentist.ada.org/Images/Profile/157813-Dr-Billy-Pealock.png", "Name": "Dr. Billy S Pealock", "Email": "appointments@bethesdawalkdentalcare.com", "Phone": "(770) 931-9996", "Address": "3059 Lawrenceville Hwy Ste D Lawrenceville, GA 30044-6426", "City": "Lawrenceville", "State": "GA", "Zip": "30044-6426", "AddressLine1": "3059 Lawrenceville Hwy Ste D", "AddressLine2": null, "Distance": 1.2, "Latitude": 33.92215, "Longitude": -84.08544}]