[{"Sequence": 1, "PersonId": 169897, "AddressId": 1510402, "Specialty": "Orthodontics and Dentofacial Orthopedics", "Photo": "findadentist.ada.org/Images/Profile/169897-Dr-Christy-Savage.png", "Name": "Dr. Christy A Savage", "Email": "trussville@bracesbygreatsmiles.com", "Phone": "(205) 655-3939", "Address": "125 N Chalkville Rd Trussville, AL 35173-1376", "City": "Trussville", "State": "AL", "Zip": "35173-1376", "AddressLine1": "125 N Chalkville Rd", "AddressLine2": "", "Distance": 12.8, "Latitude": 33.62226, "Longitude": -86.60933}, {"Sequence": 2, "PersonId": 272443, "AddressId": 1612948, "Specialty": "Orthodontics and Dentofacial Orthopedics", "Photo": "findadentist.ada.org/Images/Profile/272443-Dr-Cory-Edwards.png", "Name": "Dr. Cory B Edwards", "Email": "edwardsorthodontics@mac.com", "Phone": "(205) 981-9100", "Address": "1063 Narrows Way Ste B Birmingham, AL 35242-8682", "City": "Birmingham", "State": "AL", "Zip": "35242-8682", "AddressLine1": "1063 Narrows Way Ste B", "AddressLine2": "", "Distance": 14.2, "Latitude": 33.36964, "Longitude": -86.66542}, {"Sequence": 3, "PersonId": 148556, "AddressId": 2758600, "Specialty": "Pediatric Dentistry", "Photo": "findadentist.ada.org/Images/Profile/148556-Dr-Olga-Sanchez Hernandez.png", "Name": "Dr. Olga M Sanchez-Hernandez", "Email": "mccalla.orthodontics@yahoo.com", "Phone": "(205) 477-8004", "Address": "4814 Bell Hill Rd Bessemer, AL 35022-6948", "City": "Bessemer", "State": "AL", "Zip": "35022-6948", "AddressLine1": "4814 Bell Hill Rd", "AddressLine2": "", "Distance": 18.1, "Latitude": 33.32933, "Longitude": -86.99674}, {"Sequence": 4, "PersonId": 169795, "AddressId": 3387960, "Specialty": "General Practice", "Photo": "findadentist.ada.org/Images/Profile/169795-Dr-Marc-Moulton.png", "Name": "Dr. Marc Moulton", "Email": "info@moultondentistry.com", "Phone": "(205) 988-3360", "Address": "3821 Lorna Rd Hoover, AL 35244-3061", "City": "Hoover", "State": "AL", "Zip": "35244-3061", "AddressLine1": "3821 Lorna Rd", "AddressLine2": "Suite 106", "Distance": 11.4, "Latitude": 33.37266, "Longitude": -86.80732}, {"Sequence": 5, "PersonId": 169815, "AddressId": 1510320, "Specialty": "General Practice", "Photo": "findadentist.ada.org/Images/Profile/169815-Dr-Michael-Maniscalco.png", "Name": "Dr. Michael Maniscalco", "Email": "", "Phone": "(205) 967-9100", "Address": "3419 Colonnade Pkwy Ste 700 Birmingham, AL 35243-3319", "City": "Birmingham", "State": "AL", "Zip": "35243-3319", "AddressLine1": "3419 Colonnade Pkwy Ste 700", "AddressLine2": "", "Distance": 8.2, "Latitude": 33.43859, "Longitude": -86.72807}, {"Sequence": 6, "PersonId": 215614, "AddressId": 1556119, "Specialty": "General Practice", "Photo": "findadentist.ada.org/Images/Profile/215614-Dr-Melissa-Nix.png", "Name": "Dr. Melissa S Nix", "Email": "davisandnix@gmail.com", "Phone": "(205) 871-2592", "Address": "2828 Central Ave Birmingham, AL 35209-2504", "City": "Birmingham", "State": "AL", "Zip": "35209-2504", "AddressLine1": "2828 Central Ave", "AddressLine2": "", "Distance": 4.1, "Latitude": 33.47909, "Longitude": -86.79604}, {"Sequence": 7, "PersonId": 211214, "AddressId": 1551719, "Specialty": "General Practice", "Photo": "findadentist.ada.org/Images/Profile/211214-Dr-Matthew-Dunn.png", "Name": "Dr. Matthew C Dunn", "Email": "admin@crestlinedentistry.com", "Phone": "(205) 870-5700", "Address": "244 Country Club Park Mountain Brk, AL 35213-4200", "City": "Mountain Brk", "State": "AL", "Zip": "35213-4200", "AddressLine1": "244 Country Club Park", "AddressLine2": "", "Distance": 3.7, "Latitude": 33.50317, "Longitude": -86.75724}, {"Sequence": 8, "PersonId": 169874, "AddressId": 3374679, "Specialty": "Orthodontics and Dentofacial Orthopedics", "Photo": "findadentist.ada.org/Images/Profile/169874-Dr-Bertha-Dieguez-Marino.png", "Name": "Dr. Bertha M Dieguez-Marino", "Email": "", "Phone": "(205) 980-4744", "Address": "2072 Cahaba Crest Dr Birmingham, AL 35242-4417", "City": "Birmingham", "State": "AL", "Zip": "35242-4417", "AddressLine1": "2072 Cahaba Crest Dr", "AddressLine2": "", "Distance": 9.7, "Latitude": 33.40552, "Longitude": -86.75178}, {"Sequence": 9, "PersonId": 143226, "AddressId": 1483731, "Specialty": "Endodontics", "Photo": "findadentist.ada.org/Images/Profile/143226-Dr-Stephen-Thomas.png", "Name": "Dr. Stephen J Thomas", "Email": "", "Phone": "(205) 870-9441", "Address": "1771 Independence Ct Ste 3 Birmingham, AL 35216-1232", "City": "Birmingham", "State": "AL", "Zip": "35216-1232", "AddressLine1": "1771 Independence Ct Ste 3", "AddressLine2": "", "Distance": 5.5, "Latitude": 33.46134, "Longitude": -86.77915}, {"Sequence": 10, "PersonId": 198853, "AddressId": 1539358, "Specialty": "Pediatric Dentistry", "Photo": "findadentist.ada.org/Images/Profile/198853-Dr-Thomas-Willingham.png", "Name": "Dr. Thomas Willingham", "Email": "", "Phone": "(205) 655-1000", "Address": "123 N Chalkville Rd Ste 1 Trussville, AL 35173-1376", "City": "Trussville", "State": "AL", "Zip": "35173-1376", "AddressLine1": "123 N Chalkville Rd Ste 1", "AddressLine2": "", "Distance": 12.8, "Latitude": 33.62199, "Longitude": -86.60886}, {"Sequence": 11, "PersonId": 143269, "AddressId": 1483774, "Specialty": "Prosthodontics", "Photo": "findadentist.ada.org/Images/Profile/143269-Dr-Robert-Harradine.png", "Name": "Dr. Robert W Harradine", "Email": "", "Phone": null, "Address": "2121 14th Ave S Birmingham, AL 35205-3901", "City": "Birmingham", "State": "AL", "Zip": "35205-3901", "AddressLine1": "2121 14th Ave S", "AddressLine2": "", "Distance": 2.8, "Latitude": 33.4985, "Longitude": -86.79199}, {"Sequence": 12, "PersonId": 169885, "AddressId": 1510390, "Specialty": "General Practice", "Photo": "findadentist.ada.org/Images/Profile/169885-Dr-Stuart-Atkinson.png", "Name": "Dr. Stuart L Atkinson", "Email": "", "Phone": "(205) 989-5889", "Address": "2321 John Hawkins Pkwy Ste 221 Birmingham, AL 35244-3543", "City": "Birmingham", "State": "AL", "Zip": "35244-3543", "AddressLine1": "2321 John Hawkins Pkwy Ste 221", "AddressLine2": null, "Distance": 13.2, "Latitude": 33.35214, "Longitude": -86.86471}, {"Sequence": 13, "PersonId": 169832, "AddressId": 1510337, "Specialty": "General Practice", "Photo": "findadentist.ada.org/Images/Profile/169832-Dr-Randall-Palmore.png", "Name": "Dr. Randall G Palmore", "Email": "ranpaldmd@aol.com", "Phone": "(205) 681-0459", "Address": "6960 Highway 79 Pinson, AL 35126-2802", "City": "Pinson", "State": "AL", "Zip": "35126-2802", "AddressLine1": "6960 Highway 79", "AddressLine2": "", "Distance": 13.5, "Latitude": 33.70466, "Longitude": -86.68477}, {"Sequence": 14, "PersonId": 169862, "AddressId": 1510367, "Specialty": "General Practice", "Photo": "findadentist.ada.org/Images/Profile/169862-Dr-Allen-Kessler.png", "Name": "Dr. Allen W Kessler", "Email": "", "Phone": "(205) 780-7365", "Address": "316 Valley Rd Fairfield, AL 35064-2222", "City": "Fairfield", "State": "AL", "Zip": "35064-2222", "AddressLine1": "316 Valley Rd", "AddressLine2": "", "Distance": 7.1, "Latitude": 33.48806, "Longitude": -86.91501}, {"Sequence": 15, "PersonId": 169722, "AddressId": 1510227, "Specialty": "General Practice", "Photo": "findadentist.ada.org/Images/Profile/169722-Dr-Alan-Ferguson.png", "Name": "Dr. Alan L Ferguson", "Email": "", "Phone": "(205) 879-4969", "Address": "2925 Crescent Ave Birmingham, AL 35209-2521", "City": "Birmingham", "State": "AL", "Zip": "35209-2521", "AddressLine1": "2925 Crescent Ave", "AddressLine2": "", "Distance": 4.2, "Latitude": 33.47775, "Longitude": -86.7936}, {"Sequence": 16, "PersonId": 242218, "AddressId": 3563725, "Specialty": "Periodontics", "Photo": "findadentist.ada.org/Images/Profile/242218-Dr-Elizabeth-Kivus.png", "Name": "Dr. Elizabeth A Kivus", "Email": "info@steelcityinfo.com", "Phone": "(205) 823-3461", "Address": "1310 Alford Ave Ste 101 Birmingham, AL 35226-3100", "City": "Birmingham", "State": "AL", "Zip": "35226-3100", "AddressLine1": "1310 Alford Ave Ste 101", "AddressLine2": "", "Distance": 7.2, "Latitude": 33.4334, "Longitude": -86.82263}, {"Sequence": 17, "PersonId": 169828, "AddressId": 1510333, "Specialty": "Orthodontics and Dentofacial Orthopedics", "Photo": "findadentist.ada.org/Images/Profile/169828-Dr-Michael-Mc Carthy.png", "Name": "Dr. Michael F Mc Carthy", "Email": "", "Phone": "(205) 733-2022", "Address": "3825 Lorna Rd Ste 248 Birmingham, AL 35244-3005", "City": "Birmingham", "State": "AL", "Zip": "35244-3005", "AddressLine1": "3825 Lorna Rd Ste 248", "AddressLine2": "", "Distance": 11.4, "Latitude": 33.37213, "Longitude": -86.80797}, {"Sequence": 18, "PersonId": 169474, "AddressId": 2805630, "Specialty": "Oral and Maxillofacial Surgery", "Photo": "findadentist.ada.org/Images/Profile/169474-Dr-William-Buck.png", "Name": "Dr. William Buck, Jr.", "Email": "receptionist@buckoralsurgery.com", "Phone": "(205) 991-8500", "Address": "1 Buckton Rd Birmingham, AL 35242-4655", "City": "Birmingham", "State": "AL", "Zip": "35242-4655", "AddressLine1": "1 Buckton Rd", "AddressLine2": "", "Distance": 11.5, "Latitude": 33.38276, "Longitude": -86.73542}, {"Sequence": 19, "PersonId": 169872, "AddressId": 1510377, "Specialty": "General Practice", "Photo": "findadentist.ada.org/Images/Profile/169872-Dr-Robert-Mallory.png", "Name": "Dr. Robert T Mallory, Jr.", "Email": "info@mallorydental.com", "Phone": "(205) 664-8424", "Address": "100 Village Pl Helena, AL 35080-4029", "City": "Helena", "State": "AL", "Zip": "35080-4029", "AddressLine1": "100 Village Pl", "AddressLine2": "", "Distance": 18.2, "Latitude": 33.27526, "Longitude": -86.831}, {"Sequence": 20, "PersonId": 169723, "AddressId": 1510228, "Specialty": "General Practice", "Photo": "findadentist.ada.org/Images/Profile/169723-Dr-William-Findlay.png", "Name": "Dr. William D Findlay", "Email": "pitnerfamilydentistry@gmail.com", "Phone": "(205) 426-2644", "Address": "895 Memorial Dr Bessemer, AL 35022-6033", "City": "Bessemer", "State": "AL", "Zip": "35022-6033", "AddressLine1": "895 Memorial Dr", "AddressLine2": "", "Distance": 15.5, "Latitude": 33.37397, "Longitude": -86.99016}, {"Sequence": 21, "PersonId": 234111, "AddressId": 3514662, "Specialty": "General Practice", "Photo": "findadentist.ada.org/Images/Profile/234111-Dr-Haleigh-Blackwell.png", "Name": "Dr. Haleigh S Blackwell", "Email": "", "Phone": null, "Address": "3145 Green Valley Rd # 101 Vestavia, AL 35243-5256", "City": "Vestavia", "State": "AL", "Zip": "35243-5256", "AddressLine1": "3145 Green Valley Rd # 101", "AddressLine2": "", "Distance": 6.8, "Latitude": 33.45999, "Longitude": -86.73309}, {"Sequence": 22, "PersonId": 169910, "AddressId": 1510415, "Specialty": "Endodontics", "Photo": "findadentist.ada.org/Images/Profile/169910-Dr-William B-Looney.png", "Name": "Dr. William B Looney", "Email": "", "Phone": "(205) 661-6050", "Address": "4700 Misty Ridge Cir Birmingham, AL 35235-8665", "City": "Birmingham", "State": "AL", "Zip": "35235-8665", "AddressLine1": "4700 Misty Ridge Cir", "AddressLine2": "", "Distance": 13.0, "Latitude": 33.64214, "Longitude": -86.61865}, {"Sequence": 23, "PersonId": 169717, "AddressId": 3493865, "Specialty": "General Practice", "Photo": "findadentist.ada.org/Images/Profile/169717-Dr-Wilson-Wright.png", "Name": "Dr. Wilson Wright, Jr.", "Email": "drwwright524@gmail.com", "Phone": "(205) 836-4044", "Address": "524 Red Lane Rd Ste F Birmingham, AL 35215-8246", "City": "Birmingham", "State": "AL", "Zip": "35215-8246", "AddressLine1": "524 Red Lane Rd Ste F", "AddressLine2": "", "Distance": 7.2, "Latitude": 33.59141, "Longitude": -86.70097}, {"Sequence": 24, "PersonId": 169814, "AddressId": 1510319, "Specialty": "General Practice", "Photo": "findadentist.ada.org/Images/Profile/169814-Dr-Adolphus-Jackson.png", "Name": "Dr. Adolphus Jackson", "Email": "tooth859@bellsouth.net", "Phone": "(205) 788-2124", "Address": "859 Lomb Ave SW Birmingham, AL 35211-1257", "City": "Birmingham", "State": "AL", "Zip": "35211-1257", "AddressLine1": "859 Lomb Ave SW", "AddressLine2": "", "Distance": 3.6, "Latitude": 33.49982, "Longitude": -86.85118}, {"Sequence": 25, "PersonId": 143299, "AddressId": 2939709, "Specialty": "Orthodontics and Dentofacial Orthopedics", "Photo": "findadentist.ada.org/Images/Profile/143299-Dr-Priscila-Denny.png", "Name": "Dr. Priscila A Denny", "Email": "", "Phone": "(205) 682-7488", "Address": "4730 Highway 17 Helena, AL 35080-3570", "City": "Helena", "State": "AL", "Zip": "35080-3570", "AddressLine1": "4730 Highway 17", "AddressLine2": "Oak Mountain Orthodontics", "Distance": 16.8, "Latitude": 33.29622, "Longitude": -86.8436}, {"Sequence": 26, "PersonId": 169840, "AddressId": 2810384, "Specialty": "General Practice", "Photo": "findadentist.ada.org/Images/Profile/169840-Dr-Frank-Melazzo.png", "Name": "Dr. Frank Melazzo", "Email": "", "Phone": "(205) 991-5343", "Address": "4516 Valleydale Rd Birmingham, AL 35242-4635", "City": "Birmingham", "State": "AL", "Zip": "35242-4635", "AddressLine1": "4516 Valleydale Rd", "AddressLine2": "", "Distance": 11.3, "Latitude": 33.38476, "Longitude": -86.73713}, {"Sequence": 27, "PersonId": 143615, "AddressId": 3031927, "Specialty": "General Practice", "Photo": "findadentist.ada.org/Images/Profile/143615-Dr-Melanie-Spooner.png", "Name": "Dr. Melanie H Spooner", "Email": "", "Phone": "(205) 822-2808", "Address": "502 Montgomery Hwy Ste 201 Vestavia, AL 35216-1863", "City": "Vestavia", "State": "AL", "Zip": "35216-1863", "AddressLine1": "502 Montgomery Hwy Ste 201", "AddressLine2": "", "Distance": 6.1, "Latitude": 33.45109, "Longitude": -86.78866}, {"Sequence": 28, "PersonId": 232457, "AddressId": 2738275, "Specialty": "Pediatric Dentistry", "Photo": "findadentist.ada.org/Images/Profile/232457-Dr-William-Lovell.png", "Name": "Dr. William A Lovell, III", "Email": "info@lovellpediatricdentistry.com", "Phone": "(205) 957-6611", "Address": "1900 28th Ave. S. Homewood, AL 35209", "City": "Homewood", "State": "AL", "Zip": "35209", "AddressLine1": "1900 28th Ave. S.", "AddressLine2": "Suite 109", "Distance": 3.2, "Latitude": 33.53893, "Longitude": -86.75193}, {"Sequence": 29, "PersonId": 158988, "AddressId": 3173965, "Specialty": "Orthodontics and Dentofacial Orthopedics", "Photo": "findadentist.ada.org/Images/Profile/158988-Dr-Dominique-Backus.png", "Name": "Dr. Dominique V Backus", "Email": "drbackus@backusbraces.com", "Phone": "(205) 879-0557", "Address": "3507 Old Montgomery Hwy Birmingham, AL 35209-5751", "City": "Birmingham", "State": "AL", "Zip": "35209-5751", "AddressLine1": "3507 Old Montgomery Hwy", "AddressLine2": "", "Distance": 4.8, "Latitude": 33.47051, "Longitude": -86.78189}, {"Sequence": 30, "PersonId": 143729, "AddressId": 1484234, "Specialty": "Pediatric Dentistry", "Photo": "findadentist.ada.org/Images/Profile/143729-Dr-Amy-Parvin.png", "Name": "Dr. Amy Parvin", "Email": "info@AmyParvinDMD.com", "Phone": "(205) 631-2240", "Address": "132 Payne Rd Gardendale, AL 35071-2517", "City": "Gardendale", "State": "AL", "Zip": "35071-2517", "AddressLine1": "132 Payne Rd", "AddressLine2": "", "Distance": 8.3, "Latitude": 33.65762, "Longitude": -86.80966}, {"Sequence": 31, "PersonId": 143596, "AddressId": 3172861, "Specialty": "Orthodontics and Dentofacial Orthopedics", "Photo": "findadentist.ada.org/Images/Profile/143596-Dr-Mark-Todd.png", "Name": "Dr. Mark A Todd", "Email": "info@ptortho.com", "Phone": "(205) 979-9480", "Address": "2034 Patton Chapel Rd Birmingham, AL 35216-5770", "City": "Birmingham", "State": "AL", "Zip": "35216-5770", "AddressLine1": "2034 Patton Chapel Rd", "AddressLine2": "", "Distance": 9.9, "Latitude": 33.39343, "Longitude": -86.80473}, {"Sequence": 32, "PersonId": 169929, "AddressId": 1510434, "Specialty": "Periodontics", "Photo": "findadentist.ada.org/Images/Profile/169929-Dr-Andrew-Duckett.png", "Name": "Dr. Andrew R Duckett", "Email": "info@duckettdmd.com", "Phone": "(205) 933-5511", "Address": "1830 14Th Ave S Birmingham, AL 35205-4969", "City": "Birmingham", "State": "AL", "Zip": "35205-4969", "AddressLine1": "1830 14Th Ave S", "AddressLine2": "", "Distance": 2.9, "Latitude": 33.49647, "Longitude": -86.79663}, {"Sequence": 33, "PersonId": 169851, "AddressId": 1510356, "Specialty": "General Practice", "Photo": "findadentist.ada.org/Images/Profile/169851-Dr-Preston-Reynolds.png", "Name": "Dr. Preston L Reynolds", "Email": "drplreynolds@gmail.com", "Phone": "(205) 823-0723", "Address": "1235 Blue Ridge Blvd Ste 117 Birmingham, AL 35226-2541", "City": "Birmingham", "State": "AL", "Zip": "35226-2541", "AddressLine1": "1235 Blue Ridge Blvd Ste 117", "AddressLine2": "", "Distance": 7.7, "Latitude": 33.42714, "Longitude": -86.82231}, {"Sequence": 34, "PersonId": 143690, "AddressId": 2811573, "Specialty": "General Practice", "Photo": "findadentist.ada.org/Images/Profile/143690-Dr-T-Maddox.png", "Name": "Dr. T B Maddox", "Email": "", "Phone": "(205) 647-1134", "Address": "205 Caldwell Dr Warrior, AL 35180-1407", "City": "Warrior", "State": "AL", "Zip": "35180-1407", "AddressLine1": "205 Caldwell Dr", "AddressLine2": "", "Distance": 19.0, "Latitude": 33.81173, "Longitude": -86.80852}, {"Sequence": 35, "PersonId": 169859, "AddressId": 3297557, "Specialty": "Orthodontics and Dentofacial Orthopedics", "Photo": "findadentist.ada.org/Images/Profile/169859-Dr-John-Phillips.png", "Name": "Dr. John R Phillips, III", "Email": "", "Phone": "(205) 979-9480", "Address": "2034 Patton Chapel Rd Birmingham, AL 35216-5770", "City": "Birmingham", "State": "AL", "Zip": "35216-5770", "AddressLine1": "2034 Patton Chapel Rd", "AddressLine2": "", "Distance": 9.9, "Latitude": 33.39343, "Longitude": -86.80473}, {"Sequence": 36, "PersonId": 169930, "AddressId": 1510435, "Specialty": "Periodontics", "Photo": "findadentist.ada.org/Images/Profile/169930-Dr-Kevin-Sims.png", "Name": "Dr. Kevin M Sims", "Email": "kmsimsdmd@gmail.com", "Phone": "(205) 982-7105", "Address": "2074 Valleydale Rd Birmingham, AL 35244-2084", "City": "Birmingham", "State": "AL", "Zip": "35244-2084", "AddressLine1": "2074 Valleydale Rd", "AddressLine2": "", "Distance": 12.9, "Latitude": 33.35125, "Longitude": -86.78419}, {"Sequence": 37, "PersonId": 272434, "AddressId": 1612939, "Specialty": "General Practice", "Photo": "findadentist.ada.org/Images/Profile/272434-Dr-David-Brewer.png", "Name": "Dr. David M Brewer", "Email": "domfd@bellsouth.net", "Phone": "(256) 315-4940", "Address": "254 Inverness Center Dr Ste 100 Birmingham, AL 35242-4834", "City": "Birmingham", "State": "AL", "Zip": "35242-4834", "AddressLine1": "254 Inverness Center Dr Ste 100", "AddressLine2": "", "Distance": 10.4, "Latitude": 33.41511, "Longitude": -86.70093}, {"Sequence": 38, "PersonId": 261629, "AddressId": 3580972, "Specialty": "General Practice", "Photo": "findadentist.ada.org/Images/Profile/261629-Dr-Rachel-Tucker.png", "Name": "Dr. Rachel E Tucker", "Email": "", "Phone": "(205) 582-8570", "Address": "1598 Montgomery Hwy Hoover, AL 35216", "City": "Hoover", "State": "AL", "Zip": "35216", "AddressLine1": "1598 Montgomery Hwy", "AddressLine2": "", "Distance": 9.4, "Latitude": 33.40123, "Longitude": -86.80662}, {"Sequence": 39, "PersonId": 143406, "AddressId": 1483911, "Specialty": "General Practice", "Photo": "findadentist.ada.org/Images/Profile/143406-Dr-Thomas-Walker.png", "Name": "Dr. Thomas G Walker", "Email": "thomaswalkerdmd@gmail.com", "Phone": "(205) 655-8977", "Address": "123 N Chalkville Rd # 2 Trussville, AL 35173-1376", "City": "Trussville", "State": "AL", "Zip": "35173-1376", "AddressLine1": "123 N Chalkville Rd # 2", "AddressLine2": null, "Distance": 12.8, "Latitude": 33.62199, "Longitude": -86.60886}, {"Sequence": 40, "PersonId": 240372, "AddressId": 2910840, "Specialty": "Periodontics", "Photo": "findadentist.ada.org/Images/Profile/240372-Dr-Christopher-Peterson.png", "Name": "Dr. Christopher J Peterson", "Email": "petersonandabe@gmail.com", "Phone": "(619) 298-2322", "Address": "4076 3rd Ave San Diego, CA 92103", "City": "San Diego", "State": "CA", "Zip": "92103", "AddressLine1": "4076 3rd Ave", "AddressLine2": "Suite 201", "Distance": 3.4, "Latitude": 33.53483, "Longitude": -86.74731}, {"Sequence": 41, "PersonId": 143567, "AddressId": 1484072, "Specialty": "Endodontics", "Photo": "findadentist.ada.org/Images/Profile/143567-Dr-John-Collier.png", "Name": "Dr. John M Collier", "Email": "", "Phone": "(205) 870-9441", "Address": "1771 Independence Ct Ste 3 Birmingham, AL 35216-1232", "City": "Birmingham", "State": "AL", "Zip": "35216-1232", "AddressLine1": "1771 Independence Ct Ste 3", "AddressLine2": "", "Distance": 5.5, "Latitude": 33.46134, "Longitude": -86.77915}, {"Sequence": 42, "PersonId": 162789, "AddressId": 3319882, "Specialty": "Oral and Maxillofacial Surgery", "Photo": "findadentist.ada.org/Images/Profile/162789-Dr-Jon-Holmes.png", "Name": "Dr. Jon D Holmes", "Email": "", "Phone": "(205) 933-2773", "Address": "1500 19th St S Ste 200 Birmingham, AL 35205-5628", "City": "Birmingham", "State": "AL", "Zip": "35205-5628", "AddressLine1": "1500 19th St S Ste 200", "AddressLine2": "", "Distance": 2.9, "Latitude": 33.49603, "Longitude": -86.7954}, {"Sequence": 43, "PersonId": 169903, "AddressId": 1510408, "Specialty": "General Practice", "Photo": "findadentist.ada.org/Images/Profile/169903-Dr-Jennifer-Davis.png", "Name": "Dr. Jennifer D Davis", "Email": "", "Phone": "(205) 871-2592", "Address": "2828 Central Ave Birmingham, AL 35209-2504", "City": "Birmingham", "State": "AL", "Zip": "35209-2504", "AddressLine1": "2828 Central Ave", "AddressLine2": "", "Distance": 4.1, "Latitude": 33.47909, "Longitude": -86.79604}, {"Sequence": 44, "PersonId": 143633, "AddressId": 1484138, "Specialty": "General Practice", "Photo": "findadentist.ada.org/Images/Profile/143633-Dr-Linda-Jones.png", "Name": "Dr. Michelle Jones Seidenfaden", "Email": "", "Phone": "(205) 678-2096", "Address": "300 Jade Park Ste 302 Chelsea, AL 35043-8349", "City": "Chelsea", "State": "AL", "Zip": "35043-8349", "AddressLine1": "300 Jade Park Ste 302", "AddressLine2": "", "Distance": 17.0, "Latitude": 33.34011, "Longitude": -86.63026}, {"Sequence": 45, "PersonId": 132865, "AddressId": 1473370, "Specialty": "General Practice", "Photo": "findadentist.ada.org/Images/Profile/132865-Dr-Binh-Ngo.png", "Name": "Dr. Binh T Ngo", "Email": "thecrossingsdental@yahoo.com", "Phone": "(205) 987-8997", "Address": "2318 John Hawkins Pkwy Birmingham, AL 35244-3515", "City": "Birmingham", "State": "AL", "Zip": "35244-3515", "AddressLine1": "2318 John Hawkins Pkwy", "AddressLine2": "", "Distance": 13.4, "Latitude": 33.35023, "Longitude": -86.86597}, {"Sequence": 46, "PersonId": 143604, "AddressId": 1484109, "Specialty": "Orthodontics and Dentofacial Orthopedics", "Photo": "findadentist.ada.org/Images/Profile/143604-Dr-Jeffrey-Backus.png", "Name": "Dr. Jeffrey D Backus", "Email": "frontdesk@backusorthodontics.com", "Phone": "(205) 987-0040", "Address": "425 Emery Dr Ste A Hoover, AL 35244-4567", "City": "Hoover", "State": "AL", "Zip": "35244-4567", "AddressLine1": "425 Emery Dr Ste A", "AddressLine2": "", "Distance": 13.0, "Latitude": 33.35209, "Longitude": -86.8441}, {"Sequence": 47, "PersonId": 234093, "AddressId": 3174001, "Specialty": "General Practice", "Photo": "findadentist.ada.org/Images/Profile/234093-Dr-Michelle-Davis.png", "Name": "Dr. Michelle K Davis", "Email": "info@michelledavisdental.com", "Phone": "(205) 699-8583", "Address": "7800 Parkway Dr Leeds, AL 35094", "City": "Leeds", "State": "AL", "Zip": "35094", "AddressLine1": "7800 Parkway Dr", "AddressLine2": "", "Distance": 15.1, "Latitude": 33.54559, "Longitude": -86.54573}, {"Sequence": 48, "PersonId": 143670, "AddressId": 1484175, "Specialty": "General Practice", "Photo": "findadentist.ada.org/Images/Profile/143670-Dr-Stacey-Defranco.png", "Name": "Dr. Stacey L Defranco", "Email": "", "Phone": "(205) 621-3100", "Address": "1001 Ashley Brook Ln Helena, AL 35080-3344", "City": "Helena", "State": "AL", "Zip": "35080-3344", "AddressLine1": "1001 Ashley Brook Ln", "AddressLine2": "", "Distance": 18.3, "Latitude": 33.27566, "Longitude": -86.85219}, {"Sequence": 49, "PersonId": 220502, "AddressId": 1561007, "Specialty": "General Practice", "Photo": "findadentist.ada.org/Images/Profile/220502-Dr-Lora-Gaxiola.png", "Name": "Dr. Lora P Gaxiola", "Email": "narrowsfamilydentistry@gmail.com", "Phone": "(205) 981-2994", "Address": "194 Narrows Dr Ste 105 Birmingham, AL 35242-8668", "City": "Birmingham", "State": "AL", "Zip": "35242-8668", "AddressLine1": "194 Narrows Dr Ste 105", "AddressLine2": "Suite 105", "Distance": 14.2, "Latitude": 33.36705, "Longitude": -86.66862}, {"Sequence": 50, "PersonId": 272468, "AddressId": 1612973, "Specialty": "General Practice", "Photo": "findadentist.ada.org/Images/Profile/272468-Dr-Lucas-Perrigo.png", "Name": "Dr. Lucas B Perrigo", "Email": "mhooverdentist@gmail.com", "Phone": "(205) 822-7822", "Address": "2038 Patton Chapel Rd Birmingham, AL 35216-5770", "City": "Birmingham", "State": "AL", "Zip": "35216-5770", "AddressLine1": "2038 Patton Chapel Rd", "AddressLine2": "", "Distance": 9.9, "Latitude": 33.39475, "Longitude": -86.8024}, {"Sequence": 51, "PersonId": 208842, "AddressId": 2930614, "Specialty": "General Practice", "Photo": "findadentist.ada.org/Images/Profile/208842-Dr-Adam-Graham.png", "Name": "Dr. Adam B Graham", "Email": "", "Phone": "(205) 647-3181", "Address": "205 Caldwell Dr Warrior, AL 35180-1407", "City": "Warrior", "State": "AL", "Zip": "35180-1407", "AddressLine1": "205 Caldwell Dr", "AddressLine2": "", "Distance": 19.0, "Latitude": 33.81195, "Longitude": -86.80841}, {"Sequence": 52, "PersonId": 169805, "AddressId": 2782689, "Specialty": "General Practice", "Photo": "findadentist.ada.org/Images/Profile/169805-Dr-Bruce-Spink.png", "Name": "Dr. Bruce T Spink", "Email": "", "Phone": "(205) 967-8555", "Address": "4005 Crosshaven Dr Birmingham, AL 35243-5229", "City": "Birmingham", "State": "AL", "Zip": "35243-5229", "AddressLine1": "4005 Crosshaven Dr", "AddressLine2": "", "Distance": 6.9, "Latitude": 33.4598, "Longitude": -86.73078}, {"Sequence": 53, "PersonId": 169801, "AddressId": 3065104, "Specialty": "General Practice", "Photo": "findadentist.ada.org/Images/Profile/169801-Dr-Phillip-Huggins.png", "Name": "Dr. Phillip Huggins", "Email": "drhugginsoffice@att.net", "Phone": "(205) 951-2191", "Address": "4616 Montevallo Rd Ste 100 Irondale, AL 35210-3104", "City": "Irondale", "State": "AL", "Zip": "35210-3104", "AddressLine1": "4616 Montevallo Rd Ste 100", "AddressLine2": "", "Distance": 4.9, "Latitude": 33.52377, "Longitude": -86.72305}, {"Sequence": 54, "PersonId": 169931, "AddressId": 1510436, "Specialty": "General Practice", "Photo": "findadentist.ada.org/Images/Profile/169931-Dr-Thomas-Cosgrove.png", "Name": "Dr. Thomas P Cosgrove", "Email": "bhamdentistdmd@gmail.com", "Phone": "(205) 967-4080", "Address": "3159 Green Valley Road Birmingham, AL 35243-5262", "City": "Birmingham", "State": "AL", "Zip": "35243-5262", "AddressLine1": "3159 Green Valley Road", "AddressLine2": "", "Distance": 6.9, "Latitude": 33.45962, "Longitude": -86.73248}, {"Sequence": 55, "PersonId": 193528, "AddressId": 3490290, "Specialty": "Oral and Maxillofacial Pathology", "Photo": "findadentist.ada.org/Images/Profile/193528-Dr-Lisa-Miller.png", "Name": "Dr. Lisa L Miller", "Email": "info@lisamillerofs.com", "Phone": "(205) 789-5075", "Address": "1 Inverness Center Pkwy Ste 200 Birmingham, AL 35242-4865", "City": "Birmingham", "State": "AL", "Zip": "35242-4865", "AddressLine1": "1 Inverness Center Pkwy Ste 200", "AddressLine2": "", "Distance": 9.9, "Latitude": 33.42355, "Longitude": -86.70281}, {"Sequence": 56, "PersonId": 220506, "AddressId": 1561011, "Specialty": "Pediatric Dentistry", "Photo": "findadentist.ada.org/Images/Profile/220506-Dr-Austin-Powell.png", "Name": "Dr. Austin C Powell", "Email": "", "Phone": "(205) 538-3335", "Address": "1628 29th Ct S Homewood, AL 35209-2417", "City": "Homewood", "State": "AL", "Zip": "35209-2417", "AddressLine1": "1628 29th Ct S", "AddressLine2": "Suite 200", "Distance": 4.2, "Latitude": 33.47788, "Longitude": -86.79523}, {"Sequence": 57, "PersonId": 255074, "AddressId": 3305723, "Specialty": "General Practice", "Photo": "findadentist.ada.org/Images/Profile/255074-Dr-Andrew-Seale.png", "Name": "Dr. Andrew J Seale", "Email": "andrew@sealefamilydental.com", "Phone": "(205) 699-2731", "Address": "1209 6th Street Leeds, AL 35094", "City": "Leeds", "State": "AL", "Zip": "35094", "AddressLine1": "1209 6th Street", "AddressLine2": "", "Distance": 15.1, "Latitude": 33.54523, "Longitude": -86.54406}, {"Sequence": 58, "PersonId": 169737, "AddressId": 3518778, "Specialty": "Oral and Maxillofacial Surgery", "Photo": "findadentist.ada.org/Images/Profile/169737-Dr-Dennis-Clark.png", "Name": "Dr. Mark Clark", "Email": "", "Phone": "(205) 933-2773", "Address": "1500 19th St S Ste 200 Birmingham, AL 35205-5628", "City": "Birmingham", "State": "AL", "Zip": "35205-5628", "AddressLine1": "1500 19th St S Ste 200", "AddressLine2": "", "Distance": 2.9, "Latitude": 33.49603, "Longitude": -86.79538}, {"Sequence": 59, "PersonId": 169879, "AddressId": 1510384, "Specialty": "General Practice", "Photo": "findadentist.ada.org/Images/Profile/169879-Dr-Kevin-Alexander.png", "Name": "Dr. Kevin J Alexander", "Email": "kalexanderdmd@gmail.com", "Phone": "(205) 871-7361", "Address": "48 Church St Mountain Brook, AL 35213-3702", "City": "Mountain Brook", "State": "AL", "Zip": "35213-3702", "AddressLine1": "48 Church St", "AddressLine2": "", "Distance": 3.9, "Latitude": 33.50165, "Longitude": -86.75543}, {"Sequence": 60, "PersonId": 284722, "AddressId": 1625227, "Specialty": "Orthodontics and Dentofacial Orthopedics", "Photo": "findadentist.ada.org/Images/Profile/284722-Dr-Carl-Walker.png", "Name": "Dr Carl K Walker", "Email": "", "Phone": "(205) 823-1583", "Address": "521 Montgomery Hwy Birmingham, AL 35216-1878", "City": "Birmingham", "State": "AL", "Zip": "35216-1878", "AddressLine1": "521 Montgomery Hwy", "AddressLine2": null, "Distance": 6.2, "Latitude": 33.44956, "Longitude": -86.78809}, {"Sequence": 61, "PersonId": 169921, "AddressId": 1510426, "Specialty": "General Practice", "Photo": "findadentist.ada.org/Images/Profile/169921-Dr-G-Pruitt.png", "Name": "Dr. G R Pruitt, Jr", "Email": "", "Phone": "(205) 823-3223", "Address": "2816 Columbiana Rd Birmingham, AL 35216-2518", "City": "Birmingham", "State": "AL", "Zip": "35216-2518", "AddressLine1": "2816 Columbiana Rd", "AddressLine2": "", "Distance": 7.9, "Latitude": 33.42253, "Longitude": -86.80841}, {"Sequence": 62, "PersonId": 340432, "AddressId": 3487997, "Specialty": "General Practice", "Photo": "findadentist.ada.org/Images/Profile/340432-Dr-Gerald-Grovenstein.png", "Name": "Dr Gerald D Grovenstein, Jr.", "Email": "deerfootdentalalabama@gmail.com", "Phone": "(205) 680-1120", "Address": "6727 Deerfoot Pkwy Pinson, AL 35126", "City": "Pinson", "State": "AL", "Zip": "35126", "AddressLine1": "6727 Deerfoot Pkwy", "AddressLine2": "", "Distance": 10.6, "Latitude": 33.39489, "Longitude": -86.874}, {"Sequence": 63, "PersonId": 249518, "AddressId": 3006522, "Specialty": "Orthodontics and Dentofacial Orthopedics", "Photo": "findadentist.ada.org/Images/Profile/249518-Dr-Eve-Bilbo.png", "Name": "Dr. Eve E Bilbo", "Email": "", "Phone": "(205) 979-9480", "Address": "2034 Patton Chapel Rd Hoover, AL 35216-5770", "City": "Hoover", "State": "AL", "Zip": "35216-5770", "AddressLine1": "2034 Patton Chapel Rd", "AddressLine2": "", "Distance": 9.9, "Latitude": 33.39471, "Longitude": -86.80284}, {"Sequence": 64, "PersonId": 169495, "AddressId": 3295596, "Specialty": "Orthodontics and Dentofacial Orthopedics", "Photo": "findadentist.ada.org/Images/Profile/169495-Dr-W Gregory-Rape.png", "Name": "Dr. W Gregory Rape", "Email": "", "Phone": "(205) 680-4475", "Address": "4 22nd Ave NW Birmingham, AL 35215-3412", "City": "Birmingham", "State": "AL", "Zip": "35215-3412", "AddressLine1": "4 22nd Ave NW", "AddressLine2": "", "Distance": 10.1, "Latitude": 33.64226, "Longitude": -86.6841}, {"Sequence": 65, "PersonId": 169883, "AddressId": 3401525, "Specialty": "General Practice", "Photo": "findadentist.ada.org/Images/Profile/169883-Dr-Paul-Petznick.png", "Name": "Dr. Paul G Petznick", "Email": "drpaul@petznickdental.com", "Phone": "(205) 326-7444", "Address": "2045 Brookwood Medical Ctr Dr Ste 6 Homewood, AL 35209-6809", "City": "Homewood", "State": "AL", "Zip": "35209-6809", "AddressLine1": "2045 Brookwood Medical Ctr Dr Ste 6", "AddressLine2": "", "Distance": 5.4, "Latitude": 33.46458, "Longitude": -86.77157}, {"Sequence": 66, "PersonId": 143541, "AddressId": 1484046, "Specialty": "Orthodontics and Dentofacial Orthopedics", "Photo": "findadentist.ada.org/Images/Profile/143541-Dr-Deborah-Sema.png", "Name": "Dr. Deborah A Sema", "Email": "", "Phone": "(205) 942-2270", "Address": "415 W Oxmoor Rd Birmingham, AL 35209-6320", "City": "Birmingham", "State": "AL", "Zip": "35209-6320", "AddressLine1": "415 W Oxmoor Rd", "AddressLine2": "", "Distance": 7.3, "Latitude": 33.43566, "Longitude": -86.84339}, {"Sequence": 67, "PersonId": 193037, "AddressId": 3401817, "Specialty": "Endodontics", "Photo": "findadentist.ada.org/Images/Profile/193037-Dr-Trevor-Kaple.png", "Name": "Dr. Trevor M Kaple", "Email": "office@apex-endodontics.com", "Phone": "(205) 383-4114", "Address": "1932 Laurel Rd Ste 2C Vestavia Hills, AL 35216-1945", "City": "Vestavia Hills", "State": "AL", "Zip": "35216-1945", "AddressLine1": "1932 Laurel Rd Ste 2C", "AddressLine2": "", "Distance": 6.1, "Latitude": 33.45009, "Longitude": -86.79088}, {"Sequence": 68, "PersonId": 220469, "AddressId": 2755145, "Specialty": "General Practice", "Photo": "findadentist.ada.org/Images/Profile/220469-Dr-Michael-Adkins.png", "Name": "Dr. Michael D Adkins, Jr.", "Email": "", "Phone": "(205) 655-4300", "Address": "2301 Moody Pkwy Ste 9 Moody, AL 35004-3015", "City": "Moody", "State": "AL", "Zip": "35004-3015", "AddressLine1": "2301 Moody Pkwy Ste 9", "AddressLine2": "", "Distance": 16.9, "Latitude": 33.57612, "Longitude": -86.51658}, {"Sequence": 69, "PersonId": 143250, "AddressId": 1483755, "Specialty": "General Practice", "Photo": "findadentist.ada.org/Images/Profile/143250-Dr-Meredith-Rohling.png", "Name": "Dr. Meredith T Rohling", "Email": "", "Phone": "(205) 508-3403", "Address": "4701 Misty Ridge Cir Birmingham, AL 35235-8688", "City": "Birmingham", "State": "AL", "Zip": "35235-8688", "AddressLine1": "4701 Misty Ridge Cir", "AddressLine2": "", "Distance": 13.0, "Latitude": 33.64211, "Longitude": -86.61838}, {"Sequence": 70, "PersonId": 143662, "AddressId": 1484167, "Specialty": "General Practice", "Photo": "findadentist.ada.org/Images/Profile/143662-Dr-Jing-Li.png", "Name": "Dr. Jing Li", "Email": "", "Phone": "(205) 533-3735", "Address": "211 Main St N Warrior, AL 35180-1346", "City": "Warrior", "State": "AL", "Zip": "35180-1346", "AddressLine1": "211 Main St N", "AddressLine2": "", "Distance": 19.1, "Latitude": 33.81437, "Longitude": -86.80837}, {"Sequence": 71, "PersonId": 169768, "AddressId": 1510273, "Specialty": "General Practice", "Photo": "findadentist.ada.org/Images/Profile/169768-Dr-Larry-Deep.png", "Name": "Dr. Larry G Deep", "Email": "", "Phone": "(205) 988-5656", "Address": "4501 Southlake Pkwy Ste 100 Hoover, AL 35244-3646", "City": "Hoover", "State": "AL", "Zip": "35244-3646", "AddressLine1": "4501 Southlake Pkwy Ste 100", "AddressLine2": "", "Distance": 12.4, "Latitude": 33.35957, "Longitude": -86.77265}, {"Sequence": 72, "PersonId": 169702, "AddressId": 1510207, "Specialty": "General Practice", "Photo": "findadentist.ada.org/Images/Profile/169702-Dr-Westcott-Samford.png", "Name": "Dr. Westcott B Samford", "Email": "danielle@mountainbrooksmiles.com", "Phone": "(205) 423-9140", "Address": "120 Office Park Drive Ste 240 Birmingham, AL 35223-3407", "City": "Birmingham", "State": "AL", "Zip": "35223-3407", "AddressLine1": "120 Office Park Drive Ste 240", "AddressLine2": "", "Distance": 4.5, "Latitude": 33.47722, "Longitude": -86.77491}, {"Sequence": 73, "PersonId": 276013, "AddressId": 1616518, "Specialty": "General Practice", "Photo": "findadentist.ada.org/Images/Profile/276013-Dr-Robert-Sanderson.png", "Name": "Dr Robert E Sanderson", "Email": "", "Phone": null, "Address": "2112 Lynngate Dr Birmingham, AL 35216-5244", "City": "Birmingham", "State": "AL", "Zip": "35216-5244", "AddressLine1": "2112 Lynngate Dr", "AddressLine2": "", "Distance": 9.8, "Latitude": 33.39587, "Longitude": -86.79453}, {"Sequence": 74, "PersonId": 169748, "AddressId": 1510253, "Specialty": "General Practice", "Photo": "findadentist.ada.org/Images/Profile/169748-Dr-David-Winchester.png", "Name": "Dr. David Winchester", "Email": "winchesterdmd@gmail.com", "Phone": "(205) 854-7448", "Address": "2500 Center Point Pkwy Ste 100 Birmingham, AL 35215-2551", "City": "Birmingham", "State": "AL", "Zip": "35215-2551", "AddressLine1": "2500 Center Point Pkwy Ste 100", "AddressLine2": "", "Distance": 10.6, "Latitude": 33.65138, "Longitude": -86.68361}, {"Sequence": 75, "PersonId": 169949, "AddressId": 1510454, "Specialty": "Oral and Maxillofacial Surgery", "Photo": "findadentist.ada.org/Images/Profile/169949-Dr-Christopher-Kahn.png", "Name": "Dr. Christopher S Kahn", "Email": "", "Phone": "(205) 933-2880", "Address": "2036 Patton Chapel Rd Birmingham, AL 35216-5770", "City": "Birmingham", "State": "AL", "Zip": "35216-5770", "AddressLine1": "2036 Patton Chapel Rd", "AddressLine2": "", "Distance": 9.8, "Latitude": 33.39516, "Longitude": -86.80277}, {"Sequence": 76, "PersonId": 198822, "AddressId": 3548455, "Specialty": "General Practice", "Photo": "findadentist.ada.org/Images/Profile/198822-Dr-Amy-Hartsfield.png", "Name": "Dr. Amy G Hartsfield", "Email": "info@tmjandsleepsolutions.com", "Phone": "(205) 874-9699", "Address": "1045 Broadway Street, #109 Birmingham, AL 35209", "City": "Birmingham", "State": "AL", "Zip": "35209", "AddressLine1": "1045 Broadway Street, #109", "AddressLine2": "", "Distance": 5.6, "Latitude": 33.456, "Longitude": -86.8129}, {"Sequence": 77, "PersonId": 197996, "AddressId": 1538501, "Specialty": "Periodontics", "Photo": "findadentist.ada.org/Images/Profile/197996-Dr-Matthew-Litz.png", "Name": "Dr. Matthew D Litz", "Email": "litzperio@gmail.com", "Phone": "(205) 822-3222", "Address": "400 Century Park S Ste 200 Birmingham, AL 35226-3925", "City": "Birmingham", "State": "AL", "Zip": "35226-3925", "AddressLine1": "400 Century Park S Ste 200", "AddressLine2": "", "Distance": 8.4, "Latitude": 33.41573, "Longitude": -86.81033}, {"Sequence": 78, "PersonId": 201944, "AddressId": 1542449, "Specialty": "General Practice", "Photo": "findadentist.ada.org/Images/Profile/201944-Dr-Casey-Bloom.png", "Name": "Dr. Casey M Bloom", "Email": "info@bloomfamilysmiles.com", "Phone": "(205) 285-8298", "Address": "925 Sharit Ave Ste 113 Gardendale, AL 35071-5001", "City": "Gardendale", "State": "AL", "Zip": "35071-5001", "AddressLine1": "925 Sharit Ave Ste 113", "AddressLine2": "", "Distance": 7.8, "Latitude": 33.64941, "Longitude": -86.81453}, {"Sequence": 79, "PersonId": 143285, "AddressId": 1483790, "Specialty": "General Practice", "Photo": "findadentist.ada.org/Images/Profile/143285-Dr-Todd-Howell.png", "Name": "Dr. Todd B Howell", "Email": "chacelakefamilydentistry@gmail.com", "Phone": "(205) 989-0090", "Address": "1871 Chace Dr Birmingham, AL 35244-3706", "City": "Birmingham", "State": "AL", "Zip": "35244-3706", "AddressLine1": "1871 Chace Dr", "AddressLine2": "", "Distance": 11.6, "Latitude": 33.36942, "Longitude": -86.80107}, {"Sequence": 80, "PersonId": 255085, "AddressId": 3153444, "Specialty": "Orthodontics and Dentofacial Orthopedics", "Photo": "findadentist.ada.org/Images/Profile/255085-Dr-Paige-Whitt.png", "Name": "Dr. Paige D Whitt", "Email": "", "Phone": "(205) 979-9480", "Address": "2034 Patton Chapel Rd Hoover, AL 35216-5770", "City": "Hoover", "State": "AL", "Zip": "35216-5770", "AddressLine1": "2034 Patton Chapel Rd", "AddressLine2": "", "Distance": 9.9, "Latitude": 33.39471, "Longitude": -86.80284}, {"Sequence": 81, "PersonId": 253909, "AddressId": 2978212, "Specialty": "General Practice", "Photo": "findadentist.ada.org/Images/Profile/253909-Dr-Leslie-Frese.png", "Name": "Dr. Leslie A Frese", "Email": "officemanager@hartsfielddental.com", "Phone": "(205) 798-1780", "Address": "220 Walker Road Birmingham, AL 35214", "City": "Birmingham", "State": "AL", "Zip": "35214", "AddressLine1": "220 Walker Road", "AddressLine2": "", "Distance": 5.5, "Latitude": 33.56677, "Longitude": -86.89606}, {"Sequence": 82, "PersonId": 169494, "AddressId": 1509999, "Specialty": "Pediatric Dentistry", "Photo": "findadentist.ada.org/Images/Profile/169494-Dr-Noel-Childers.png", "Name": "Dr. Noel K Childers", "Email": "", "Phone": "(205) 934-3230", "Address": "1530 3rd Ave S Rm 304 Birmingham, AL 35294-0002", "City": "Birmingham", "State": "AL", "Zip": "35294-0002", "AddressLine1": "1530 3rd Ave S Rm 304", "AddressLine2": "", "Distance": 2.1, "Latitude": 33.50752, "Longitude": -86.80879}, {"Sequence": 83, "PersonId": 169849, "AddressId": 1510354, "Specialty": "Prosthodontics", "Photo": "findadentist.ada.org/Images/Profile/169849-Dr-Jerry-Reasner.png", "Name": "Dr. Jerry W Reasner", "Email": "info@reasnerdmd.com", "Phone": "(205) 595-2626", "Address": "924 Montclair Rd Ste 101 Birmingham, AL 35213-1210", "City": "Birmingham", "State": "AL", "Zip": "35213-1210", "AddressLine1": "924 Montclair Rd Ste 101", "AddressLine2": "", "Distance": 3.9, "Latitude": 33.51782, "Longitude": -86.74352}, {"Sequence": 84, "PersonId": 169498, "AddressId": 3326953, "Specialty": "Orthodontics and Dentofacial Orthopedics", "Photo": "findadentist.ada.org/Images/Profile/169498-Dr-Sherri-Weissman.png", "Name": "Dr. Sherri Weissman", "Email": "", "Phone": "(205) 991-9292", "Address": "202 Inverness Center Dr Birmingham, AL 35242-7635", "City": "Birmingham", "State": "AL", "Zip": "35242-7635", "AddressLine1": "202 Inverness Center Dr", "AddressLine2": "Suite 201", "Distance": 10.0, "Latitude": 33.42166, "Longitude": -86.70233}, {"Sequence": 85, "PersonId": 169831, "AddressId": 1510336, "Specialty": "Endodontics", "Photo": "findadentist.ada.org/Images/Profile/169831-Dr-James-Ballard.png", "Name": "Dr. James F Ballard", "Email": "", "Phone": "(205) 414-1499", "Address": "1771 Independence Ct Ste 4 Vestavia Hills, AL 35216-1232", "City": "Vestavia Hills", "State": "AL", "Zip": "35216-1232", "AddressLine1": "1771 Independence Ct Ste 4", "AddressLine2": null, "Distance": 5.5, "Latitude": 33.46094, "Longitude": -86.77971}, {"Sequence": 86, "PersonId": 169738, "AddressId": 1510243, "Specialty": "General Practice", "Photo": "findadentist.ada.org/Images/Profile/169738-Dr-Bruce-Cusic.png", "Name": "Dr. Bruce S Cusic", "Email": "", "Phone": "(205) 780-7365", "Address": "3600 Chaumont Dr Vestavia, AL 35223-2202", "City": "Vestavia", "State": "AL", "Zip": "35223-2202", "AddressLine1": "3600 Chaumont Dr", "AddressLine2": null, "Distance": 6.4, "Latitude": 33.48593, "Longitude": -86.71515}, {"Sequence": 87, "PersonId": 136564, "AddressId": 2789143, "Specialty": "Oral and Maxillofacial Surgery", "Photo": "findadentist.ada.org/Images/Profile/136564-Dr-Christopher-Rothman.png", "Name": "Dr. Christopher M Rothman", "Email": "", "Phone": "(205) 682-1099", "Address": "2290 Valleydale Rd Ste 100 Hoover, AL 35244-2011", "City": "Hoover", "State": "AL", "Zip": "35244-2011", "AddressLine1": "2290 Valleydale Rd Ste 100", "AddressLine2": "", "Distance": 12.2, "Latitude": 33.36493, "Longitude": -86.76494}, {"Sequence": 88, "PersonId": 169898, "AddressId": 3497309, "Specialty": "General Practice", "Photo": "findadentist.ada.org/Images/Profile/169898-Dr-Faye-Chambers.png", "Name": "Dr. Faye M Chambers", "Email": "chambersfamilydentistry@gmail.com", "Phone": "(205) 325-7008", "Address": "3345 Lowery Pkwy Ste 111 Fultondale, AL 35068-1696", "City": "Fultondale", "State": "AL", "Zip": "35068-1696", "AddressLine1": "3345 Lowery Pkwy Ste 111", "AddressLine2": "", "Distance": 4.5, "Latitude": 33.60254, "Longitude": -86.80524}, {"Sequence": 89, "PersonId": 143509, "AddressId": 2791672, "Specialty": "General Practice", "Photo": "findadentist.ada.org/Images/Profile/143509-Dr-Alan-McAndrews.png", "Name": "Dr. Alan L McAndrews", "Email": "mstdental@aol.com", "Phone": "(205) 853-1136", "Address": "4702 Misty Ridge Circle Birmingham, AL 35235-8665", "City": "Birmingham", "State": "AL", "Zip": "35235-8665", "AddressLine1": "4702 Misty Ridge Circle", "AddressLine2": "", "Distance": 13.0, "Latitude": 33.6422, "Longitude": -86.61907}, {"Sequence": 90, "PersonId": 272438, "AddressId": 1612943, "Specialty": "Pediatric Dentistry", "Photo": "findadentist.ada.org/Images/Profile/272438-Dr-R-Chambliss.png", "Name": "Dr. R B Chambliss", "Email": "", "Phone": "(205) 453-0314", "Address": "3000 Southlake Park, Suite 200 Birmingham, AL 35244-3615", "City": "Birmingham", "State": "AL", "Zip": "35244-3615", "AddressLine1": "3000 Southlake Park, Suite 200", "AddressLine2": "", "Distance": 12.4, "Latitude": 33.36002, "Longitude": -86.77207}, {"Sequence": 91, "PersonId": 169911, "AddressId": 3537481, "Specialty": "General Practice", "Photo": "findadentist.ada.org/Images/Profile/169911-Dr-Michael-Randle.png", "Name": "Dr. Michael B Randle", "Email": "", "Phone": "(205) 995-1450", "Address": "101 Missionary Rdg Ste 101 Birmingham, AL 35242-5203", "City": "Birmingham", "State": "AL", "Zip": "35242-5203", "AddressLine1": "101 Missionary Rdg Ste 101", "AddressLine2": "", "Distance": 10.6, "Latitude": 33.42123, "Longitude": -86.68717}, {"Sequence": 92, "PersonId": 169764, "AddressId": 1510269, "Specialty": "Prosthodontics", "Photo": "findadentist.ada.org/Images/Profile/169764-Dr-Sandra-O'Neal.png", "Name": "Dr. Sandra J O'Neal", "Email": "", "Phone": "(205) 620-3312", "Address": "206 W Linwood Dr Birmingham, AL 35209-3956", "City": "Birmingham", "State": "AL", "Zip": "35209-3956", "AddressLine1": "206 W Linwood Dr", "AddressLine2": "", "Distance": 4.5, "Latitude": 33.47236, "Longitude": -86.80447}, {"Sequence": 93, "PersonId": 169747, "AddressId": 1510252, "Specialty": "General Practice", "Photo": "findadentist.ada.org/Images/Profile/169747-Dr-Stephen-Dobbs.png", "Name": "Dr. David Dobbs", "Email": "DobbsAdkins@gmail.com", "Phone": "(205) 655-4300", "Address": "417 Main St Trussville, AL 35173-1418", "City": "Trussville", "State": "AL", "Zip": "35173-1418", "AddressLine1": "417 Main St", "AddressLine2": "", "Distance": 12.4, "Latitude": 33.61732, "Longitude": -86.61499}, {"Sequence": 94, "PersonId": 204719, "AddressId": 3575439, "Specialty": "General Practice", "Photo": "findadentist.ada.org/Images/Profile/204719-Dr-Burton-Gooch.png", "Name": "Dr. Burton G Gooch", "Email": "info@drgooch.com", "Phone": "(205) 991-9892", "Address": "6807 Tattersall Way Birmingham, AL 35242", "City": "Birmingham", "State": "AL", "Zip": "35242", "AddressLine1": "6807 Tattersall Way", "AddressLine2": "", "Distance": 11.2, "Latitude": 33.42464, "Longitude": -86.66831}, {"Sequence": 95, "PersonId": 169660, "AddressId": 1510165, "Specialty": "Periodontics", "Photo": "findadentist.ada.org/Images/Profile/169660-Dr-James-Roberts.png", "Name": "Dr. James E Roberts", "Email": "", "Phone": "(205) 933-9333", "Address": "2301 Arlington Ave S Birmingham, AL 35205-4180", "City": "Birmingham", "State": "AL", "Zip": "35205-4180", "AddressLine1": "2301 Arlington Ave S", "AddressLine2": "", "Distance": 2.8, "Latitude": 33.49954, "Longitude": -86.78796}, {"Sequence": 96, "PersonId": 169471, "AddressId": 1509976, "Specialty": "Pediatric Dentistry", "Photo": "findadentist.ada.org/Images/Profile/169471-Dr-Michael-Anglin.png", "Name": "Dr. Michael S Anglin", "Email": "", "Phone": "(205) 988-9800", "Address": "3825 Lorna Rd Ste 206 Birmingham, AL 35244-3003", "City": "Birmingham", "State": "AL", "Zip": "35244-3003", "AddressLine1": "3825 Lorna Rd Ste 206", "AddressLine2": null, "Distance": 11.4, "Latitude": 33.37213, "Longitude": -86.80797}, {"Sequence": 97, "PersonId": 143262, "AddressId": 2758586, "Specialty": "General Practice", "Photo": "findadentist.ada.org/Images/Profile/143262-Dr-Jennifer-Morrissey-Patton.png", "Name": "Dr. Jennifer M Morrissey-Patton", "Email": "MorrisseyDMD@aol.com", "Phone": "(205) 989-8480", "Address": "425 Emery Dr Birmingham, AL 35244-4567", "City": "Birmingham", "State": "AL", "Zip": "35244-4567", "AddressLine1": "425 Emery Dr", "AddressLine2": "", "Distance": 13.0, "Latitude": 33.35209, "Longitude": -86.8441}, {"Sequence": 98, "PersonId": 169916, "AddressId": 3387975, "Specialty": "Orthodontics and Dentofacial Orthopedics", "Photo": "findadentist.ada.org/Images/Profile/169916-Dr-J. Greg-Osborne.png", "Name": "Dr. J. Greg Osborne", "Email": "", "Phone": "(205) 631-5223", "Address": "527-B Fieldstown Road Gardendale, AL 35071", "City": "Gardendale", "State": "AL", "Zip": "35071", "AddressLine1": "527-B Fieldstown Road", "AddressLine2": "", "Distance": 7.9, "Latitude": 33.65148, "Longitude": -86.82042}, {"Sequence": 99, "PersonId": 169401, "AddressId": 3282838, "Specialty": "Orthodontics and Dentofacial Orthopedics", "Photo": "findadentist.ada.org/Images/Profile/169401-Dr-Erin-McAtee.png", "Name": "Dr. Erin L McAtee", "Email": "", "Phone": "(205) 969-0130", "Address": "2034 Patton Chapel Rd Birmingham, AL 35216-5770", "City": "Birmingham", "State": "AL", "Zip": "35216-5770", "AddressLine1": "2034 Patton Chapel Rd", "AddressLine2": "", "Distance": 9.9, "Latitude": 33.39343, "Longitude": -86.80473}, {"Sequence": 100, "PersonId": 198811, "AddressId": 1539316, "Specialty": "General Practice", "Photo": "findadentist.ada.org/Images/Profile/198811-Dr-Cheri-Cunningham.png", "Name": "Dr. Cheri W Cunningham", "Email": "", "Phone": "(205) 285-9661", "Address": "907 Main St Gardendale, AL 35071-2633", "City": "Gardendale", "State": "AL", "Zip": "35071-2633", "AddressLine1": "907 Main St", "AddressLine2": "", "Distance": 7.7, "Latitude": 33.64846, "Longitude": -86.81078}]