[{"Sequence": 1, "PersonId": 113338, "AddressId": 3402212, "Specialty": "General Practice", "Photo": "findadentist.ada.org/Images/Profile/113338-Dr-Roberto-Pischek.png", "Name": "Dr. Roberto V Pischek", "Email": "lovethatsmile2@gmail.com", "Phone": "(251) 947-5811", "Address": "46 Medical Center Drive Monroevile, AL 36460", "City": "Monroevile", "State": "AL", "Zip": "36460", "AddressLine1": "46 Medical Center Drive", "AddressLine2": "", "Distance": 19.8, "Latitude": 31.5021, "Longitude": -87.31907}, {"Sequence": 2, "PersonId": 143685, "AddressId": 3277273, "Specialty": "General Practice", "Photo": "findadentist.ada.org/Images/Profile/143685-Dr-James-Deatherage.png", "Name": "Dr. James R Deatherage", "Email": "drdeatherage@yahoo.com", "Phone": "(251) 867-6837", "Address": "422 Douglas Ave Brewton, AL 36426-2052", "City": "Brewton", "State": "AL", "Zip": "36426-2052", "AddressLine1": "422 Douglas Ave", "AddressLine2": "", "Distance": 13.0, "Latitude": 31.11014, "Longitude": -87.06801}, {"Sequence": 3, "PersonId": 170335, "AddressId": 1510840, "Specialty": "General Practice", "Photo": "findadentist.ada.org/Images/Profile/ADA.png", "Name": "Dr. Lori Gearhart", "Email": "gearhart.dentistry@rocketmail.com", "Phone": "(251) 743-3123", "Address": "1618 S Alabama Ave Monroeville, AL 36460-3078", "City": "Monroeville", "State": "AL", "Zip": "36460-3078", "AddressLine1": "1618 S Alabama Ave", "AddressLine2": "", "Distance": 19.9, "Latitude": 31.50373, "Longitude": -87.31843}, {"Sequence": 4, "PersonId": 170334, "AddressId": 1510839, "Specialty": "General Practice", "Photo": "findadentist.ada.org/Images/Profile/ADA.png", "Name": "Dr. Andrew Gearhart", "Email": "gearhart.dentistry@rocketmail.com", "Phone": "(251) 743-3123", "Address": "1618 S Alabama Ave Monroeville, AL 36460-3078", "City": "Monroeville", "State": "AL", "Zip": "36460-3078", "AddressLine1": "1618 S Alabama Ave", "AddressLine2": "", "Distance": 19.9, "Latitude": 31.50373, "Longitude": -87.31843}, {"Sequence": 5, "PersonId": 170331, "AddressId": 1510836, "Specialty": "General Practice", "Photo": "findadentist.ada.org/Images/Profile/ADA.png", "Name": "Dr. Reese Robinson", "Email": "", "Phone": "(251) 867-3273", "Address": "102 Mason St Brewton, AL 36426-1536", "City": "Brewton", "State": "AL", "Zip": "36426-1536", "AddressLine1": "102 Mason St", "AddressLine2": "", "Distance": 12.1, "Latitude": 31.12409, "Longitude": -87.06768}, {"Sequence": 6, "PersonId": 170329, "AddressId": 2744189, "Specialty": "General Practice", "Photo": "findadentist.ada.org/Images/Profile/ADA.png", "Name": "Dr. Floyd Cartwright", "Email": "", "Phone": "(251) 578-1241", "Address": "220 Court St Evergreen, AL 36401-2848", "City": "Evergreen", "State": "AL", "Zip": "36401-2848", "AddressLine1": "220 Court St", "AddressLine2": "", "Distance": 12.1, "Latitude": 31.43549, "Longitude": -86.95493}, {"Sequence": 7, "PersonId": 170340, "AddressId": 1510845, "Specialty": "General Practice", "Photo": "findadentist.ada.org/Images/Profile/ADA.png", "Name": "Dr. B Keith Miller", "Email": "", "Phone": "(251) 867-5625", "Address": "420 Douglas Ave Brewton, AL 36426-2052", "City": "Brewton", "State": "AL", "Zip": "36426-2052", "AddressLine1": "420 Douglas Ave", "AddressLine2": "", "Distance": 13.0, "Latitude": 31.10981, "Longitude": -87.06826}]