[{"Sequence": 1, "PersonId": 332466, "AddressId": 1672971, "Specialty": "Endodontics", "Photo": "findadentist.ada.org/Images/Profile/332466-Dr-Earl-Walker.png", "Name": "Dr Earl D Walker", "Email": "info@metrolouisvilleendo.com", "Phone": "(502) 495-1822", "Address": "3036 Breckenridge Ln Ste 103 Louisville, KY 40220-2196", "City": "Louisville", "State": "KY", "Zip": "40220-2196", "AddressLine1": "3036 Breckenridge Ln Ste 103", "AddressLine2": "", "Distance": 0.6, "Latitude": 38.21511, "Longitude": -85.62792}, {"Sequence": 2, "PersonId": 332365, "AddressId": 3399479, "Specialty": "General Practice", "Photo": "findadentist.ada.org/Images/Profile/332365-Dr-David-Smith.png", "Name": "Dr David H Smith", "Email": "info@smilesbydrsmith.com", "Phone": "(502) 499-2032", "Address": "3038 Breckenridge Lane Louisville, KY 40220", "City": "Louisville", "State": "KY", "Zip": "40220", "AddressLine1": "3038 Breckenridge Lane", "AddressLine2": "Suite 103", "Distance": 0.6, "Latitude": 38.21491, "Longitude": -85.62828}, {"Sequence": 3, "PersonId": 214357, "AddressId": 2817689, "Specialty": "Oral and Maxillofacial Surgery", "Photo": "findadentist.ada.org/Images/Profile/214357-Dr-Lawrence-Sivori.png", "Name": "Dr. L A Sivori, II", "Email": "", "Phone": "(502) 459-8012", "Address": "3101 Breckenridge Ln Ste 2D Louisville, KY 40220-2795", "City": "Louisville", "State": "KY", "Zip": "40220-2795", "AddressLine1": "3101 Breckenridge Ln Ste 2D", "AddressLine2": "", "Distance": 0.7, "Latitude": 38.21234, "Longitude": -85.62749}, {"Sequence": 4, "PersonId": 332486, "AddressId": 3398850, "Specialty": "Orthodontics and Dentofacial Orthopedics", "Photo": "findadentist.ada.org/Images/Profile/332486-Dr-Christopher-Mattingly.png", "Name": "Dr Christopher L Mattingly", "Email": "info@mandhortho.com", "Phone": "(502) 895-3473", "Address": "2317 Stony Brook Drive Louisville, KY 40220-4019", "City": "Louisville", "State": "KY", "Zip": "40220-4019", "AddressLine1": "2317 Stony Brook Drive", "AddressLine2": "Mattingly and Howell Orthodontics", "Distance": 1.1, "Latitude": 38.21297, "Longitude": -85.59961}, {"Sequence": 5, "PersonId": 331865, "AddressId": 1672370, "Specialty": "General Practice", "Photo": "findadentist.ada.org/Images/Profile/331865-Dr-Jeffrey-Echelberger.png", "Name": "Dr Jeffrey L Echelberger", "Email": "drechelberger1166@gmail.com", "Phone": "(502) 452-1716", "Address": "3201 Hikes Ln Louisville, KY 40220-2001", "City": "Louisville", "State": "KY", "Zip": "40220-2001", "AddressLine1": "3201 Hikes Ln", "AddressLine2": "", "Distance": 1.0, "Latitude": 38.21494, "Longitude": -85.63482}, {"Sequence": 6, "PersonId": 209580, "AddressId": 1550085, "Specialty": "General Practice", "Photo": "findadentist.ada.org/Images/Profile/209580-Dr-Aaron-Berger.png", "Name": "Dr. Aaron S Berger", "Email": "office@bergersmiles.com", "Phone": "(502) 491-0330", "Address": "2831 S Hurstbourne Pkwy Louisville, KY 40220-4112", "City": "Louisville", "State": "KY", "Zip": "40220-4112", "AddressLine1": "2831 S Hurstbourne Pkwy", "AddressLine2": "", "Distance": 1.2, "Latitude": 38.20918, "Longitude": -85.59959}, {"Sequence": 7, "PersonId": 122709, "AddressId": 3397820, "Specialty": "Orthodontics and Dentofacial Orthopedics", "Photo": "findadentist.ada.org/Images/Profile/122709-Dr-Christian-Howell.png", "Name": "Dr. Christian Howell", "Email": "info@mandhortho.com", "Phone": "(502) 895-3473", "Address": "2317 Stony Brook Drive Louisville, KY 40220-4019", "City": "Louisville", "State": "KY", "Zip": "40220-4019", "AddressLine1": "2317 Stony Brook Drive", "AddressLine2": "", "Distance": 1.1, "Latitude": 38.21297, "Longitude": -85.59961}, {"Sequence": 8, "PersonId": 122687, "AddressId": 1463192, "Specialty": "Oral and Maxillofacial Surgery", "Photo": "findadentist.ada.org/Images/Profile/122687-Dr-Richard-Pape.png", "Name": "Dr. Richard A Pape", "Email": "sboros@louoms.com", "Phone": "(502) 459-8012", "Address": "3101 Breckenridge Ln Ste 2D Louisville, KY 40220-2742", "City": "Louisville", "State": "KY", "Zip": "40220-2742", "AddressLine1": "3101 Breckenridge Ln Ste 2D", "AddressLine2": "", "Distance": 0.7, "Latitude": 38.21234, "Longitude": -85.62749}, {"Sequence": 9, "PersonId": 332553, "AddressId": 2950416, "Specialty": "General Practice", "Photo": "findadentist.ada.org/Images/Profile/332553-Dr-Todd-Peter.png", "Name": "Dr Todd C Peter", "Email": "toddpeterdmd@gmail.com", "Phone": "(502) 499-6900", "Address": "3046 Breckenridge Ln Ste 102 Louisville, KY 40220-2188", "City": "Louisville", "State": "KY", "Zip": "40220-2188", "AddressLine1": "3046 Breckenridge Ln Ste 102", "AddressLine2": "", "Distance": 0.7, "Latitude": 38.21313, "Longitude": -85.62786}, {"Sequence": 10, "PersonId": 332346, "AddressId": 3508304, "Specialty": "General Practice", "Photo": "findadentist.ada.org/Images/Profile/ADA.png", "Name": "Dr Phillip G McIntosh", "Email": "", "Phone": "(502) 459-7352", "Address": "3101 Breckenridge Lane, 1e Louisville, KY 40220-2742", "City": "Louisville", "State": "KY", "Zip": "40220-2742", "AddressLine1": "3101 Breckenridge Lane, 1e", "AddressLine2": "", "Distance": 0.7, "Latitude": 38.21235, "Longitude": -85.62749}, {"Sequence": 11, "PersonId": 333130, "AddressId": 3296786, "Specialty": "General Practice", "Photo": "findadentist.ada.org/Images/Profile/ADA.png", "Name": "Dr Paul E King", "Email": "", "Phone": "(502) 451-5222", "Address": "3348 Hikes Ln Louisville, KY 40220", "City": "Louisville", "State": "KY", "Zip": "40220", "AddressLine1": "3348 Hikes Ln", "AddressLine2": "Suite 107", "Distance": 0.5, "Latitude": 38.21768, "Longitude": -85.6264}, {"Sequence": 12, "PersonId": 332442, "AddressId": 1672947, "Specialty": "General Practice", "Photo": "findadentist.ada.org/Images/Profile/ADA.png", "Name": "Dr Patricia J Hobbs", "Email": "", "Phone": "(502) 459-1355", "Address": "3701 Taylorsville Rd Ste 4 Louisville, KY 40220-1351", "City": "Louisville", "State": "KY", "Zip": "40220-1351", "AddressLine1": "3701 Taylorsville Rd Ste 4", "AddressLine2": null, "Distance": 1.5, "Latitude": 38.22145, "Longitude": -85.64505}, {"Sequence": 13, "PersonId": 332412, "AddressId": 1672917, "Specialty": "General Practice", "Photo": "findadentist.ada.org/Images/Profile/ADA.png", "Name": "Dr Patty V Adams", "Email": "", "Phone": "(502) 493-8218", "Address": "2821 S Hurstbourne Pkwy Ste 7 Louisville, KY 40220-4124", "City": "Louisville", "State": "KY", "Zip": "40220-4124", "AddressLine1": "2821 S Hurstbourne Pkwy Ste 7", "AddressLine2": "", "Distance": 1.2, "Latitude": 38.20935, "Longitude": -85.59916}]