[{"Sequence": 1, "PersonId": 151432, "AddressId": 1491937, "Specialty": "General Practice", "Photo": "findadentist.ada.org/Images/Profile/151432-Dr-Cindy-Smith.png", "Name": "Dr. Cindy C Smith", "Email": "", "Phone": "(606) 432-0163", "Address": "157 Hibbard St Pikeville, KY 41501-1754", "City": "Pikeville", "State": "KY", "Zip": "41501-1754", "AddressLine1": "157 Hibbard St", "AddressLine2": "", "Distance": 15.6, "Latitude": 37.47478, "Longitude": -82.52438}, {"Sequence": 2, "PersonId": 331856, "AddressId": 1672361, "Specialty": "Orthodontics and Dentofacial Orthopedics", "Photo": "findadentist.ada.org/Images/Profile/331856-Dr-Andy-Keaton.png", "Name": "Dr. Andy P Keaton", "Email": "", "Phone": "(606) 432-8165", "Address": "384 N Mayo Trl Ste A Pikeville, KY 41501-1493", "City": "Pikeville", "State": "KY", "Zip": "41501-1493", "AddressLine1": "384 N Mayo Trl Ste A", "AddressLine2": "", "Distance": 16.9, "Latitude": 37.48676, "Longitude": -82.54257}, {"Sequence": 3, "PersonId": 331791, "AddressId": 1672296, "Specialty": "General Practice", "Photo": "findadentist.ada.org/Images/Profile/331791-Dr-Gregory-Bentley.png", "Name": "Dr Gregory H Bentley", "Email": "info@pikevillesmiles.com", "Phone": "(606) 432-0187", "Address": "142 Mayo Cir Ste 100 Pikeville, KY 41501-1831", "City": "Pikeville", "State": "KY", "Zip": "41501-1831", "AddressLine1": "142 Mayo Cir Ste 100", "AddressLine2": "", "Distance": 14.9, "Latitude": 37.4628, "Longitude": -82.51818}, {"Sequence": 4, "PersonId": 331818, "AddressId": 1672323, "Specialty": "General Practice", "Photo": "findadentist.ada.org/Images/Profile/331818-Dr-Marvin-Bush.png", "Name": "Dr Marvin T Bush", "Email": "info@pikevillesmiles.com", "Phone": "(606) 432-0187", "Address": "142 Mayo Circle Ste 100 Pikeville, KY 41501-1831", "City": "Pikeville", "State": "KY", "Zip": "41501-1831", "AddressLine1": "142 Mayo Circle Ste 100", "AddressLine2": "", "Distance": 14.9, "Latitude": 37.46281, "Longitude": -82.51817}, {"Sequence": 5, "PersonId": 331848, "AddressId": 1672353, "Specialty": "Orthodontics and Dentofacial Orthopedics", "Photo": "findadentist.ada.org/Images/Profile/331848-Dr-Tom-Hartsock.png", "Name": "Dr Tom E Hartsock", "Email": "smiles@hartsockorthodontics.com", "Phone": "(606) 432-3603", "Address": "161 College St Ste 3 Pikeville, KY 41501-4786", "City": "Pikeville", "State": "KY", "Zip": "41501-4786", "AddressLine1": "161 College St Ste 3", "AddressLine2": "", "Distance": 15.5, "Latitude": 37.47745, "Longitude": -82.52011}, {"Sequence": 6, "PersonId": 100146, "AddressId": 1440651, "Specialty": "General Practice", "Photo": "findadentist.ada.org/Images/Profile/100146-Dr-William-Robinson.png", "Name": "Dr William S Robinson", "Email": "", "Phone": "(276) 926-4777", "Address": "5367 Dickenson Hwy Clintwood, VA 24228-7634", "City": "Clintwood", "State": "VA", "Zip": "24228-7634", "AddressLine1": "5367 Dickenson Hwy", "AddressLine2": "", "Distance": 19.0, "Latitude": 37.14947, "Longitude": -82.46721}, {"Sequence": 7, "PersonId": 331839, "AddressId": 3438311, "Specialty": "General Practice", "Photo": "findadentist.ada.org/Images/Profile/331839-Dr-George-Smith.png", "Name": "Dr G S Smith", "Email": "", "Phone": "(606) 432-2320", "Address": "161 Hibbard St Ste 201 Pikeville, KY 41501-1708", "City": "Pikeville", "State": "KY", "Zip": "41501-1708", "AddressLine1": "161 Hibbard St Ste 201", "AddressLine2": "", "Distance": 15.6, "Latitude": 37.47477, "Longitude": -82.5244}, {"Sequence": 8, "PersonId": 239634, "AddressId": 3543345, "Specialty": "Pediatric Dentistry", "Photo": "findadentist.ada.org/Images/Profile/ADA.png", "Name": "Dr. Joshua R Raleigh", "Email": "", "Phone": "(606) 432-2773", "Address": "308 Hambley Blvd Pikeville, KY 41501", "City": "Pikeville", "State": "KY", "Zip": "41501", "AddressLine1": "308 Hambley Blvd", "AddressLine2": "", "Distance": 16.2, "Latitude": 37.48152, "Longitude": -82.53319}, {"Sequence": 9, "PersonId": 331805, "AddressId": 1672310, "Specialty": "General Practice", "Photo": "findadentist.ada.org/Images/Profile/ADA.png", "Name": "Dr Quentin T Robinette", "Email": "", "Phone": "(606) 437-9942", "Address": "153 Hibbard St Pikeville, KY 41501-1754", "City": "Pikeville", "State": "KY", "Zip": "41501-1754", "AddressLine1": "153 Hibbard St", "AddressLine2": "", "Distance": 15.6, "Latitude": 37.47483, "Longitude": -82.52429}, {"Sequence": 10, "PersonId": 331789, "AddressId": 1672294, "Specialty": "General Practice", "Photo": "findadentist.ada.org/Images/Profile/ADA.png", "Name": "Dr William E Collins", "Email": "", "Phone": "(606) 437-9601", "Address": "126 Trivette Dr Ste 303 Pikeville, KY 41501-1275", "City": "Pikeville", "State": "KY", "Zip": "41501-1275", "AddressLine1": "126 Trivette Dr Ste 303", "AddressLine2": "", "Distance": 15.4, "Latitude": 37.48286, "Longitude": -82.5153}, {"Sequence": 11, "PersonId": 331853, "AddressId": 1672358, "Specialty": "Periodontics", "Photo": "findadentist.ada.org/Images/Profile/ADA.png", "Name": "Dr Terry W Wright", "Email": "drterrywright@yahoo.com", "Phone": "(606) 437-1942", "Address": "419 Town Mountain Rd Ste 201 Pikeville, KY 41501-1633", "City": "Pikeville", "State": "KY", "Zip": "41501-1633", "AddressLine1": "419 Town Mountain Rd Ste 201", "AddressLine2": "", "Distance": 15.0, "Latitude": 37.49028, "Longitude": -82.50163}, {"Sequence": 12, "PersonId": 331814, "AddressId": 1672319, "Specialty": "Oral and Maxillofacial Surgery", "Photo": "findadentist.ada.org/Images/Profile/ADA.png", "Name": "Dr William R Anderson", "Email": "", "Phone": "(606) 432-0805", "Address": "1152 S Mayo Trl Ste A Pikeville, KY 41501-2299", "City": "Pikeville", "State": "KY", "Zip": "41501-2299", "AddressLine1": "1152 S Mayo Trl Ste A", "AddressLine2": "", "Distance": 14.9, "Latitude": 37.44999, "Longitude": -82.52447}, {"Sequence": 13, "PersonId": 122635, "AddressId": 3481993, "Specialty": "General Practice", "Photo": "findadentist.ada.org/Images/Profile/ADA.png", "Name": "Dr. Sherry D Slone", "Email": "sherry.slone@uky.edu", "Phone": "(606) 785-3175", "Address": "59 Cowtown Road Hindman, KY 41822", "City": "Hindman", "State": "KY", "Zip": "41822", "AddressLine1": "59 Cowtown Road", "AddressLine2": "UK June Buchana Clinic", "Distance": 12.1, "Latitude": 37.20121, "Longitude": -82.29486}]