[{"Sequence": 1, "PersonId": 62458, "AddressId": 1402963, "Specialty": "Oral and Maxillofacial Surgery", "Photo": "findadentist.ada.org/Images/Profile/62458-Dr-Richard-Scheetz.png", "Name": "Dr Richard E Scheetz, Jr.", "Email": "info@omfso.com", "Phone": "(614) 764-9455", "Address": "5155 Bradenton Ave Ste 100 Dublin, OH 43017-7559", "City": "Dublin", "State": "OH", "Zip": "43017-7559", "AddressLine1": "5155 Bradenton Ave Ste 100", "AddressLine2": "", "Distance": 12.0, "Latitude": 40.07995, "Longitude": -83.12731}, {"Sequence": 2, "PersonId": 273768, "AddressId": 3547178, "Specialty": "General Practice", "Photo": "findadentist.ada.org/Images/Profile/273768-Dr-Jeffrey-Wilden.png", "Name": "Dr. Jeffrey L Wilden", "Email": "", "Phone": "(614) 761-9393", "Address": "1882 Hard Rd Columbus, OH 43235-1996", "City": "Columbus", "State": "OH", "Zip": "43235-1996", "AddressLine1": "1882 Hard Rd", "AddressLine2": "", "Distance": 14.6, "Latitude": 40.11761, "Longitude": -83.06603}, {"Sequence": 3, "PersonId": 62770, "AddressId": 1403275, "Specialty": "General Practice", "Photo": "findadentist.ada.org/Images/Profile/62770-Dr-Steven-Hoagland.png", "Name": "Dr Steven K Hoagland", "Email": "info@hoaglanddds.com", "Phone": "(614) 847-1775", "Address": "77 S Liberty St Ste 1A Powell, OH 43065-8302", "City": "Powell", "State": "OH", "Zip": "43065-8302", "AddressLine1": "77 S Liberty St Ste 1A", "AddressLine2": "", "Distance": 14.1, "Latitude": 40.15639, "Longitude": -83.0755}, {"Sequence": 4, "PersonId": 351295, "AddressId": 3516256, "Specialty": "General Practice", "Photo": "findadentist.ada.org/Images/Profile/351295-Dr-Jonathon-Bowman.png", "Name": "Dr. Jonathon Bowman", "Email": "hilliard@comfortdental.biz", "Phone": "(614) 453-2806", "Address": "3676 Main St Hilliard, OH 43026", "City": "Hilliard", "State": "OH", "Zip": "43026", "AddressLine1": "3676 Main St", "AddressLine2": "", "Distance": 12.3, "Latitude": 40.0267, "Longitude": -83.16013}, {"Sequence": 5, "PersonId": 349252, "AddressId": 3090789, "Specialty": "Endodontics", "Photo": "findadentist.ada.org/Images/Profile/349252-Dr-Stephen-Webster.png", "Name": "Dr Stephen W Webster", "Email": "", "Phone": "(614) 885-1191", "Address": "5152 Blazer Pkwy Ste 102 Dublin, OH 43017-7316", "City": "Dublin", "State": "OH", "Zip": "43017-7316", "AddressLine1": "5152 Blazer Pkwy Ste 102", "AddressLine2": "", "Distance": 11.7, "Latitude": 40.09045, "Longitude": -83.12867}, {"Sequence": 6, "PersonId": 112547, "AddressId": 2722866, "Specialty": "Endodontics", "Photo": "findadentist.ada.org/Images/Profile/112547-Dr-F. Charles-Arens.png", "Name": "Dr. F. Charles Arens", "Email": "", "Phone": "(614) 885-1191", "Address": "5152 Blazer Pkwy Ste 102 Dublin, OH 43017-7316", "City": "Dublin", "State": "OH", "Zip": "43017-7316", "AddressLine1": "5152 Blazer Pkwy Ste 102", "AddressLine2": "", "Distance": 11.7, "Latitude": 40.09045, "Longitude": -83.12869}, {"Sequence": 7, "PersonId": 62635, "AddressId": 1403140, "Specialty": "Periodontics", "Photo": "findadentist.ada.org/Images/Profile/62635-Dr-TJ-Miller.png", "Name": "Dr. TJ Miller, II", "Email": "frontdesk@tjmperio.com", "Phone": "(614) 885-5525", "Address": "55 Caren Ave Ste 380 Worthington, OH 43085-2515", "City": "Worthington", "State": "OH", "Zip": "43085-2515", "AddressLine1": "55 Caren Ave Ste 380", "AddressLine2": "", "Distance": 17.2, "Latitude": 40.10522, "Longitude": -83.01884}, {"Sequence": 8, "PersonId": 200699, "AddressId": 1541204, "Specialty": "Prosthodontics", "Photo": "findadentist.ada.org/Images/Profile/200699-Dr-Emily-Jordan.png", "Name": "Dr. Rebecca Tolley Jordan", "Email": "", "Phone": "(740) 393-2161", "Address": "665 W Central Ave Delaware, OH 43015-1409", "City": "Delaware", "State": "OH", "Zip": "43015-1409", "AddressLine1": "665 W Central Ave", "AddressLine2": "", "Distance": 17.5, "Latitude": 40.30628, "Longitude": -83.09208}, {"Sequence": 9, "PersonId": 130715, "AddressId": 1471220, "Specialty": "General Practice", "Photo": "findadentist.ada.org/Images/Profile/130715-Dr-Nicholas-Terse.png", "Name": "Dr. Nicholas J Terse", "Email": "office@drterse.com", "Phone": "(614) 888-1896", "Address": "825 High St Worthington, OH 43085-4157", "City": "Worthington", "State": "OH", "Zip": "43085-4157", "AddressLine1": "825 High St", "AddressLine2": "", "Distance": 17.3, "Latitude": 40.09129, "Longitude": -83.01842}, {"Sequence": 10, "PersonId": 205712, "AddressId": 1546217, "Specialty": "Orthodontics and Dentofacial Orthopedics", "Photo": "findadentist.ada.org/Images/Profile/205712-Dr-Edgar-Mendieta.png", "Name": "Dr. Edgar Y Mendieta", "Email": "", "Phone": "(614) 279-6481", "Address": "3079 W Broad St Ste 6 Columbus, OH 43204-1397", "City": "Columbus", "State": "OH", "Zip": "43204-1397", "AddressLine1": "3079 W Broad St Ste 6", "AddressLine2": "", "Distance": 18.7, "Latitude": 39.95426, "Longitude": -83.08248}, {"Sequence": 11, "PersonId": 62496, "AddressId": 2954692, "Specialty": "General Practice", "Photo": "findadentist.ada.org/Images/Profile/62496-Dr-Michael-Schumacher.png", "Name": "Dr Michael Schumacher", "Email": "info@columbusdentists.net", "Phone": "(614) 451-1110", "Address": "3600 Olentangy River Rd Ste 500B Columbus, OH 43214-3437", "City": "Columbus", "State": "OH", "Zip": "43214-3437", "AddressLine1": "3600 Olentangy River Rd Ste 500B", "AddressLine2": "", "Distance": 17.9, "Latitude": 40.03344, "Longitude": -83.031}, {"Sequence": 12, "PersonId": 131505, "AddressId": 3386793, "Specialty": "Prosthodontics", "Photo": "findadentist.ada.org/Images/Profile/131505-Dr-Roland-Pagniano.png", "Name": "Dr. Roland P Pagniano, Jr.", "Email": "", "Phone": "(614) 932-0200", "Address": "6805 Avery Muirfield Dr. Dublin, OH 43016-7184", "City": "Dublin", "State": "OH", "Zip": "43016-7184", "AddressLine1": "6805 Avery Muirfield Dr.", "AddressLine2": "Suite 201", "Distance": 9.8, "Latitude": 40.10733, "Longitude": -83.16084}, {"Sequence": 13, "PersonId": 15853, "AddressId": 2749352, "Specialty": "Oral and Maxillofacial Pathology", "Photo": "findadentist.ada.org/Images/Profile/15853-Dr-Richard-Wesley.png", "Name": "Dr Richard K Wesley", "Email": "", "Phone": null, "Address": "770 Jasonway Ave Columbus, OH 43214-4333", "City": "Columbus", "State": "OH", "Zip": "43214-4333", "AddressLine1": "770 Jasonway Ave", "AddressLine2": "", "Distance": 16.8, "Latitude": 40.05883, "Longitude": -83.04081}, {"Sequence": 14, "PersonId": 130756, "AddressId": 1471261, "Specialty": "General Practice", "Photo": "findadentist.ada.org/Images/Profile/130756-Dr-John-Sexton.png", "Name": "Dr. John C Sexton", "Email": "johnsextondds@rrohio.com", "Phone": "(740) 363-2080", "Address": "1816 Columbus Pike Delaware, OH 43015-2728", "City": "Delaware", "State": "OH", "Zip": "43015-2728", "AddressLine1": "1816 Columbus Pike", "AddressLine2": "", "Distance": 16.7, "Latitude": 40.26469, "Longitude": -83.07172}, {"Sequence": 15, "PersonId": 62620, "AddressId": 1403125, "Specialty": "Prosthodontics", "Photo": "findadentist.ada.org/Images/Profile/62620-Dr-Robert-Heller.png", "Name": "Dr Robert L Heller", "Email": "", "Phone": "(614) 885-1215", "Address": "145 Green Meadows Dr S Lewis Center, OH 43035-9458", "City": "Lewis Center", "State": "OH", "Zip": "43035-9458", "AddressLine1": "145 Green Meadows Dr S", "AddressLine2": "", "Distance": 17.2, "Latitude": 40.15277, "Longitude": -83.01515}, {"Sequence": 16, "PersonId": 62704, "AddressId": 2752717, "Specialty": "General Practice", "Photo": "findadentist.ada.org/Images/Profile/62704-Dr-Erin-Whittaker.png", "Name": "Dr Erin L Whittaker", "Email": "Scheduling@flossyourteeth.com", "Phone": "(614) 267-4243", "Address": "11 W Cooke Rd Columbus, OH 43214-3068", "City": "Columbus", "State": "OH", "Zip": "43214-3068", "AddressLine1": "11 W Cooke Rd", "AddressLine2": "", "Distance": 18.0, "Latitude": 40.04901, "Longitude": -83.02094}, {"Sequence": 17, "PersonId": 131361, "AddressId": 1471866, "Specialty": "Oral and Maxillofacial Surgery", "Photo": "findadentist.ada.org/Images/Profile/131361-Dr-David-Smeltzer.png", "Name": "Dr. David A Smeltzer", "Email": "", "Phone": "(614) 457-9337", "Address": "3705 Olentangy River Rd Ste 200 Columbus, OH 43214-3467", "City": "Columbus", "State": "OH", "Zip": "43214-3467", "AddressLine1": "3705 Olentangy River Rd Ste 200", "AddressLine2": "", "Distance": 17.7, "Latitude": 40.03577, "Longitude": -83.03319}, {"Sequence": 18, "PersonId": 62805, "AddressId": 2727624, "Specialty": "Pediatric Dentistry", "Photo": "findadentist.ada.org/Images/Profile/62805-Dr-Michael-Soult.png", "Name": "Dr Michael C Soult", "Email": "", "Phone": "(614) 799-5576", "Address": "5080 Bradenton Ave Dublin, OH 43017-7581", "City": "Dublin", "State": "OH", "Zip": "43017-7581", "AddressLine1": "5080 Bradenton Ave", "AddressLine2": "", "Distance": 11.9, "Latitude": 40.08191, "Longitude": -83.12775}, {"Sequence": 19, "PersonId": 59707, "AddressId": 1400212, "Specialty": "General Practice", "Photo": "findadentist.ada.org/Images/Profile/59707-Dr-Don-Miller.png", "Name": "Dr Don D Miller", "Email": "", "Phone": "(937) 644-1311", "Address": "110 Morey Dr Marysville, OH 43040-1646", "City": "Marysville", "State": "OH", "Zip": "43040-1646", "AddressLine1": "110 Morey Dr", "AddressLine2": "", "Distance": 6.4, "Latitude": 40.22801, "Longitude": -83.36958}, {"Sequence": 20, "PersonId": 210656, "AddressId": 1551161, "Specialty": "General Practice", "Photo": "findadentist.ada.org/Images/Profile/210656-Dr-Jeremy-Thiel.png", "Name": "Dr. Jeremy M Thiel", "Email": "indo@thieldds.com", "Phone": "(614) 846-7828", "Address": "825 High St Worthington, OH 43085-4157", "City": "Worthington", "State": "OH", "Zip": "43085-4157", "AddressLine1": "825 High St", "AddressLine2": "", "Distance": 17.3, "Latitude": 40.09129, "Longitude": -83.01842}, {"Sequence": 21, "PersonId": 62537, "AddressId": 1403042, "Specialty": "General Practice", "Photo": "findadentist.ada.org/Images/Profile/62537-Dr-David-Verzella.png", "Name": "Dr David H Verzella", "Email": "", "Phone": "(614) 878-6417", "Address": "4998 W Broad St Ste 201 Columbus, OH 43228-1647", "City": "Columbus", "State": "OH", "Zip": "43228-1647", "AddressLine1": "4998 W Broad St Ste 201", "AddressLine2": "", "Distance": 16.9, "Latitude": 39.95258, "Longitude": -83.13444}, {"Sequence": 22, "PersonId": 217314, "AddressId": 1557819, "Specialty": "General Practice", "Photo": "findadentist.ada.org/Images/Profile/217314-Dr-Siddhi-Patel.png", "Name": "Dr. Siddhi R Patel", "Email": "parkdentalohio@gmail.com", "Phone": "(614) 226-2268", "Address": "4533 Cemetery Rd Hilliard, OH 43026-1102", "City": "Hilliard", "State": "OH", "Zip": "43026-1102", "AddressLine1": "4533 Cemetery Rd", "AddressLine2": "", "Distance": 13.1, "Latitude": 40.032, "Longitude": -83.13601}, {"Sequence": 23, "PersonId": 62786, "AddressId": 1403291, "Specialty": "General Practice", "Photo": "findadentist.ada.org/Images/Profile/62786-Dr-David-Scurria.png", "Name": "Dr David G Scurria", "Email": "schedule@perimeterdentalgroup.com", "Phone": "(614) 766-5277", "Address": "6780 Perimeter Dr Ste 100 Dublin, OH 43016-8063", "City": "Dublin", "State": "OH", "Zip": "43016-8063", "AddressLine1": "6780 Perimeter Dr Ste 100", "AddressLine2": null, "Distance": 9.4, "Latitude": 40.10655, "Longitude": -83.1687}, {"Sequence": 24, "PersonId": 263397, "AddressId": 2995080, "Specialty": "Pediatric Dentistry", "Photo": "findadentist.ada.org/Images/Profile/263397-Dr-Colleen-Orellana.png", "Name": "Dr. Colleen C Orellana", "Email": "info@olentangypediatricdentistry.com", "Phone": "(614) 433-7474", "Address": "45 Clairedan Dr Powell, OH 43065-8064", "City": "Powell", "State": "OH", "Zip": "43065-8064", "AddressLine1": "45 Clairedan Dr", "AddressLine2": "", "Distance": 14.0, "Latitude": 40.16734, "Longitude": -83.07817}, {"Sequence": 25, "PersonId": 255973, "AddressId": 2824521, "Specialty": "General Practice", "Photo": "findadentist.ada.org/Images/Profile/255973-Dr-Deric-Budendorf.png", "Name": "Dr. Deric R Budendorf", "Email": "", "Phone": "(937)) 303-8901", "Address": "137 Damascus Rd Marysville, OH 43040-9618", "City": "Marysville", "State": "OH", "Zip": "43040-9618", "AddressLine1": "137 Damascus Rd", "AddressLine2": "", "Distance": 7.5, "Latitude": 40.23977, "Longitude": -83.3913}, {"Sequence": 26, "PersonId": 62571, "AddressId": 1403076, "Specialty": "General Practice", "Photo": "findadentist.ada.org/Images/Profile/62571-Dr-R-Emrich.png", "Name": "Dr R M Emrich", "Email": "INFO@HAIDDENTALASSOCIATES.COM", "Phone": "(614) 885-2610", "Address": "7100 N High St Ste 100 Worthington, OH 43085-2316", "City": "Worthington", "State": "OH", "Zip": "43085-2316", "AddressLine1": "7100 N High St Ste 100", "AddressLine2": "", "Distance": 17.3, "Latitude": 40.10602, "Longitude": -83.01617}, {"Sequence": 27, "PersonId": 62559, "AddressId": 2950842, "Specialty": "General Practice", "Photo": "findadentist.ada.org/Images/Profile/62559-Dr-Timothy-Moore.png", "Name": "Timothy H Moore, DDS", "Email": "info@drmagicsmile.com", "Phone": "(614) 459-5205", "Address": "2508 Bethel Rd Columbus, OH 43220-2293", "City": "Columbus", "State": "OH", "Zip": "43220-2293", "AddressLine1": "2508 Bethel Rd", "AddressLine2": "", "Distance": 14.4, "Latitude": 40.06477, "Longitude": -83.08647}, {"Sequence": 28, "PersonId": 296553, "AddressId": 3479635, "Specialty": "General Practice", "Photo": "findadentist.ada.org/Images/Profile/296553-Dr-Rajendra-Gohel.png", "Name": "Dr Rajendra J Gohel", "Email": "manager0084@dentalonepartners.com", "Phone": "(614) 659-0018", "Address": "4091 W.Powell Road Powell, OH 43065-7372", "City": "Powell", "State": "OH", "Zip": "43065-7372", "AddressLine1": "4091 W.Powell Road", "AddressLine2": "Suite 1", "Distance": 13.0, "Latitude": 40.15804, "Longitude": -83.09607}, {"Sequence": 29, "PersonId": 62718, "AddressId": 2813571, "Specialty": "General Practice", "Photo": "findadentist.ada.org/Images/Profile/62718-Dr-Lisa-Johnson.png", "Name": "Dr Lisa A Johnson", "Email": "haiddental@gmail.com", "Phone": "(614) 889-7661", "Address": "6455 Post Rd Dublin, OH 43016-1225", "City": "Dublin", "State": "OH", "Zip": "43016-1225", "AddressLine1": "6455 Post Rd", "AddressLine2": "", "Distance": 9.6, "Latitude": 40.10634, "Longitude": -83.16497}, {"Sequence": 30, "PersonId": 217513, "AddressId": 1558018, "Specialty": "General Practice", "Photo": "findadentist.ada.org/Images/Profile/217513-Dr-Justin-Cromwell.png", "Name": "Dr. Justin T Cromwell", "Email": "Scheduling@cromwelldentalcare.com", "Phone": "(937) 738-7610", "Address": "415 Colemans Xing Marysville, OH 43040-7068", "City": "Marysville", "State": "OH", "Zip": "43040-7068", "AddressLine1": "415 Colemans Xing", "AddressLine2": "", "Distance": 6.6, "Latitude": 40.23346, "Longitude": -83.34779}, {"Sequence": 31, "PersonId": 216449, "AddressId": 1556954, "Specialty": "General Practice", "Photo": "findadentist.ada.org/Images/Profile/216449-Dr-Jing-Li.png", "Name": "Jing Li", "Email": "faithfamilydental2018@gmail.com", "Phone": "(614) 454-3937", "Address": "1170 Old Henderson Rd, suite 101 Columbus, OH 43220-3623", "City": "Columbus", "State": "OH", "Zip": "43220-3623", "AddressLine1": "1170 Old Henderson Rd, suite 101", "AddressLine2": "", "Distance": 16.4, "Latitude": 40.05224, "Longitude": -83.05134}, {"Sequence": 32, "PersonId": 130641, "AddressId": 1471146, "Specialty": "General Practice", "Photo": "findadentist.ada.org/Images/Profile/130641-Dr-Deborah-York.png", "Name": "Dr. Deborah S York", "Email": "communitydental@hotmail.com", "Phone": "(614) 272-0110", "Address": "3421 South Blvd Columbus, OH 43204-1213", "City": "Columbus", "State": "OH", "Zip": "43204-1213", "AddressLine1": "3421 South Blvd", "AddressLine2": "", "Distance": 18.3, "Latitude": 39.95512, "Longitude": -83.09189}, {"Sequence": 33, "PersonId": 62696, "AddressId": 1403201, "Specialty": "Orthodontics and Dentofacial Orthopedics", "Photo": "findadentist.ada.org/Images/Profile/62696-Dr-Ewa-Byczek.png", "Name": "Dr Ewa T Byczek", "Email": "drb@dublinorthodontics.com", "Phone": "(614) 718-2222", "Address": "4748 Donegal Cliffs Dr Dublin, OH 43016-8063", "City": "Dublin", "State": "OH", "Zip": "43016-8063", "AddressLine1": "4748 Donegal Cliffs Dr", "AddressLine2": "", "Distance": 11.9, "Latitude": 40.13061, "Longitude": -83.11566}, {"Sequence": 34, "PersonId": 275693, "AddressId": 1616198, "Specialty": "Endodontics", "Photo": "findadentist.ada.org/Images/Profile/275693-Dr-Christopher-Ettrich.png", "Name": "Dr. Christopher A Ettrich", "Email": "info@wedgeendo.com", "Phone": "(614) 507-5202", "Address": "9773 Fairway Blvd Powell, OH 43065-6947", "City": "Powell", "State": "OH", "Zip": "43065-6947", "AddressLine1": "9773 Fairway Blvd", "AddressLine2": "", "Distance": 12.9, "Latitude": 40.15738, "Longitude": -83.0986}, {"Sequence": 35, "PersonId": 62643, "AddressId": 1403148, "Specialty": "Endodontics", "Photo": "findadentist.ada.org/Images/Profile/62643-Dr-Jennifer-Willett.png", "Name": "Dr Jennifer W Willett", "Email": "", "Phone": "(614) 850-9636", "Address": "3827 Trueman Ct Hilliard, OH 43026-2496", "City": "Hilliard", "State": "OH", "Zip": "43026-2496", "AddressLine1": "3827 Trueman Ct", "AddressLine2": "", "Distance": 13.6, "Latitude": 40.03735, "Longitude": -83.12052}, {"Sequence": 36, "PersonId": 62568, "AddressId": 2970078, "Specialty": "Pediatric Dentistry", "Photo": "findadentist.ada.org/Images/Profile/62568-Dr-Robert-Haring.png", "Name": "Dr Robert S Haring", "Email": "", "Phone": "(614) 761-3361", "Address": "4395 W Dublin Granville Rd Dublin, OH 43017-2041", "City": "Dublin", "State": "OH", "Zip": "43017-2041", "AddressLine1": "4395 W Dublin Granville Rd", "AddressLine2": "", "Distance": 12.5, "Latitude": 40.09959, "Longitude": -83.1096}, {"Sequence": 37, "PersonId": 341587, "AddressId": 3384578, "Specialty": "General Practice", "Photo": "findadentist.ada.org/Images/Profile/341587-Dr-Greg-Beers.png", "Name": "Dr Gregory S Beers", "Email": "drbeers@advanceddentalcolumbus.com", "Phone": "(614) 267-5413", "Address": "4501 North High St Columbus, OH 43214", "City": "Columbus", "State": "OH", "Zip": "43214", "AddressLine1": "4501 North High St", "AddressLine2": "", "Distance": 17.9, "Latitude": 40.05394, "Longitude": -83.02036}, {"Sequence": 38, "PersonId": 62491, "AddressId": 1402996, "Specialty": "General Practice", "Photo": "findadentist.ada.org/Images/Profile/62491-Dr-Nicholas-Raptou.png", "Name": "Dr Nicholas P Raptou", "Email": "news@raptou.com", "Phone": "(614) 433-7272", "Address": "136 Northwoods Blvd Ste A1 Columbus, OH 43235-4728", "City": "Columbus", "State": "OH", "Zip": "43235-4728", "AddressLine1": "136 Northwoods Blvd Ste A1", "AddressLine2": "", "Distance": 17.0, "Latitude": 40.12706, "Longitude": -83.01927}, {"Sequence": 39, "PersonId": 129785, "AddressId": 1470290, "Specialty": "General Practice", "Photo": "findadentist.ada.org/Images/Profile/129785-Dr-James-Lapierre.png", "Name": "Dr. James M Lapierre", "Email": "", "Phone": "(614) 889-1133", "Address": "40 N High St Dublin, OH 43017-1131", "City": "Dublin", "State": "OH", "Zip": "43017-1131", "AddressLine1": "40 N High St", "AddressLine2": "", "Distance": 12.3, "Latitude": 40.10052, "Longitude": -83.11357}, {"Sequence": 40, "PersonId": 64327, "AddressId": 2725286, "Specialty": "General Practice", "Photo": "findadentist.ada.org/Images/Profile/64327-Dr-Gary-Kennedy.png", "Name": "Dr Gary A Kennedy", "Email": "", "Phone": "(937) 642-3434", "Address": "202 E 5th St Marysville, OH 43040-1261", "City": "Marysville", "State": "OH", "Zip": "43040-1261", "AddressLine1": "202 E 5th St", "AddressLine2": "", "Distance": 6.9, "Latitude": 40.23632, "Longitude": -83.36551}, {"Sequence": 41, "PersonId": 194370, "AddressId": 1534875, "Specialty": "General Practice", "Photo": "findadentist.ada.org/Images/Profile/194370-Dr-Ali-Khaksarfard.png", "Name": "Dr. Ali R Khaksarfard", "Email": "fdclondon@yahoo.com", "Phone": "(740) 852-7741", "Address": "391 Lafayette St London, OH 43140-9326", "City": "London", "State": "OH", "Zip": "43140-9326", "AddressLine1": "391 Lafayette St", "AddressLine2": null, "Distance": 17.8, "Latitude": 39.89324, "Longitude": -83.44285}, {"Sequence": 42, "PersonId": 61878, "AddressId": 1402383, "Specialty": "Prosthodontics", "Photo": "findadentist.ada.org/Images/Profile/61878-Dr-Douglas-Goff.png", "Name": "Dr Douglas W Goff", "Email": "info@gilbertandgoff.com", "Phone": "(614) 451-1300", "Address": "3360 Tremont Rd Upper Arlington, OH 43221-2111", "City": "Upper Arlington", "State": "OH", "Zip": "43221-2111", "AddressLine1": "3360 Tremont Rd", "AddressLine2": "Ste 120", "Distance": 16.9, "Latitude": 40.02571, "Longitude": -83.05644}, {"Sequence": 43, "PersonId": 62550, "AddressId": 2690686, "Specialty": "Oral and Maxillofacial Surgery", "Photo": "findadentist.ada.org/Images/Profile/62550-Dr-Clifford-Cook.png", "Name": "Dr Clifford A Cook", "Email": "", "Phone": null, "Address": "4607 Leap Ct Hilliard, OH 43026-1174", "City": "Hilliard", "State": "OH", "Zip": "43026-1174", "AddressLine1": "4607 Leap Ct", "AddressLine2": "", "Distance": 12.9, "Latitude": 40.03462, "Longitude": -83.13923}, {"Sequence": 44, "PersonId": 217506, "AddressId": 3050568, "Specialty": "General Practice", "Photo": "findadentist.ada.org/Images/Profile/217506-Dr-Vishal-Chitkara.png", "Name": "Dr. Vishal K Chitkara", "Email": "", "Phone": "(614) 486-7378", "Address": "1220 Grandview Ave Columbus, OH 43212-3437", "City": "Columbus", "State": "OH", "Zip": "43212-3437", "AddressLine1": "1220 Grandview Ave", "AddressLine2": "", "Distance": 19.0, "Latitude": 39.98256, "Longitude": -83.04469}, {"Sequence": 45, "PersonId": 231954, "AddressId": 1572459, "Specialty": "Orthodontics and Dentofacial Orthopedics", "Photo": "findadentist.ada.org/Images/Profile/231954-Dr-Aaron-Rose.png", "Name": "Dr. Aaron K Rose", "Email": "", "Phone": "(614) 761-9777", "Address": "1677 Aniko Ave Lewis Center, OH 43035-7941", "City": "Lewis Center", "State": "OH", "Zip": "43035-7941", "AddressLine1": "1677 Aniko Ave", "AddressLine2": "", "Distance": 17.4, "Latitude": 40.1203, "Longitude": -83.01208}, {"Sequence": 46, "PersonId": 131355, "AddressId": 1471860, "Specialty": "Orthodontics and Dentofacial Orthopedics", "Photo": "findadentist.ada.org/Images/Profile/131355-Dr-James-Homon.png", "Name": "Dr. James A Homon", "Email": "", "Phone": "(614) 932-9356", "Address": "10401 Sawmill Pkwy Ste 50 Powell, OH 43065-7451", "City": "Powell", "State": "OH", "Zip": "43065-7451", "AddressLine1": "10401 Sawmill Pkwy Ste 50", "AddressLine2": null, "Distance": 13.2, "Latitude": 40.14522, "Longitude": -83.09195}, {"Sequence": 47, "PersonId": 131351, "AddressId": 1471856, "Specialty": "Periodontics", "Photo": "findadentist.ada.org/Images/Profile/131351-Dr-Horst-Stehle.png", "Name": "Dr. Horst W Stehle", "Email": "", "Phone": "(614) 451-5201", "Address": "3600 Olentangy River Rd Ste 500A Columbus, OH 43214-3437", "City": "Columbus", "State": "OH", "Zip": "43214-3437", "AddressLine1": "3600 Olentangy River Rd Ste 500A", "AddressLine2": "", "Distance": 17.9, "Latitude": 40.03344, "Longitude": -83.03101}, {"Sequence": 48, "PersonId": 62589, "AddressId": 1403094, "Specialty": "General Practice", "Photo": "findadentist.ada.org/Images/Profile/62589-Dr-Daryl-Lechner.png", "Name": "Dr Daryl M Lechner", "Email": "lechner@midohio.twcbc.com", "Phone": "(740) 363-8240", "Address": "1860 Castleton Way Delaware, OH 43015-1372", "City": "Delaware", "State": "OH", "Zip": "43015-1372", "AddressLine1": "1860 Castleton Way", "AddressLine2": "", "Distance": 16.9, "Latitude": 40.31032, "Longitude": -83.11201}, {"Sequence": 49, "PersonId": 62586, "AddressId": 1403091, "Specialty": "General Practice", "Photo": "findadentist.ada.org/Images/Profile/62586-Dr-Nicholas-Schooley.png", "Name": "Dr Nicholas D Schooley", "Email": "office@koutrasandschooleydental.com", "Phone": "(614) 294-4007", "Address": "1275 Olentangy River Rd Columbus, OH 43212-3119", "City": "Columbus", "State": "OH", "Zip": "43212-3119", "AddressLine1": "1275 Olentangy River Rd", "AddressLine2": "", "Distance": 19.8, "Latitude": 39.98617, "Longitude": -83.02457}, {"Sequence": 50, "PersonId": 62561, "AddressId": 1403066, "Specialty": "General Practice", "Photo": "findadentist.ada.org/Images/Profile/62561-Dr-Duke-Rakich.png", "Name": "Dr Duke M Rakich", "Email": "", "Phone": "(614) 761-3853", "Address": "9984 Brewster Ln Ste 100 Powell, OH 43065-7281", "City": "Powell", "State": "OH", "Zip": "43065-7281", "AddressLine1": "9984 Brewster Ln Ste 100", "AddressLine2": "", "Distance": 13.1, "Latitude": 40.15339, "Longitude": -83.09404}, {"Sequence": 51, "PersonId": 351390, "AddressId": 3493046, "Specialty": "General Practice", "Photo": "findadentist.ada.org/Images/Profile/351390-Dr-Alexis-Wang.png", "Name": "Dr. Alexis Wang", "Email": "", "Phone": "(937) 644-1311", "Address": "110 Morey Drive Marysville, OH 43040", "City": "Marysville", "State": "OH", "Zip": "43040", "AddressLine1": "110 Morey Drive", "AddressLine2": "", "Distance": 6.4, "Latitude": 40.22796, "Longitude": -83.36948}, {"Sequence": 52, "PersonId": 151438, "AddressId": 1491943, "Specialty": "General Practice", "Photo": "findadentist.ada.org/Images/Profile/151438-Dr-Janet-Wolery.png", "Name": "Dr. Janet K Wolery", "Email": "", "Phone": "(740) 369-1953", "Address": "695 W Central Ave Ste B Delaware, OH 43015-1587", "City": "Delaware", "State": "OH", "Zip": "43015-1587", "AddressLine1": "695 W Central Ave Ste B", "AddressLine2": "", "Distance": 17.5, "Latitude": 40.30633, "Longitude": -83.09263}, {"Sequence": 53, "PersonId": 204474, "AddressId": 1544979, "Specialty": "Oral and Maxillofacial Surgery", "Photo": "findadentist.ada.org/Images/Profile/204474-Dr-Greg-Rekos.png", "Name": "Dr. Greg A Rekos", "Email": "", "Phone": "(614) 764-9455", "Address": "5155 Bradenton Ave Ste 100 Dublin, OH 43017-7559", "City": "Dublin", "State": "OH", "Zip": "43017-7559", "AddressLine1": "5155 Bradenton Ave Ste 100", "AddressLine2": "", "Distance": 12.0, "Latitude": 40.07995, "Longitude": -83.12731}, {"Sequence": 54, "PersonId": 239909, "AddressId": 3305889, "Specialty": "General Practice", "Photo": "findadentist.ada.org/Images/Profile/239909-Dr-Clifford-Moore.png", "Name": "Dr. Clifford W Moore", "Email": "info@MooreDentalLewisCenter.com", "Phone": "(740) 548-5100", "Address": "6421 Pullman Dr. Lewis Center, OH 43035", "City": "Lewis Center", "State": "OH", "Zip": "43035", "AddressLine1": "6421 Pullman Dr.", "AddressLine2": "", "Distance": 17.2, "Latitude": 40.20194, "Longitude": -83.02645}, {"Sequence": 55, "PersonId": 62815, "AddressId": 1403320, "Specialty": "Orthodontics and Dentofacial Orthopedics", "Photo": "findadentist.ada.org/Images/Profile/62815-Dr-Catherine-Scheurer McDevitt.png", "Name": "Dr Catherine Scheurer McDevitt", "Email": "info@awsortho.com", "Phone": "(614) 888-8070", "Address": "7100 N High St Ste 105 Worthington, OH 43085-2316", "City": "Worthington", "State": "OH", "Zip": "43085-2316", "AddressLine1": "7100 N High St Ste 105", "AddressLine2": "", "Distance": 17.3, "Latitude": 40.10602, "Longitude": -83.01617}, {"Sequence": 56, "PersonId": 220318, "AddressId": 2791303, "Specialty": "General Practice", "Photo": "findadentist.ada.org/Images/Profile/220318-Dr-Kyle-Bogan.png", "Name": "Dr. Kyle D Bogan", "Email": "info@northorangefamilydentistry.com", "Phone": "(740) 548-1800", "Address": "7420 Gooding Blvd Ste 200 Delaware, OH 43015-7086", "City": "Delaware", "State": "OH", "Zip": "43015-7086", "AddressLine1": "7420 Gooding Blvd Ste 200", "AddressLine2": "", "Distance": 16.9, "Latitude": 40.18562, "Longitude": -83.0271}, {"Sequence": 57, "PersonId": 123795, "AddressId": 2792173, "Specialty": "General Practice", "Photo": "findadentist.ada.org/Images/Profile/123795-Dr-Donald-Zeleznik.png", "Name": "Dr. Donald Zeleznik", "Email": "", "Phone": "(614) 321-8505", "Address": "3844 Hard Rd Dublin, OH 43016-8025", "City": "Dublin", "State": "OH", "Zip": "43016-8025", "AddressLine1": "3844 Hard Rd", "AddressLine2": "", "Distance": 13.2, "Latitude": 40.11952, "Longitude": -83.09243}, {"Sequence": 58, "PersonId": 268337, "AddressId": 3318532, "Specialty": "General Practice", "Photo": "findadentist.ada.org/Images/Profile/268337-Dr-Nathan-Desai.png", "Name": "Dr. Nathan B Desai", "Email": "", "Phone": null, "Address": "5212 W Broad St Columbus, OH 43228-1642", "City": "Columbus", "State": "OH", "Zip": "43228-1642", "AddressLine1": "5212 W Broad St", "AddressLine2": "", "Distance": 16.7, "Latitude": 39.95212, "Longitude": -83.13989}, {"Sequence": 59, "PersonId": 62538, "AddressId": 1403043, "Specialty": "General Practice", "Photo": "findadentist.ada.org/Images/Profile/62538-Dr-Samuel-Smiley.png", "Name": "Dr Samuel E Smiley", "Email": "ssmiley@smileydentalgroup.com", "Phone": "(614) 889-0726", "Address": "5156 Blazer Pkwy Ste 200 Dublin, OH 43017-7318", "City": "Dublin", "State": "OH", "Zip": "43017-7318", "AddressLine1": "5156 Blazer Pkwy Ste 200", "AddressLine2": "", "Distance": 11.7, "Latitude": 40.0909, "Longitude": -83.12833}, {"Sequence": 60, "PersonId": 233795, "AddressId": 2831247, "Specialty": "Pediatric Dentistry", "Photo": "findadentist.ada.org/Images/Profile/233795-Dr-Monica-Patel.png", "Name": "Dr. Monica R Patel", "Email": "info@oneltangypediatricdentistry.com", "Phone": "(614) 433-7474", "Address": "45 Clairedan Dr Powell, OH 43065-8064", "City": "Powell", "State": "OH", "Zip": "43065-8064", "AddressLine1": "45 Clairedan Dr", "AddressLine2": "", "Distance": 14.0, "Latitude": 40.16754, "Longitude": -83.07817}, {"Sequence": 61, "PersonId": 197102, "AddressId": 2751857, "Specialty": "General Practice", "Photo": "findadentist.ada.org/Images/Profile/197102-Dr-Kent-Hawkins.png", "Name": "Dr. Kent R Hawkins", "Email": "", "Phone": "(937) 642-0040", "Address": "730 Milford Ave Marysville, OH 43040-1403", "City": "Marysville", "State": "OH", "Zip": "43040-1403", "AddressLine1": "730 Milford Ave", "AddressLine2": "", "Distance": 6.4, "Latitude": 40.22805, "Longitude": -83.37361}, {"Sequence": 62, "PersonId": 62408, "AddressId": 2752699, "Specialty": "General Practice", "Photo": "findadentist.ada.org/Images/Profile/62408-Dr-Lawrence-Hughes.png", "Name": "Dr Lawrence E Hughes, Jr.", "Email": "", "Phone": "(614) 268-5250", "Address": "4345 N High St Columbus, OH 43214-2611", "City": "Columbus", "State": "OH", "Zip": "43214-2611", "AddressLine1": "4345 N High St", "AddressLine2": "", "Distance": 18.0, "Latitude": 40.05072, "Longitude": -83.02049}, {"Sequence": 63, "PersonId": 62715, "AddressId": 1403220, "Specialty": "General Practice", "Photo": "findadentist.ada.org/Images/Profile/62715-Dr-Mary-Kalec.png", "Name": "Dr Mary E Kalec", "Email": "office@rchapmandds.com", "Phone": "(614) 888-3393", "Address": "885 High St Worthington, OH 43085-4158", "City": "Worthington", "State": "OH", "Zip": "43085-4158", "AddressLine1": "885 High St", "AddressLine2": "", "Distance": 17.4, "Latitude": 40.09183, "Longitude": -83.01793}, {"Sequence": 64, "PersonId": 194345, "AddressId": 3489529, "Specialty": "General Practice", "Photo": "findadentist.ada.org/Images/Profile/194345-Dr-Jennifer-Conroy.png", "Name": "Dr. Jennifer A Conroy", "Email": "obrienconroy@gmail.com", "Phone": "(614) 717-3500", "Address": "6790 Perimeter Dr Ste 100 Dublin, OH 43016-8050", "City": "Dublin", "State": "OH", "Zip": "43016-8050", "AddressLine1": "6790 Perimeter Dr Ste 100", "AddressLine2": "", "Distance": 9.3, "Latitude": 40.10638, "Longitude": -83.16932}, {"Sequence": 65, "PersonId": 220337, "AddressId": 1560842, "Specialty": "General Practice", "Photo": "findadentist.ada.org/Images/Profile/220337-Dr-Natalie-Fisher.png", "Name": "Dr. Natalie K Fisher", "Email": "", "Phone": "(614) 457-6649", "Address": "1151 Bethel Rd Ste 304 Columbus, OH 43220-2775", "City": "Columbus", "State": "OH", "Zip": "43220-2775", "AddressLine1": "1151 Bethel Rd Ste 304", "AddressLine2": "", "Distance": 16.3, "Latitude": 40.06301, "Longitude": -83.04953}, {"Sequence": 66, "PersonId": 60868, "AddressId": 1401373, "Specialty": "General Practice", "Photo": "findadentist.ada.org/Images/Profile/60868-Dr-Canise-Bean.png", "Name": "Dr Canise Y Bean", "Email": "DFPAPPT@osu.edu", "Phone": "(614) 688-5567", "Address": "305 W 12th Ave # 3153 Columbus, OH 43210-1267", "City": "Columbus", "State": "OH", "Zip": "43210-1267", "AddressLine1": "305 W 12th Ave # 3153", "AddressLine2": "", "Distance": 19.8, "Latitude": 39.99613, "Longitude": -83.01614}, {"Sequence": 67, "PersonId": 131375, "AddressId": 1471880, "Specialty": "Orthodontics and Dentofacial Orthopedics", "Photo": "findadentist.ada.org/Images/Profile/131375-Dr-Kent-Underwood.png", "Name": "Dr. Kent M Underwood", "Email": "", "Phone": "(614) 761-9777", "Address": "10220 Sawmill Pkwy Powell, OH 43065-9189", "City": "Powell", "State": "OH", "Zip": "43065-9189", "AddressLine1": "10220 Sawmill Pkwy", "AddressLine2": "", "Distance": 13.0, "Latitude": 40.14885, "Longitude": -83.09506}, {"Sequence": 68, "PersonId": 62771, "AddressId": 3449150, "Specialty": "General Practice", "Photo": "findadentist.ada.org/Images/Profile/62771-Dr-Vincent-Donatelli.png", "Name": "Dr. Vincent A Donatelli", "Email": "emily@archcitydental.com", "Phone": "(614) 832-3424", "Address": "891 Yard Street Grandview Heights, OH 43212", "City": "Grandview Heights", "State": "OH", "Zip": "43212", "AddressLine1": "891 Yard Street", "AddressLine2": "", "Distance": 20.0, "Latitude": 39.97864, "Longitude": -83.02647}, {"Sequence": 69, "PersonId": 263439, "AddressId": 2987423, "Specialty": "General Practice", "Photo": "findadentist.ada.org/Images/Profile/263439-Dr-Monica-Monfredi.png", "Name": "Dr. Monica M Monfredi", "Email": "Drmonica@monfredifamilydental.com", "Phone": "(614) 878-3636", "Address": "5610 Hall Rd Galloway, OH 43119-8204", "City": "Galloway", "State": "OH", "Zip": "43119-8204", "AddressLine1": "5610 Hall Rd", "AddressLine2": "Monfredi Family Dental Llc", "Distance": 16.7, "Latitude": 39.95212, "Longitude": -83.13989}, {"Sequence": 70, "PersonId": 62806, "AddressId": 3172471, "Specialty": "General Practice", "Photo": "findadentist.ada.org/Images/Profile/62806-Dr-James-Butler.png", "Name": "James E Butler, DMD", "Email": "jen@idismile.com", "Phone": "(614) 529-0062", "Address": "3535 Fishinger Blvd Ste 260 Hilliard, OH 43026-7500", "City": "Hilliard", "State": "OH", "Zip": "43026-7500", "AddressLine1": "3535 Fishinger Blvd Ste 260", "AddressLine2": "", "Distance": 14.4, "Latitude": 40.02695, "Longitude": -83.11029}, {"Sequence": 71, "PersonId": 269660, "AddressId": 3090858, "Specialty": "General Practice", "Photo": "findadentist.ada.org/Images/Profile/269660-Dr-Marta-Strembitsky.png", "Name": "Dr. Marta Strembitsky", "Email": "", "Phone": null, "Address": "18 S Main St Mechanicsburg, OH 43044-1111", "City": "Mechanicsburg", "State": "OH", "Zip": "43044-1111", "AddressLine1": "18 S Main St", "AddressLine2": "", "Distance": 12.2, "Latitude": 40.07171, "Longitude": -83.55534}, {"Sequence": 72, "PersonId": 194335, "AddressId": 2756422, "Specialty": "General Practice", "Photo": "findadentist.ada.org/Images/Profile/194335-Dr-Stephanie-Briggs.png", "Name": "Dr. Stephanie D Briggs", "Email": "", "Phone": "(614) 436-6445", "Address": "1120 Polaris Pkwy Ste 130 Columbus, OH 43240-4042", "City": "Columbus", "State": "OH", "Zip": "43240-4042", "AddressLine1": "1120 Polaris Pkwy Ste 130", "AddressLine2": "", "Distance": 18.6, "Latitude": 40.14468, "Longitude": -82.98934}, {"Sequence": 73, "PersonId": 131230, "AddressId": 3390673, "Specialty": "General Practice", "Photo": "findadentist.ada.org/Images/Profile/131230-Dr-Michelle-Lancour.png", "Name": "Dr. Michelle M Lancour", "Email": "info@michellelancourdds.com", "Phone": "(614) 764-0606", "Address": "5880 Sawmill Rd Ste 100 Dublin, OH 43017-1592", "City": "Dublin", "State": "OH", "Zip": "43017-1592", "AddressLine1": "5880 Sawmill Rd Ste 100", "AddressLine2": "", "Distance": 13.7, "Latitude": 40.08751, "Longitude": -83.09031}, {"Sequence": 74, "PersonId": 62656, "AddressId": 3447385, "Specialty": "General Practice", "Photo": "findadentist.ada.org/Images/Profile/62656-Dr-Jennifer-Miller.png", "Name": "Dr Jennifer D Miller", "Email": "JENNIFERDUNNMILERDDS@GMAIL.COM", "Phone": "(614) 404-8857", "Address": "5880 Sawmill Rd Suite 100 Dublin, OH 43017-1592", "City": "Dublin", "State": "OH", "Zip": "43017-1592", "AddressLine1": "5880 Sawmill Rd Suite 100", "AddressLine2": "", "Distance": 13.7, "Latitude": 40.08751, "Longitude": -83.09031}, {"Sequence": 75, "PersonId": 62287, "AddressId": 1402792, "Specialty": "Orthodontics and Dentofacial Orthopedics", "Photo": "findadentist.ada.org/Images/Profile/62287-Dr-Dennis-Johnson.png", "Name": "Dr Dennis L Johnson", "Email": "djortho1900@aol.com", "Phone": "(614) 451-1402", "Address": "1900 Crown Park Ct Columbus, OH 43235-2407", "City": "Columbus", "State": "OH", "Zip": "43235-2407", "AddressLine1": "1900 Crown Park Ct", "AddressLine2": "", "Distance": 15.2, "Latitude": 40.06533, "Longitude": -83.06904}, {"Sequence": 76, "PersonId": 217538, "AddressId": 3555305, "Specialty": "General Practice", "Photo": "findadentist.ada.org/Images/Profile/217538-Dr-Tia-Moran.png", "Name": "Dr. Tia Jean-Moran", "Email": "info@knightsbridgedental.com", "Phone": "(614) 824-5454", "Address": "4775 Knightsbridge Blvd. Columbus, OH 43214", "City": "Columbus", "State": "OH", "Zip": "43214", "AddressLine1": "4775 Knightsbridge Blvd.", "AddressLine2": "Suite #101", "Distance": 16.8, "Latitude": 40.05856, "Longitude": -83.04037}, {"Sequence": 77, "PersonId": 62648, "AddressId": 2761823, "Specialty": "Endodontics", "Photo": "findadentist.ada.org/Images/Profile/62648-Dr-Bradley-Karkut.png", "Name": "Dr Bradley P Karkut", "Email": "", "Phone": "(740) 363-1844", "Address": "12 Lexington Blvd. Delaware, OH 43015", "City": "Delaware", "State": "OH", "Zip": "43015", "AddressLine1": "12 Lexington Blvd.", "AddressLine2": "", "Distance": 17.3, "Latitude": 40.30915, "Longitude": -83.09991}, {"Sequence": 78, "PersonId": 62606, "AddressId": 3382787, "Specialty": "General Practice", "Photo": "findadentist.ada.org/Images/Profile/62606-Dr-David-Dixon.png", "Name": "Dr David A Dixon", "Email": "info@columbusfamilydentalcare.com", "Phone": "(614) 878-1397", "Address": "1645 Holt Road Columbus, OH 43228-3776", "City": "Columbus", "State": "OH", "Zip": "43228-3776", "AddressLine1": "1645 Holt Road", "AddressLine2": "", "Distance": 19.1, "Latitude": 39.91854, "Longitude": -83.12221}, {"Sequence": 79, "PersonId": 62583, "AddressId": 1403088, "Specialty": "General Practice", "Photo": "findadentist.ada.org/Images/Profile/62583-Dr-John-Folk.png", "Name": "Dr John S Folk", "Email": "Staff@riverglendental.onmicrosoft.com", "Phone": "(614) 885-0227", "Address": "7720 Rivers Edge Dr Ste 100 Columbus, OH 43235-1361", "City": "Columbus", "State": "OH", "Zip": "43235-1361", "AddressLine1": "7720 Rivers Edge Dr Ste 100", "AddressLine2": "", "Distance": 16.3, "Latitude": 40.12267, "Longitude": -83.03382}, {"Sequence": 80, "PersonId": 269667, "AddressId": 3497933, "Specialty": "General Practice", "Photo": "findadentist.ada.org/Images/Profile/269667-Dr-Tyler-Wenger.png", "Name": "Dr. Tyler N Wenger", "Email": "", "Phone": "(614) 878-1188", "Address": "98 N Murray Hill Rd Columbus, OH 43228-1524", "City": "Columbus", "State": "OH", "Zip": "43228-1524", "AddressLine1": "98 N Murray Hill Rd", "AddressLine2": "", "Distance": 17.0, "Latitude": 39.95456, "Longitude": -83.1287}, {"Sequence": 81, "PersonId": 205298, "AddressId": 1545803, "Specialty": "General Practice", "Photo": "findadentist.ada.org/Images/Profile/205298-Dr-Chad-Cacchio.png", "Name": "Dr. Chad N Cacchio", "Email": "", "Phone": "(614) 488-1313", "Address": "1700 W Lane Ave Ste 100 Columbus, OH 43221-1169", "City": "Columbus", "State": "OH", "Zip": "43221-1169", "AddressLine1": "1700 W Lane Ave Ste 100", "AddressLine2": "", "Distance": 17.6, "Latitude": 40.00752, "Longitude": -83.05619}, {"Sequence": 82, "PersonId": 62614, "AddressId": 3522347, "Specialty": "General Practice", "Photo": "findadentist.ada.org/Images/Profile/62614-Dr-Robin-Ford.png", "Name": "Dr Robin C Ford", "Email": "fordfamilydental@aol.com", "Phone": "(614) 761-1974", "Address": "6890 Perimeter Drive Dublin, OH 43016-8047", "City": "Dublin", "State": "OH", "Zip": "43016-8047", "AddressLine1": "6890 Perimeter Drive", "AddressLine2": "", "Distance": 9.1, "Latitude": 40.10722, "Longitude": -83.17318}, {"Sequence": 83, "PersonId": 194343, "AddressId": 3397296, "Specialty": "General Practice", "Photo": "findadentist.ada.org/Images/Profile/194343-Dr-Jason-Culley.png", "Name": "Dr. Jason T Culley", "Email": "patientcare@watermarkdental.com", "Phone": "(614) 766-5722", "Address": "114 Charterhouse Ct Powell, OH 43065", "City": "Powell", "State": "OH", "Zip": "43065", "AddressLine1": "114 Charterhouse Ct", "AddressLine2": "", "Distance": 14.8, "Latitude": 40.15527, "Longitude": -83.06129}, {"Sequence": 84, "PersonId": 189841, "AddressId": 3516762, "Specialty": "General Practice", "Photo": "findadentist.ada.org/Images/Profile/189841-Dr-Chao-Yun-Fan.png", "Name": "Dr. Chao-Yun M Fan", "Email": "dublinfamilydental@gmail.com", "Phone": "(614) 761-2600", "Address": "6850 Perimeter Dr. Suite C Dublin, OH 43016", "City": "Dublin", "State": "OH", "Zip": "43016", "AddressLine1": "6850 Perimeter Dr. Suite C", "AddressLine2": "", "Distance": 9.3, "Latitude": 40.10599, "Longitude": -83.17085}, {"Sequence": 85, "PersonId": 210591, "AddressId": 1551096, "Specialty": "Orthodontics and Dentofacial Orthopedics", "Photo": "findadentist.ada.org/Images/Profile/210591-Dr-Elizabeth-Johnson.png", "Name": "Dr. Elizabeth K Johnson", "Email": "", "Phone": "(614) 451-1402", "Address": "1900 Crown Park Ct Ste A Columbus, OH 43235-2407", "City": "Columbus", "State": "OH", "Zip": "43235-2407", "AddressLine1": "1900 Crown Park Ct Ste A", "AddressLine2": "", "Distance": 15.2, "Latitude": 40.06533, "Longitude": -83.06904}, {"Sequence": 86, "PersonId": 220404, "AddressId": 1560909, "Specialty": "General Practice", "Photo": "findadentist.ada.org/Images/Profile/220404-Dr-Katie-Vincer Sears.png", "Name": "Dr. Katie M Vincer Sears", "Email": "", "Phone": "(614) 263-0300", "Address": "4147 N High St Columbus, OH 43214-3001", "City": "Columbus", "State": "OH", "Zip": "43214-3001", "AddressLine1": "4147 N High St", "AddressLine2": "", "Distance": 18.1, "Latitude": 40.04651, "Longitude": -83.02021}, {"Sequence": 87, "PersonId": 243114, "AddressId": 2932597, "Specialty": "Orthodontics and Dentofacial Orthopedics", "Photo": "findadentist.ada.org/Images/Profile/243114-Dr-Luke-Schweiss.png", "Name": "Dr. Luke B Schweiss", "Email": "", "Phone": "(937) 644-8830", "Address": "951 N Maple St Marysville, OH 43040", "City": "Marysville", "State": "OH", "Zip": "43040", "AddressLine1": "951 N Maple St", "AddressLine2": "", "Distance": 7.8, "Latitude": 40.24822, "Longitude": -83.37353}, {"Sequence": 88, "PersonId": 62564, "AddressId": 3162769, "Specialty": "General Practice", "Photo": "findadentist.ada.org/Images/Profile/62564-Dr-Timothy-March.png", "Name": "Dr Timothy O March", "Email": "", "Phone": "(614) 457-6161", "Address": "1580 Fishinger Rd Columbus, OH 43221-2107", "City": "Columbus", "State": "OH", "Zip": "43221-2107", "AddressLine1": "1580 Fishinger Rd", "AddressLine2": "", "Distance": 17.0, "Latitude": 40.0247, "Longitude": -83.05568}, {"Sequence": 89, "PersonId": 61881, "AddressId": 3515579, "Specialty": "Pediatric Dentistry", "Photo": "findadentist.ada.org/Images/Profile/61881-Dr-Sidney-Price.png", "Name": "Dr Sidney D Price", "Email": "front@worthingtonpediatric.com", "Phone": "(614) 888-3212", "Address": "117 Lazelle Rd Ste D Columbus, OH 43235-8605", "City": "Columbus", "State": "OH", "Zip": "43235-8605", "AddressLine1": "117 Lazelle Rd Ste D", "AddressLine2": "", "Distance": 17.3, "Latitude": 40.13608, "Longitude": -83.01289}, {"Sequence": 90, "PersonId": 62550, "AddressId": 2690570, "Specialty": "Oral and Maxillofacial Surgery", "Photo": "findadentist.ada.org/Images/Profile/62550-Dr-Clifford-Cook.png", "Name": "Dr Clifford A Cook", "Email": "", "Phone": null, "Address": "279 Stocksdale Dr Marysville, OH 43040-1563", "City": "Marysville", "State": "OH", "Zip": "43040-1563", "AddressLine1": "279 Stocksdale Dr", "AddressLine2": "", "Distance": 6.3, "Latitude": 40.22736, "Longitude": -83.37171}, {"Sequence": 91, "PersonId": 131895, "AddressId": 1472400, "Specialty": "Oral and Maxillofacial Surgery", "Photo": "findadentist.ada.org/Images/Profile/131895-Dr-Brian-Stern.png", "Name": "Dr. Brian A Stern", "Email": "", "Phone": "(740) 687-1440", "Address": "40 Hidden Ravines Dr Powell, OH 43065-8736", "City": "Powell", "State": "OH", "Zip": "43065-8736", "AddressLine1": "40 Hidden Ravines Dr", "AddressLine2": "", "Distance": 17.0, "Latitude": 40.1708, "Longitude": -83.02216}, {"Sequence": 92, "PersonId": 187789, "AddressId": 1528294, "Specialty": "Oral and Maxillofacial Surgery", "Photo": "findadentist.ada.org/Images/Profile/187789-Dr-Monte-Masonbrink.png", "Name": "Dr. Monte Masonbrink", "Email": "ofsac@sbcglobal.net", "Phone": "(614) 457-9337", "Address": "3705 Olentangy River Rd Ste 200 Columbus, OH 43214-3467", "City": "Columbus", "State": "OH", "Zip": "43214-3467", "AddressLine1": "3705 Olentangy River Rd Ste 200", "AddressLine2": "", "Distance": 17.7, "Latitude": 40.03577, "Longitude": -83.03319}, {"Sequence": 93, "PersonId": 62581, "AddressId": 1403086, "Specialty": "General Practice", "Photo": "findadentist.ada.org/Images/Profile/62581-Dr-Kevin-Young.png", "Name": "Dr Kevin E Young", "Email": "office@dentalgroupatpolaris.com", "Phone": "(614) 888-3692", "Address": "9391 S Old State Rd Lewis Center, OH 43035-8448", "City": "Lewis Center", "State": "OH", "Zip": "43035-8448", "AddressLine1": "9391 S Old State Rd", "AddressLine2": "", "Distance": 18.1, "Latitude": 40.14591, "Longitude": -82.99872}, {"Sequence": 94, "PersonId": 62310, "AddressId": 1402815, "Specialty": "General Practice", "Photo": "findadentist.ada.org/Images/Profile/62310-Dr-Stephen-Brown.png", "Name": "Dr Stephen D Brown", "Email": "", "Phone": "(614) 436-6444", "Address": "39 Green Meadows Dr S Lewis Center, OH 43035-9455", "City": "Lewis Center", "State": "OH", "Zip": "43035-9455", "AddressLine1": "39 Green Meadows Dr S", "AddressLine2": "", "Distance": 17.1, "Latitude": 40.15235, "Longitude": -83.01732}, {"Sequence": 95, "PersonId": 62631, "AddressId": 3519406, "Specialty": "Dental Public Health", "Photo": "findadentist.ada.org/Images/Profile/62631-Dr-Jacinto-Beard.png", "Name": "Dr Jacinto W Beard", "Email": "", "Phone": "(614) 447-2244", "Address": "4536 Karl Rd Columbus, OH 43224-5504", "City": "Columbus", "State": "OH", "Zip": "43224-5504", "AddressLine1": "4536 Karl Rd", "AddressLine2": "", "Distance": 20.0, "Latitude": 40.05954, "Longitude": -82.97699}, {"Sequence": 96, "PersonId": 62624, "AddressId": 1403129, "Specialty": "General Practice", "Photo": "findadentist.ada.org/Images/Profile/62624-Dr-John-Koutras.png", "Name": "Dr John D Koutras", "Email": "office@koutrasandschooleydental.com", "Phone": "(614) 294-4007", "Address": "1275 Olentangy River Rd Ste 200 Columbus, OH 43212-3119", "City": "Columbus", "State": "OH", "Zip": "43212-3119", "AddressLine1": "1275 Olentangy River Rd Ste 200", "AddressLine2": "", "Distance": 19.8, "Latitude": 39.98617, "Longitude": -83.02457}, {"Sequence": 97, "PersonId": 131495, "AddressId": 1472000, "Specialty": "Periodontics", "Photo": "findadentist.ada.org/Images/Profile/131495-Dr-Jason-Stoner.png", "Name": "Dr. Jason C Stoner", "Email": "info@stonerperio.com", "Phone": "(614) 889-8222", "Address": "5152 Blazer Pkwy Ste 100 Dublin, OH 43017-7323", "City": "Dublin", "State": "OH", "Zip": "43017-7323", "AddressLine1": "5152 Blazer Pkwy Ste 100", "AddressLine2": "", "Distance": 11.7, "Latitude": 40.0905, "Longitude": -83.1287}, {"Sequence": 98, "PersonId": 62588, "AddressId": 3429816, "Specialty": "General Practice", "Photo": "findadentist.ada.org/Images/Profile/62588-Dr-Barbara-Mc Clatchie.png", "Name": "Dr. Barbara L Mc Clatchie", "Email": "office@macclatchiedds.com", "Phone": "(614) 885-3602", "Address": "350 W Wilson Bridge Rd Ste 320 Worthington, OH 43085-2217", "City": "Worthington", "State": "OH", "Zip": "43085-2217", "AddressLine1": "350 W Wilson Bridge Rd Ste 320", "AddressLine2": "", "Distance": 16.8, "Latitude": 40.11126, "Longitude": -83.02461}, {"Sequence": 99, "PersonId": 111409, "AddressId": 3509773, "Specialty": "Orthodontics and Dentofacial Orthopedics", "Photo": "findadentist.ada.org/Images/Profile/111409-Dr-Charles-Reed.png", "Name": "Dr. Charles R Reed", "Email": "", "Phone": "(740) 816-2274", "Address": "1453 Wren Ln Powell, OH 43065-8954", "City": "Powell", "State": "OH", "Zip": "43065-8954", "AddressLine1": "1453 Wren Ln", "AddressLine2": "", "Distance": 15.4, "Latitude": 40.17421, "Longitude": -83.05265}, {"Sequence": 100, "PersonId": 351302, "AddressId": 3443958, "Specialty": "General Practice", "Photo": "findadentist.ada.org/Images/Profile/351302-Dr-Michael-Cook.png", "Name": "Dr. Michael V Cook", "Email": "mary@camelotdentalgroup.com", "Phone": "(614) 451-5115", "Address": "5005 Horizons Dr Ste 110 Columbus, OH 43220-5293", "City": "Columbus", "State": "OH", "Zip": "43220-5293", "AddressLine1": "5005 Horizons Dr Ste 110", "AddressLine2": "", "Distance": 13.7, "Latitude": 40.06186, "Longitude": -83.10229}]