[{"Sequence": 1, "PersonId": 131656, "AddressId": 3409025, "Specialty": "Oral and Maxillofacial Surgery", "Photo": "findadentist.ada.org/Images/Profile/131656-Dr-Jeffery-Lee.png", "Name": "Dr. Jeffery S Lee", "Email": "", "Phone": "(740) 432-8768", "Address": "7297 Glenn Hwy Cambridge, OH 43725-9034", "City": "Cambridge", "State": "OH", "Zip": "43725-9034", "AddressLine1": "7297 Glenn Hwy", "AddressLine2": "", "Distance": 12.6, "Latitude": 40.02401, "Longitude": -81.60797}, {"Sequence": 2, "PersonId": 194349, "AddressId": 3549073, "Specialty": "General Practice", "Photo": "findadentist.ada.org/Images/Profile/194349-Dr-Kimberly-Farahay.png", "Name": "Dr. Kimberly Q Farahay", "Email": "russ@drfarahay.com", "Phone": "(740) 439-1204", "Address": "522 Wheeling Ave. Cambridge, OH 43725-2528", "City": "Cambridge", "State": "OH", "Zip": "43725-2528", "AddressLine1": "522 Wheeling Ave.", "AddressLine2": "", "Distance": 11.9, "Latitude": 40.02469, "Longitude": -81.59421}, {"Sequence": 3, "PersonId": 64555, "AddressId": 1405060, "Specialty": "General Practice", "Photo": "findadentist.ada.org/Images/Profile/64555-Dr-Joseph-Fanti.png", "Name": "Dr Joseph T Fanti Jr", "Email": "", "Phone": "(740) 432-2002", "Address": "1454 Clark St Cambridge, OH 43725-9617", "City": "Cambridge", "State": "OH", "Zip": "43725-9617", "AddressLine1": "1454 Clark St", "AddressLine2": "", "Distance": 11.2, "Latitude": 40.04127, "Longitude": -81.57621}, {"Sequence": 4, "PersonId": 220334, "AddressId": 1560839, "Specialty": "General Practice", "Photo": "findadentist.ada.org/Images/Profile/220334-Dr-Eileen-Farahay.png", "Name": "Dr. Eileen A Farahay", "Email": "russ@drfarahay.com", "Phone": "(740) 439-1204", "Address": "220 Highland Ave Cambridge, OH 43725-2528", "City": "Cambridge", "State": "OH", "Zip": "43725-2528", "AddressLine1": "220 Highland Ave", "AddressLine2": "", "Distance": 11.3, "Latitude": 40.02514, "Longitude": -81.58286}, {"Sequence": 5, "PersonId": 64598, "AddressId": 2875359, "Specialty": "General Practice", "Photo": "findadentist.ada.org/Images/Profile/64598-Dr-Denise-Antalis.png", "Name": "Dr Denise M Antalis", "Email": "contactus@ohiosmiles.com", "Phone": "(740) 439-2501", "Address": "1500 Deerpath Dr Cambridge, OH 43725-9240", "City": "Cambridge", "State": "OH", "Zip": "43725-9240", "AddressLine1": "1500 Deerpath Dr", "AddressLine2": "", "Distance": 11.4, "Latitude": 40.04798, "Longitude": -81.5778}, {"Sequence": 6, "PersonId": 214443, "AddressId": 1554948, "Specialty": "General Practice", "Photo": "findadentist.ada.org/Images/Profile/214443-Dr-Gregory-Harris.png", "Name": "Dr. Gregory V Harris", "Email": "", "Phone": "(740) 439-4799", "Address": "1109 Woodlawn Ave Cambridge, OH 43725-3025", "City": "Cambridge", "State": "OH", "Zip": "43725-3025", "AddressLine1": "1109 Woodlawn Ave", "AddressLine2": "", "Distance": 11.1, "Latitude": 40.01272, "Longitude": -81.58232}, {"Sequence": 7, "PersonId": 197158, "AddressId": 2751865, "Specialty": "General Practice", "Photo": "findadentist.ada.org/Images/Profile/197158-Dr-Darcy-Wakefield.png", "Name": "Dr. Darcy A Wakefield", "Email": "info@drwakefielddds.com", "Phone": "(740) 435-3100", "Address": "951 Steubenville Ave Cambridge, OH 43725-2371", "City": "Cambridge", "State": "OH", "Zip": "43725-2371", "AddressLine1": "951 Steubenville Ave", "AddressLine2": "", "Distance": 11.5, "Latitude": 40.02637, "Longitude": -81.58673}, {"Sequence": 8, "PersonId": 64597, "AddressId": 2822647, "Specialty": "General Practice", "Photo": "findadentist.ada.org/Images/Profile/64597-Dr-Franklin-Maximo.png", "Name": "Dr Franklin B Maximo", "Email": "", "Phone": "(740) 439-4799", "Address": "1109 Woodlawn Ave Cambridge, OH 43725-3025", "City": "Cambridge", "State": "OH", "Zip": "43725-3025", "AddressLine1": "1109 Woodlawn Ave", "AddressLine2": "", "Distance": 11.1, "Latitude": 40.01272, "Longitude": -81.58232}, {"Sequence": 9, "PersonId": 130734, "AddressId": 1471239, "Specialty": "General Practice", "Photo": "findadentist.ada.org/Images/Profile/ADA.png", "Name": "Dr. John G Gardinsky", "Email": "", "Phone": "(740) 439-2950", "Address": "936 Highland Ave Cambridge, OH 43725-1750", "City": "Cambridge", "State": "OH", "Zip": "43725-1750", "AddressLine1": "936 Highland Ave", "AddressLine2": "PO Box 1568", "Distance": 10.9, "Latitude": 40.03507, "Longitude": -81.57215}, {"Sequence": 10, "PersonId": 194395, "AddressId": 3489143, "Specialty": "General Practice", "Photo": "findadentist.ada.org/Images/Profile/ADA.png", "Name": "Dr. Karen S Gardinsky", "Email": "gardinskydds@firewireintranet.com", "Phone": "(740) 439-2950", "Address": "936 Highland Ave Cambridge, OH 43725-1750", "City": "Cambridge", "State": "OH", "Zip": "43725-1750", "AddressLine1": "936 Highland Ave", "AddressLine2": "", "Distance": 10.9, "Latitude": 40.03502, "Longitude": -81.57218}, {"Sequence": 11, "PersonId": 64579, "AddressId": 1405084, "Specialty": "General Practice", "Photo": "findadentist.ada.org/Images/Profile/ADA.png", "Name": "Dr William A Fender", "Email": "", "Phone": "(740) 432-5444", "Address": "1404 Park Avenue Cambridge, OH 43725-3014", "City": "Cambridge", "State": "OH", "Zip": "43725-3014", "AddressLine1": "1404 Park Avenue", "AddressLine2": "", "Distance": 11.2, "Latitude": 40.01114, "Longitude": -81.58329}, {"Sequence": 12, "PersonId": 64559, "AddressId": 3550309, "Specialty": "General Practice", "Photo": "findadentist.ada.org/Images/Profile/ADA.png", "Name": "Dr George Gardinsky", "Email": "", "Phone": "(740) 439-2950", "Address": "936 Highland Ave Cambridge, OH 43725-1750", "City": "Cambridge", "State": "OH", "Zip": "43725-1750", "AddressLine1": "936 Highland Ave", "AddressLine2": "", "Distance": 10.9, "Latitude": 40.03501, "Longitude": -81.5722}, {"Sequence": 13, "PersonId": 64581, "AddressId": 1405086, "Specialty": "General Practice", "Photo": "findadentist.ada.org/Images/Profile/ADA.png", "Name": "Dr Gary R Duff", "Email": "", "Phone": "(740) 255-5707", "Address": "1111 Clark St Cambridge, OH 43725-1635", "City": "Cambridge", "State": "OH", "Zip": "43725-1635", "AddressLine1": "1111 Clark St", "AddressLine2": "", "Distance": 11.2, "Latitude": 40.03703, "Longitude": -81.57866}]