[{"Sequence": 1, "PersonId": 130650, "AddressId": 3504432, "Specialty": "General Practice", "Photo": "findadentist.ada.org/Images/Profile/130650-Dr-Robert-Ohl.png", "Name": "Dr. Robert F Ohl, Jr.", "Email": "stykaohl@zoominternet.net", "Phone": "(330) 702-1288", "Address": "3768 Boardman Canfield Rd Ste 4 Canfield, OH 44406-8504", "City": "Canfield", "State": "OH", "Zip": "44406-8504", "AddressLine1": "3768 Boardman Canfield Rd Ste 4", "AddressLine2": "", "Distance": 5.3, "Latitude": 41.02514, "Longitude": -80.71546}, {"Sequence": 2, "PersonId": 196050, "AddressId": 2795331, "Specialty": "General Practice", "Photo": "findadentist.ada.org/Images/Profile/196050-Dr-Johanna-Nogay.png", "Name": "Dr. Johanna S Nogay", "Email": "info@boardmansmiles.com", "Phone": "(330) 953-1008", "Address": "8170 South Avenue Boardman, OH 44512-6434", "City": "Boardman", "State": "OH", "Zip": "44512-6434", "AddressLine1": "8170 South Avenue", "AddressLine2": "Suite 1", "Distance": 5.1, "Latitude": 41.00113, "Longitude": -80.6349}, {"Sequence": 3, "PersonId": 63042, "AddressId": 1403547, "Specialty": "General Practice", "Photo": "findadentist.ada.org/Images/Profile/63042-Dr-Joseph-Bedich.png", "Name": "Dr Joseph D Bedich", "Email": "cfpdinfo@gmail.com", "Phone": "(330) 637-7971", "Address": "481 S High St Cortland, OH 44410-1437", "City": "Cortland", "State": "OH", "Zip": "44410-1437", "AddressLine1": "481 S High St", "AddressLine2": "", "Distance": 17.7, "Latitude": 41.32239, "Longitude": -80.72881}, {"Sequence": 4, "PersonId": 63033, "AddressId": 3490020, "Specialty": "Oral and Maxillofacial Surgery", "Photo": "findadentist.ada.org/Images/Profile/63033-Dr-Mark-Billy.png", "Name": "Dr Mark L Billy", "Email": "info@millcreekoralsurgery.com", "Phone": "(330) 792-2501", "Address": "5437 Mahoning Ave. Youngstown, OH 44515-2421", "City": "Youngstown", "State": "OH", "Zip": "44515-2421", "AddressLine1": "5437 Mahoning Ave.", "AddressLine2": "", "Distance": 6.6, "Latitude": 41.09892, "Longitude": -80.76106}, {"Sequence": 5, "PersonId": 341648, "AddressId": 3471507, "Specialty": "General Practice", "Photo": "findadentist.ada.org/Images/Profile/341648-Dr-Amy-Caicco.png", "Name": "Dr. Amy M Caicco", "Email": "chesterfamilydental.dramy@gmail.com", "Phone": "(330) 505-9668", "Address": "9269 Hillview Dr Ne Warren, OH 44484-3074", "City": "Warren", "State": "OH", "Zip": "44484-3074", "AddressLine1": "9269 Hillview Dr Ne", "AddressLine2": "", "Distance": 13.7, "Latitude": 41.26161, "Longitude": -80.72849}, {"Sequence": 6, "PersonId": 63093, "AddressId": 1403598, "Specialty": "General Practice", "Photo": "findadentist.ada.org/Images/Profile/63093-Dr-Robert-Perrott.png", "Name": "Dr Robert D Perrott", "Email": "", "Phone": "(330) 726-0090", "Address": "7200 Bristlewood Dr Youngstown, OH 44512-5111", "City": "Youngstown", "State": "OH", "Zip": "44512-5111", "AddressLine1": "7200 Bristlewood Dr", "AddressLine2": "", "Distance": 3.4, "Latitude": 41.02571, "Longitude": -80.63971}, {"Sequence": 7, "PersonId": 63090, "AddressId": 1403595, "Specialty": "General Practice", "Photo": "findadentist.ada.org/Images/Profile/63090-Dr-Alfred-Santucci.png", "Name": "Dr. Alfred S Santucci", "Email": "DR.Santucci@YAHOO.COM", "Phone": "(330) 652-2676", "Address": "827 Robbins Ave Niles, OH 44446-2431", "City": "Niles", "State": "OH", "Zip": "44446-2431", "AddressLine1": "827 Robbins Ave", "AddressLine2": "", "Distance": 9.3, "Latitude": 41.18208, "Longitude": -80.74783}, {"Sequence": 8, "PersonId": 78147, "AddressId": 3518673, "Specialty": "General Practice", "Photo": "findadentist.ada.org/Images/Profile/78147-Dr-George-Watters.png", "Name": "Dr George E Watters, III", "Email": "", "Phone": "(724) 652-9843", "Address": "531 Club Dr New Castle, PA 16105-1529", "City": "New Castle", "State": "PA", "Zip": "16105-1529", "AddressLine1": "531 Club Dr", "AddressLine2": "", "Distance": 14.1, "Latitude": 41.04678, "Longitude": -80.37052}, {"Sequence": 9, "PersonId": 63015, "AddressId": 2825321, "Specialty": "General Practice", "Photo": "findadentist.ada.org/Images/Profile/63015-Dr-Joseph-Fonagy.png", "Name": "Dr Joseph J Fonagy", "Email": "", "Phone": "(330) 448-0200", "Address": "7159 Warren Sharon Rd Brookfield, OH 44403-9656", "City": "Brookfield", "State": "OH", "Zip": "44403-9656", "AddressLine1": "7159 Warren Sharon Rd", "AddressLine2": "", "Distance": 11.7, "Latitude": 41.23406, "Longitude": -80.55983}, {"Sequence": 10, "PersonId": 63159, "AddressId": 1403664, "Specialty": "Orthodontics and Dentofacial Orthopedics", "Photo": "findadentist.ada.org/Images/Profile/63159-Dr-Sheldon-Persky.png", "Name": "Dr Sheldon L Persky", "Email": "dr.slp@juno.com", "Phone": "(330) 533-9113", "Address": "6674 Tippecanoe Rd Ste 2 Canfield, OH 44406-9149", "City": "Canfield", "State": "OH", "Zip": "44406-9149", "AddressLine1": "6674 Tippecanoe Rd Ste 2", "AddressLine2": "", "Distance": 5.3, "Latitude": 41.02203, "Longitude": -80.71162}, {"Sequence": 11, "PersonId": 135548, "AddressId": 2730310, "Specialty": "General Practice", "Photo": "findadentist.ada.org/Images/Profile/135548-Dr-Sergio-Nadler.png", "Name": "Dr. Sergio C Nadler", "Email": "", "Phone": "(330) 652-0676", "Address": "940 Robbins Ave Niles, OH 44446-2468", "City": "Niles", "State": "OH", "Zip": "44446-2468", "AddressLine1": "940 Robbins Ave", "AddressLine2": "", "Distance": 9.3, "Latitude": 41.18294, "Longitude": -80.74549}, {"Sequence": 12, "PersonId": 201028, "AddressId": 3510333, "Specialty": "General Practice", "Photo": "findadentist.ada.org/Images/Profile/201028-Dr-Andrew-Matta.png", "Name": "Dr. Andrew S Matta", "Email": "", "Phone": "(724) 658-0822", "Address": "2623 Wilmington Rd New Castle, PA 16105-1529", "City": "New Castle", "State": "PA", "Zip": "16105-1529", "AddressLine1": "2623 Wilmington Rd", "AddressLine2": "", "Distance": 15.0, "Latitude": 41.03447, "Longitude": -80.3559}, {"Sequence": 13, "PersonId": 205360, "AddressId": 3490017, "Specialty": "General Practice", "Photo": "findadentist.ada.org/Images/Profile/205360-Dr-James-Ramunno.png", "Name": "Dr. James C Ramunno", "Email": "jcramunnodds@gmail.com", "Phone": "(330) 793-1343", "Address": "2670 S Raccoon Rd Ste 2 Youngstown, OH 44515-5380", "City": "Youngstown", "State": "OH", "Zip": "44515-5380", "AddressLine1": "2670 S Raccoon Rd Ste 2", "AddressLine2": "", "Distance": 4.9, "Latitude": 41.07319, "Longitude": -80.73308}, {"Sequence": 14, "PersonId": 63046, "AddressId": 1403551, "Specialty": "Orthodontics and Dentofacial Orthopedics", "Photo": "findadentist.ada.org/Images/Profile/63046-Dr-Wade-Najem.png", "Name": "Dr Wade J Najem", "Email": "", "Phone": "(330) 638-7004", "Address": "210 Windsor Dr Cortland, OH 44410-2703", "City": "Cortland", "State": "OH", "Zip": "44410-2703", "AddressLine1": "210 Windsor Dr", "AddressLine2": "", "Distance": 17.0, "Latitude": 41.31134, "Longitude": -80.72991}, {"Sequence": 15, "PersonId": 78239, "AddressId": 1418744, "Specialty": "Orthodontics and Dentofacial Orthopedics", "Photo": "findadentist.ada.org/Images/Profile/78239-Dr-Charles-Gulland.png", "Name": "Dr Charles E Gulland", "Email": "info@drgulland.com", "Phone": "(724) 981-3950", "Address": "490 N Kerrwood Dr Hermitage, PA 16148-5202", "City": "Hermitage", "State": "PA", "Zip": "16148-5202", "AddressLine1": "490 N Kerrwood Dr", "AddressLine2": "Canterbury Sq", "Distance": 14.7, "Latitude": 41.23339, "Longitude": -80.44868}, {"Sequence": 16, "PersonId": 63043, "AddressId": 1403548, "Specialty": "General Practice", "Photo": "findadentist.ada.org/Images/Profile/63043-Dr-Matthew-Yerkey.png", "Name": "Dr Matthew R Yerkey", "Email": "", "Phone": "(330) 332-5377", "Address": "2940 State Route 45 S Salem, OH 44460-9465", "City": "Salem", "State": "OH", "Zip": "44460-9465", "AddressLine1": "2940 State Route 45 S", "AddressLine2": "", "Distance": 18.0, "Latitude": 40.85787, "Longitude": -80.82911}, {"Sequence": 17, "PersonId": 62973, "AddressId": 1403478, "Specialty": "General Practice", "Photo": "findadentist.ada.org/Images/Profile/62973-Dr-Patrick-Thomas.png", "Name": "Dr Patrick C Thomas", "Email": "DDSOFFICEMANAGMENT444425@GMAIL.COM", "Phone": "(330) 534-1155", "Address": "20 Mock St Hubbard, OH 44425-1429", "City": "Hubbard", "State": "OH", "Zip": "44425-1429", "AddressLine1": "20 Mock St", "AddressLine2": "", "Distance": 7.0, "Latitude": 41.16269, "Longitude": -80.56822}, {"Sequence": 18, "PersonId": 63055, "AddressId": 3540582, "Specialty": "Oral and Maxillofacial Surgery", "Photo": "findadentist.ada.org/Images/Profile/63055-Dr-Terry-Philibin.png", "Name": "Dr Terry B Philibin", "Email": "info@drphilibin.com", "Phone": "(330) 856-7111", "Address": "405 Niles Cortland Rd SE Ste 101 Warren, OH 44484-2460", "City": "Warren", "State": "OH", "Zip": "44484-2460", "AddressLine1": "405 Niles Cortland Rd SE Ste 101", "AddressLine2": "", "Distance": 12.2, "Latitude": 41.23515, "Longitude": -80.73907}, {"Sequence": 19, "PersonId": 132619, "AddressId": 3155938, "Specialty": "General Practice", "Photo": "findadentist.ada.org/Images/Profile/132619-Dr-Domenic-DiNello.png", "Name": "Dr. Domenic A DiNello", "Email": "doctordomdinello@aol.com", "Phone": "(330) 629-8262", "Address": "500 Gypsy Ln Youngstown, OH 44512-5111", "City": "Youngstown", "State": "OH", "Zip": "44512-5111", "AddressLine1": "500 Gypsy Ln", "AddressLine2": "Bldg A", "Distance": 4.1, "Latitude": 41.13359, "Longitude": -80.65745}, {"Sequence": 20, "PersonId": 63052, "AddressId": 1403557, "Specialty": "General Practice", "Photo": "findadentist.ada.org/Images/Profile/63052-Dr-Joseph-Mika.png", "Name": "Joseph A Mika, DDS", "Email": "luci@mikadental.com", "Phone": "(330) 702-6000", "Address": "3700 Stutz Drive, Ste. 3 Canfield, OH 44406-8194", "City": "Canfield", "State": "OH", "Zip": "44406-8194", "AddressLine1": "3700 Stutz Drive, Ste. 3", "AddressLine2": "", "Distance": 5.4, "Latitude": 41.02284, "Longitude": -80.71427}, {"Sequence": 21, "PersonId": 239867, "AddressId": 3433203, "Specialty": "General Practice", "Photo": "findadentist.ada.org/Images/Profile/239867-Dr-Brian-Crouse.png", "Name": "Dr. Brian R Crouse", "Email": "", "Phone": "(330) 758-7750", "Address": "755 Boardman Canfield Rd Ste L1 Youngstown, OH 44512-7303", "City": "Youngstown", "State": "OH", "Zip": "44512-7303", "AddressLine1": "755 Boardman Canfield Rd Ste L1", "AddressLine2": "", "Distance": 4.3, "Latitude": 41.02428, "Longitude": -80.68494}, {"Sequence": 22, "PersonId": 63169, "AddressId": 3438715, "Specialty": "General Practice", "Photo": "findadentist.ada.org/Images/Profile/63169-Dr-James-Kozlow.png", "Name": "Dr James Kozlow", "Email": "", "Phone": "(330) 505-1660", "Address": "1252 Youngstown Warren Rd Niles, OH 44446-4650", "City": "Niles", "State": "OH", "Zip": "44446-4650", "AddressLine1": "1252 Youngstown Warren Rd", "AddressLine2": "", "Distance": 10.3, "Latitude": 41.20342, "Longitude": -80.73781}, {"Sequence": 23, "PersonId": 62969, "AddressId": 1403474, "Specialty": "General Practice", "Photo": "findadentist.ada.org/Images/Profile/62969-Dr-John-Craig.png", "Name": "Dr John V Craig, Jr", "Email": "", "Phone": "(330) 726-8886", "Address": "725 Boardman Canfield Rd Ste R Youngstown, OH 44512-4361", "City": "Youngstown", "State": "OH", "Zip": "44512-4361", "AddressLine1": "725 Boardman Canfield Rd Ste R", "AddressLine2": "", "Distance": 4.3, "Latitude": 41.02405, "Longitude": -80.68357}, {"Sequence": 24, "PersonId": 63111, "AddressId": 3588389, "Specialty": "General Practice", "Photo": "findadentist.ada.org/Images/Profile/63111-Dr-Sheffali-Sheth-Nadler.png", "Name": "Dr Sheffali Sheth-Nadler", "Email": "", "Phone": "(330) 847-0676", "Address": "4817 Mahoning Ave NW Warren, OH 44483-1430", "City": "Warren", "State": "OH", "Zip": "44483-1430", "AddressLine1": "4817 Mahoning Ave NW", "AddressLine2": "", "Distance": 18.3, "Latitude": 41.28766, "Longitude": -80.84734}, {"Sequence": 25, "PersonId": 63026, "AddressId": 3496242, "Specialty": "General Practice", "Photo": "findadentist.ada.org/Images/Profile/63026-Dr-Charles J.-Yourstowsky.png", "Name": "Dr. Charles J. J Yourstowsky", "Email": "cjydds@aol.com", "Phone": "(330) 533-7700", "Address": "3665 Stutz Dr. Canfield, OH 44406-9144", "City": "Canfield", "State": "OH", "Zip": "44406-9144", "AddressLine1": "3665 Stutz Dr.", "AddressLine2": "Suite 1", "Distance": 5.4, "Latitude": 41.02204, "Longitude": -80.71293}, {"Sequence": 26, "PersonId": 131068, "AddressId": 3504424, "Specialty": "Orthodontics and Dentofacial Orthopedics", "Photo": "findadentist.ada.org/Images/Profile/131068-Dr-Daniel-DeAngelo.png", "Name": "Dr. Daniel DeAngelo", "Email": "info@drdbraces.com", "Phone": "(330) 758-1188", "Address": "827 McKay CT Ste 1 Boardman, OH 44512-5790", "City": "Boardman", "State": "OH", "Zip": "44512-5790", "AddressLine1": "827 McKay CT Ste 1", "AddressLine2": "", "Distance": 3.6, "Latitude": 41.02284, "Longitude": -80.63854}, {"Sequence": 27, "PersonId": 63169, "AddressId": 3490013, "Specialty": "General Practice", "Photo": "findadentist.ada.org/Images/Profile/63169-Dr-James-Kozlow.png", "Name": "Dr James Kozlow", "Email": "", "Phone": "(330) 757-2200", "Address": "207 S Main St Ste 1 Poland, OH 44514-2070", "City": "Poland", "State": "OH", "Zip": "44514-2070", "AddressLine1": "207 S Main St Ste 1", "AddressLine2": "", "Distance": 3.9, "Latitude": 41.02324, "Longitude": -80.61216}, {"Sequence": 28, "PersonId": 62985, "AddressId": 3520382, "Specialty": "General Practice", "Photo": "findadentist.ada.org/Images/Profile/62985-Dr-Donald-Brunetti.png", "Name": "Dr Donald J Brunetti", "Email": "", "Phone": "(330) 793-9368", "Address": "5671 Mahoning Ave Youngstown, OH 44515-2319", "City": "Youngstown", "State": "OH", "Zip": "44515-2319", "AddressLine1": "5671 Mahoning Ave", "AddressLine2": "", "Distance": 7.0, "Latitude": 41.09888, "Longitude": -80.76879}, {"Sequence": 29, "PersonId": 63037, "AddressId": 1403542, "Specialty": "General Practice", "Photo": "findadentist.ada.org/Images/Profile/63037-Dr-Joseph-Baytosh.png", "Name": "Dr Joseph J Baytosh", "Email": "", "Phone": "(330) 545-9120", "Address": "136 S State St Girard, OH 44420-2947", "City": "Girard", "State": "OH", "Zip": "44420-2947", "AddressLine1": "136 S State St", "AddressLine2": "", "Distance": 6.2, "Latitude": 41.15235, "Longitude": -80.70064}, {"Sequence": 30, "PersonId": 162161, "AddressId": 3505460, "Specialty": "General Practice", "Photo": "findadentist.ada.org/Images/Profile/162161-Dr-Rajiv-Taneja.png", "Name": "Dr. Rajiv Taneja", "Email": "rajivtanejadmdinc@hotmail.com", "Phone": "(330) 783-0202", "Address": "5700 Market St Rear Boardman, OH 44512-2678", "City": "Boardman", "State": "OH", "Zip": "44512-2678", "AddressLine1": "5700 Market St Rear", "AddressLine2": "", "Distance": 2.7, "Latitude": 41.04111, "Longitude": -80.66326}, {"Sequence": 31, "PersonId": 255983, "AddressId": 2804184, "Specialty": "General Practice", "Photo": "findadentist.ada.org/Images/Profile/255983-Dr-Thomas-DeChellis.png", "Name": "Dr. Thomas A DeChellis", "Email": "dechellis.stonestreet@yahoo.com", "Phone": "(330) 726-8060", "Address": "60 Marwood Cir Youngstown, OH 44512-6249", "City": "Youngstown", "State": "OH", "Zip": "44512-6249", "AddressLine1": "60 Marwood Cir", "AddressLine2": "", "Distance": 5.9, "Latitude": 40.99208, "Longitude": -80.66136}, {"Sequence": 32, "PersonId": 63061, "AddressId": 3490072, "Specialty": "General Practice", "Photo": "findadentist.ada.org/Images/Profile/63061-Dr-Paul-Bertolasio.png", "Name": "Dr Paul M Bertolasio", "Email": "Speedmatic@sbcglobal.net", "Phone": "(330) 545-2000", "Address": "26 E Wilson Ave Ste A Girard, OH 44420-2901", "City": "Girard", "State": "OH", "Zip": "44420-2901", "AddressLine1": "26 E Wilson Ave Ste A", "AddressLine2": "", "Distance": 6.3, "Latitude": 41.15338, "Longitude": -80.6998}, {"Sequence": 33, "PersonId": 63024, "AddressId": 2752729, "Specialty": "General Practice", "Photo": "findadentist.ada.org/Images/Profile/63024-Dr-Mark-DeGenova.png", "Name": "Dr Mark D DeGenova", "Email": "markddegenovadds@dtinc.net", "Phone": "(330) 755-2039", "Address": "4530 Youngstown Poland Rd Youngstown, OH 44514-1148", "City": "Youngstown", "State": "OH", "Zip": "44514-1148", "AddressLine1": "4530 Youngstown Poland Rd", "AddressLine2": "", "Distance": 1.9, "Latitude": 41.05407, "Longitude": -80.6162}, {"Sequence": 34, "PersonId": 62997, "AddressId": 3518227, "Specialty": "General Practice", "Photo": "findadentist.ada.org/Images/Profile/62997-Dr-Robert-Johnson.png", "Name": "Dr Robert C Johnson, Jr", "Email": "", "Phone": "(330) 758-8388", "Address": "7260 West Blvd Ste G Youngstown, OH 44512-4383", "City": "Youngstown", "State": "OH", "Zip": "44512-4383", "AddressLine1": "7260 West Blvd Ste G", "AddressLine2": "", "Distance": 4.3, "Latitude": 41.02313, "Longitude": -80.6825}, {"Sequence": 35, "PersonId": 63006, "AddressId": 1403511, "Specialty": "General Practice", "Photo": "findadentist.ada.org/Images/Profile/63006-Dr-James-Lessick.png", "Name": "Dr James E Lessick", "Email": "Lessickdental@zoominternet.net", "Phone": "(330) 726-0120", "Address": "725 Boardman Canfield Rd Ste N2 Boardman, OH 44512-4382", "City": "Boardman", "State": "OH", "Zip": "44512-4382", "AddressLine1": "725 Boardman Canfield Rd Ste N2", "AddressLine2": "Southbridge Executive Park", "Distance": 3.3, "Latitude": 41.03269, "Longitude": -80.66598}, {"Sequence": 36, "PersonId": 194385, "AddressId": 3026952, "Specialty": "General Practice", "Photo": "findadentist.ada.org/Images/Profile/194385-Dr-Melissa-Padgett.png", "Name": "Dr. Melissa M Padgett", "Email": "info@melissapadgettdental.com", "Phone": "(330) 726-6700", "Address": "1006 Boardman Canfield Rd Ste 3 Youngstown, OH 44512-4278", "City": "Youngstown", "State": "OH", "Zip": "44512-4278", "AddressLine1": "1006 Boardman Canfield Rd Ste 3", "AddressLine2": "", "Distance": 4.4, "Latitude": 41.02516, "Longitude": -80.69169}, {"Sequence": 37, "PersonId": 215267, "AddressId": 3174313, "Specialty": "General Practice", "Photo": "findadentist.ada.org/Images/Profile/215267-Dr-Mark-Zeigler.png", "Name": "Dr. Mark D Zeigler, Jr.", "Email": "drmzeigler@comcast.net", "Phone": "(724) 658-2055", "Address": "1 Fairhill Drive New Castle, PA 16105-1174", "City": "New Castle", "State": "PA", "Zip": "16105-1174", "AddressLine1": "1 Fairhill Drive", "AddressLine2": "", "Distance": 15.8, "Latitude": 41.0817, "Longitude": -80.33444}, {"Sequence": 38, "PersonId": 256034, "AddressId": 2817735, "Specialty": "General Practice", "Photo": "findadentist.ada.org/Images/Profile/256034-Dr-Stephen-Orlosky.png", "Name": "Dr. Stephen J Orlosky", "Email": "appointments@braydich.com", "Phone": "(330) 964-2116", "Address": "45 E Liberty St Hubbard, OH 44425-2160", "City": "Hubbard", "State": "OH", "Zip": "44425-2160", "AddressLine1": "45 E Liberty St", "AddressLine2": "", "Distance": 6.7, "Latitude": 41.15615, "Longitude": -80.56751}, {"Sequence": 39, "PersonId": 132619, "AddressId": 3507823, "Specialty": "General Practice", "Photo": "findadentist.ada.org/Images/Profile/132619-Dr-Domenic-DiNello.png", "Name": "Dr. Domenic A DiNello", "Email": "doctordomdinello@aol.com", "Phone": "(330) 652-9845", "Address": "40 E Park Ave Niles, OH 44446-5018", "City": "Niles", "State": "OH", "Zip": "44446-5018", "AddressLine1": "40 E Park Ave", "AddressLine2": "", "Distance": 9.8, "Latitude": 41.18083, "Longitude": -80.76394}, {"Sequence": 40, "PersonId": 63051, "AddressId": 1403556, "Specialty": "General Practice", "Photo": "findadentist.ada.org/Images/Profile/63051-Dr-Randall-Delbene.png", "Name": "Dr Randall S Del Bene", "Email": "Rsdbdds@aol.com", "Phone": "(330) 545-2606", "Address": "1 N State St Girard, OH 44420-2533", "City": "Girard", "State": "OH", "Zip": "44420-2533", "AddressLine1": "1 N State St", "AddressLine2": "", "Distance": 6.3, "Latitude": 41.15422, "Longitude": -80.70071}, {"Sequence": 41, "PersonId": 62974, "AddressId": 1403479, "Specialty": "General Practice", "Photo": "findadentist.ada.org/Images/Profile/62974-Dr-Charles-Verbanic.png", "Name": "Dr Charles R Verbanic", "Email": "bjyoffice@aol.com", "Phone": "(330) 872-5737", "Address": "2000 Milton Blvd Newton Falls, OH 44444-9793", "City": "Newton Falls", "State": "OH", "Zip": "44444-9793", "AddressLine1": "2000 Milton Blvd", "AddressLine2": "", "Distance": 18.5, "Latitude": 41.17657, "Longitude": -80.96631}, {"Sequence": 42, "PersonId": 63008, "AddressId": 3512484, "Specialty": "General Practice", "Photo": "findadentist.ada.org/Images/Profile/63008-Dr-Richard-Ragozine.png", "Name": "Dr Richard R Ragozine", "Email": "Ragozinedentalcare@yahoo.com", "Phone": "(330) 545-8120", "Address": "28 E Main St Girard, OH 44420", "City": "Girard", "State": "OH", "Zip": "44420", "AddressLine1": "28 E Main St", "AddressLine2": "", "Distance": 6.4, "Latitude": 41.15515, "Longitude": -80.70052}, {"Sequence": 43, "PersonId": 63107, "AddressId": 1403612, "Specialty": "General Practice", "Photo": "findadentist.ada.org/Images/Profile/63107-Dr-Pamela-Barkett.png", "Name": "Dr Pamela Barkett", "Email": "", "Phone": "(330) 533-5666", "Address": "13 Lisbon St Canfield, OH 44406-1415", "City": "Canfield", "State": "OH", "Zip": "44406-1415", "AddressLine1": "13 Lisbon St", "AddressLine2": "", "Distance": 7.4, "Latitude": 41.02311, "Longitude": -80.76165}, {"Sequence": 44, "PersonId": 112264, "AddressId": 2754613, "Specialty": "General Practice", "Photo": "findadentist.ada.org/Images/Profile/112264-Dr-Deanna-Thomas.png", "Name": "Dr. Deanna L Thomas", "Email": "thomasdentistry2@gmail.com", "Phone": "(724) 347-2722", "Address": "3705 E State St Hermitage, PA 16148-3410", "City": "Hermitage", "State": "PA", "Zip": "16148-3410", "AddressLine1": "3705 E State St", "AddressLine2": "", "Distance": 15.0, "Latitude": 41.2342, "Longitude": -80.4418}, {"Sequence": 45, "PersonId": 63095, "AddressId": 3490322, "Specialty": "General Practice", "Photo": "findadentist.ada.org/Images/Profile/63095-Dr-Mark-Jones.png", "Name": "Dr Mark D Jones", "Email": "", "Phone": "(330) 394-7462", "Address": "8799 E Market St Warren, OH 44484-2363", "City": "Warren", "State": "OH", "Zip": "44484-2363", "AddressLine1": "8799 E Market St", "AddressLine2": "", "Distance": 12.2, "Latitude": 41.23824, "Longitude": -80.73118}, {"Sequence": 46, "PersonId": 63035, "AddressId": 2700196, "Specialty": "Endodontics", "Photo": "findadentist.ada.org/Images/Profile/63035-Dr-Gerhard-Berberich.png", "Name": "Dr Gerhard A Berberich", "Email": "", "Phone": null, "Address": "6715 Tippecanoe Rd Ste 202 Canfield, OH 44406-8180", "City": "Canfield", "State": "OH", "Zip": "44406-8180", "AddressLine1": "6715 Tippecanoe Rd Ste 202", "AddressLine2": "", "Distance": 5.3, "Latitude": 41.022, "Longitude": -80.70998}, {"Sequence": 47, "PersonId": 326156, "AddressId": 3550861, "Specialty": "General Practice", "Photo": "findadentist.ada.org/Images/Profile/326156-Dr-Lori-Fitzgerald.png", "Name": "Lori A Fitzgerald, DDS", "Email": "Kathy@lafitzdds.com", "Phone": "(330) 533-0804", "Address": "5711 Shields Rd Canfield, OH 44406-9672", "City": "Canfield", "State": "OH", "Zip": "44406-9672", "AddressLine1": "5711 Shields Rd", "AddressLine2": "", "Distance": 6.7, "Latitude": 41.04364, "Longitude": -80.75957}, {"Sequence": 48, "PersonId": 62986, "AddressId": 3007132, "Specialty": "General Practice", "Photo": "findadentist.ada.org/Images/Profile/62986-Dr-Philip-Leone.png", "Name": "Dr Philip A Leone", "Email": "drleone@zoominternet.net", "Phone": "(330) 792-2749", "Address": "5669 Mahoning Ave Ste A Youngstown, OH 44515-2339", "City": "Youngstown", "State": "OH", "Zip": "44515-2339", "AddressLine1": "5669 Mahoning Ave Ste A", "AddressLine2": "", "Distance": 7.0, "Latitude": 41.09888, "Longitude": -80.76912}, {"Sequence": 49, "PersonId": 63064, "AddressId": 3495825, "Specialty": "Endodontics", "Photo": "findadentist.ada.org/Images/Profile/63064-Dr-Paul-Stabile.png", "Name": "Dr Paul M Stabile", "Email": "neoendo4@gmail.com", "Phone": "(330) 856-9989", "Address": "8740 E Market St Ste 1 Warren, OH 44484-2324", "City": "Warren", "State": "OH", "Zip": "44484-2324", "AddressLine1": "8740 E Market St Ste 1", "AddressLine2": "", "Distance": 12.2, "Latitude": 41.23759, "Longitude": -80.73247}, {"Sequence": 50, "PersonId": 62991, "AddressId": 3490050, "Specialty": "General Practice", "Photo": "findadentist.ada.org/Images/Profile/62991-Dr-Jay-Kiefer.png", "Name": "Dr Jay F Kiefer", "Email": "", "Phone": "(330) 872-5771", "Address": "340 Ridge Rd Ste 2 Newton Falls, OH 44444-1264", "City": "Newton Falls", "State": "OH", "Zip": "44444-1264", "AddressLine1": "340 Ridge Rd Ste 2", "AddressLine2": "", "Distance": 19.6, "Latitude": 41.19402, "Longitude": -80.9797}, {"Sequence": 51, "PersonId": 63064, "AddressId": 3486167, "Specialty": "Endodontics", "Photo": "findadentist.ada.org/Images/Profile/63064-Dr-Paul-Stabile.png", "Name": "Dr Paul M Stabile", "Email": "neoendo4@gmail.com", "Phone": "(330) 533-0555", "Address": "6715 Tippecanoe Rd Bldg 1 Canfield, OH 44406-8180", "City": "Canfield", "State": "OH", "Zip": "44406-8180", "AddressLine1": "6715 Tippecanoe Rd Bldg 1", "AddressLine2": "", "Distance": 5.2, "Latitude": 41.02276, "Longitude": -80.71079}, {"Sequence": 52, "PersonId": 63011, "AddressId": 3514974, "Specialty": "Endodontics", "Photo": "findadentist.ada.org/Images/Profile/63011-Dr-Raymond-Lev.png", "Name": "Dr Raymond Lev", "Email": "neoendo4@gmail.com", "Phone": "(330) 856-9989", "Address": "8740 E Market St Ste 1 Warren, OH 44484-2324", "City": "Warren", "State": "OH", "Zip": "44484-2324", "AddressLine1": "8740 E Market St Ste 1", "AddressLine2": "Northestern Ohio Endodontics", "Distance": 12.2, "Latitude": 41.23759, "Longitude": -80.73247}, {"Sequence": 53, "PersonId": 63049, "AddressId": 3153159, "Specialty": "Orthodontics and Dentofacial Orthopedics", "Photo": "findadentist.ada.org/Images/Profile/63049-Dr-Anthony-Bisconti.png", "Name": "Dr. Anthony E Bisconti", "Email": "info@biscontiortho.com", "Phone": "(330) 758-0208", "Address": "908 Sahara Trl Ste 1 Youngstown, OH 44514-4600", "City": "Youngstown", "State": "OH", "Zip": "44514-4600", "AddressLine1": "908 Sahara Trl Ste 1", "AddressLine2": "", "Distance": 6.0, "Latitude": 40.98921, "Longitude": -80.63593}, {"Sequence": 54, "PersonId": 63050, "AddressId": 3490038, "Specialty": "General Practice", "Photo": "findadentist.ada.org/Images/Profile/63050-Dr-Lee-Snelson.png", "Name": "Dr Lee E Snelson", "Email": "office@snelsondds.com", "Phone": "(330) 856-1433", "Address": "3919 E Market St #2 Warren, OH 44484-4709", "City": "Warren", "State": "OH", "Zip": "44484-4709", "AddressLine1": "3919 E Market St #2", "AddressLine2": "", "Distance": 13.0, "Latitude": 41.23722, "Longitude": -80.76754}, {"Sequence": 55, "PersonId": 62836, "AddressId": 3490154, "Specialty": "General Practice", "Photo": "findadentist.ada.org/Images/Profile/62836-Dr-Robert-Sabatini.png", "Name": "Dr Robert E Sabatini", "Email": "", "Phone": "(330) 856-2880", "Address": "433 Niles Cortland Rd Ne Ste 1 Warren, OH 44484-1978", "City": "Warren", "State": "OH", "Zip": "44484-1978", "AddressLine1": "433 Niles Cortland Rd Ne Ste 1", "AddressLine2": "", "Distance": 12.7, "Latitude": 41.24276, "Longitude": -80.74059}, {"Sequence": 56, "PersonId": 187733, "AddressId": 1528238, "Specialty": "General Practice", "Photo": "findadentist.ada.org/Images/Profile/187733-Dr-Todd-Flere.png", "Name": "Dr. Todd D Flere", "Email": "office1041@yahoo.com", "Phone": "(330) 759-8425", "Address": "1041 E Liberty St Girard, OH 44420-2407", "City": "Girard", "State": "OH", "Zip": "44420-2407", "AddressLine1": "1041 E Liberty St", "AddressLine2": "", "Distance": 5.6, "Latitude": 41.15234, "Longitude": -80.6729}, {"Sequence": 57, "PersonId": 63053, "AddressId": 3505454, "Specialty": "General Practice", "Photo": "findadentist.ada.org/Images/Profile/63053-Dr-Kenneth-LaPolla.png", "Name": "Dr. Kenneth D LaPolla", "Email": "", "Phone": "(330) 609-6565", "Address": "8588 E Market St Ste 1 Warren, OH 44484-2378", "City": "Warren", "State": "OH", "Zip": "44484-2378", "AddressLine1": "8588 E Market St Ste 1", "AddressLine2": "", "Distance": 12.3, "Latitude": 41.23776, "Longitude": -80.73569}, {"Sequence": 58, "PersonId": 63060, "AddressId": 1403565, "Specialty": "General Practice", "Photo": "findadentist.ada.org/Images/Profile/63060-Dr-Douglas-Styka.png", "Name": "Dr Douglas J Styka", "Email": "stykaohl@zoominternet.net", "Phone": "(330) 702-1288", "Address": "3768 Boardman Canfield Rd Canfield, OH 44406-8502", "City": "Canfield", "State": "OH", "Zip": "44406-8502", "AddressLine1": "3768 Boardman Canfield Rd", "AddressLine2": "", "Distance": 5.3, "Latitude": 41.02514, "Longitude": -80.71546}, {"Sequence": 59, "PersonId": 62973, "AddressId": 2696724, "Specialty": "General Practice", "Photo": "findadentist.ada.org/Images/Profile/62973-Dr-Patrick-Thomas.png", "Name": "Dr Patrick C Thomas", "Email": "DDSOFFICEMANAGMENT444425@GMAIL.COM", "Phone": null, "Address": "500  Gypsy Ln Ave Medical Bldg A Youngstown, OH 44501", "City": "Youngstown", "State": "OH", "Zip": "44501", "AddressLine1": "500  Gypsy Ln Ave Medical Bldg A", "AddressLine2": "3rd FL", "Distance": 4.2, "Latitude": 41.13501, "Longitude": -80.65813}, {"Sequence": 60, "PersonId": 269606, "AddressId": 3155540, "Specialty": "General Practice", "Photo": "findadentist.ada.org/Images/Profile/269606-Dr-Erik-Johnson.png", "Name": "Dr. Erik R Johnson", "Email": "johnsonfamilydentalboardman@gmail.com", "Phone": "(330) 758-8388", "Address": "7260 West Blvd Ste G Youngstown, OH 44512-4383", "City": "Youngstown", "State": "OH", "Zip": "44512-4383", "AddressLine1": "7260 West Blvd Ste G", "AddressLine2": "", "Distance": 4.3, "Latitude": 41.0231, "Longitude": -80.68249}, {"Sequence": 61, "PersonId": 62977, "AddressId": 3505452, "Specialty": "General Practice", "Photo": "findadentist.ada.org/Images/Profile/62977-Dr-Thomas-Bowser.png", "Name": "Dr Thomas G Bowser, III", "Email": "tgbowser3@sbcglobal.net", "Phone": "(330) 758-3446", "Address": "7240 Glenwood Ave Ste 1 Youngstown, OH 44512-4800", "City": "Youngstown", "State": "OH", "Zip": "44512-4800", "AddressLine1": "7240 Glenwood Ave Ste 1", "AddressLine2": "", "Distance": 3.9, "Latitude": 41.02516, "Longitude": -80.67288}, {"Sequence": 62, "PersonId": 130754, "AddressId": 3168643, "Specialty": "General Practice", "Photo": "findadentist.ada.org/Images/Profile/130754-Dr-John-Rothrauff.png", "Name": "Dr. John J Rothrauff", "Email": "drrothrauff@yahoo.com", "Phone": "(330) 757-7713", "Address": "20 E Mc Kinley Way #2 Poland, OH 44514", "City": "Poland", "State": "OH", "Zip": "44514", "AddressLine1": "20 E Mc Kinley Way #2", "AddressLine2": "", "Distance": 3.7, "Latitude": 41.02442, "Longitude": -80.61607}, {"Sequence": 63, "PersonId": 63197, "AddressId": 1403702, "Specialty": "General Practice", "Photo": "findadentist.ada.org/Images/Profile/63197-Dr-Mark-Braydich.png", "Name": "Dr Mark P Braydich", "Email": "appointments@braydich.com", "Phone": "(330) 534-5408", "Address": "45 E Liberty St Hubbard, OH 44425-2160", "City": "Hubbard", "State": "OH", "Zip": "44425-2160", "AddressLine1": "45 E Liberty St", "AddressLine2": "", "Distance": 6.7, "Latitude": 41.15615, "Longitude": -80.56751}, {"Sequence": 64, "PersonId": 60990, "AddressId": 3401432, "Specialty": "Orthodontics and Dentofacial Orthopedics", "Photo": "findadentist.ada.org/Images/Profile/60990-Dr-Stephen-Simpson.png", "Name": "Dr Stephen P Simpson", "Email": "drsimpson@gorefreshdental.com", "Phone": "(330) 332-0368", "Address": "2384 Southeast Blvd Salem, OH 44460-3418", "City": "Salem", "State": "OH", "Zip": "44460-3418", "AddressLine1": "2384 Southeast Blvd", "AddressLine2": "", "Distance": 15.7, "Latitude": 40.89949, "Longitude": -80.82927}, {"Sequence": 65, "PersonId": 63180, "AddressId": 1403685, "Specialty": "General Practice", "Photo": "findadentist.ada.org/Images/Profile/63180-Dr-Scott-Werner.png", "Name": "Dr Scott A Werner", "Email": "bjyoffice@aol.com", "Phone": "(330) 872-5737", "Address": "2000 Milton Blvd Newton Falls, OH 44444-9793", "City": "Newton Falls", "State": "OH", "Zip": "44444-9793", "AddressLine1": "2000 Milton Blvd", "AddressLine2": "", "Distance": 18.5, "Latitude": 41.17657, "Longitude": -80.96631}, {"Sequence": 66, "PersonId": 259818, "AddressId": 3504258, "Specialty": "General Practice", "Photo": "findadentist.ada.org/Images/Profile/259818-Dr-Kelsey-Werner.png", "Name": "Dr. Kelsey M Werner", "Email": "bjyoffice@aol.com", "Phone": "(330) 872-5737", "Address": "2000 Milton Blvd Newton Falls, OH 44444-9793", "City": "Newton Falls", "State": "OH", "Zip": "44444-9793", "AddressLine1": "2000 Milton Blvd", "AddressLine2": "", "Distance": 18.4, "Latitude": 41.17652, "Longitude": -80.9661}, {"Sequence": 67, "PersonId": 63167, "AddressId": 1403672, "Specialty": "General Practice", "Photo": "findadentist.ada.org/Images/Profile/63167-Dr-Rudolph-Braydich.png", "Name": "Dr Rudolph J Braydich, Jr.", "Email": "appointments@braydich.com", "Phone": "(330) 534-5408", "Address": "45 E Liberty St Hubbard, OH 44425-2160", "City": "Hubbard", "State": "OH", "Zip": "44425-2160", "AddressLine1": "45 E Liberty St", "AddressLine2": "", "Distance": 6.7, "Latitude": 41.15615, "Longitude": -80.56751}, {"Sequence": 68, "PersonId": 63185, "AddressId": 1403690, "Specialty": "Orthodontics and Dentofacial Orthopedics", "Photo": "findadentist.ada.org/Images/Profile/63185-Dr-Roy-Scott.png", "Name": "Dr Roy E Scott", "Email": "info@drroyscottorthodontics.com", "Phone": "(330) 372-3200", "Address": "1800 Elm Rd NE Warren, OH 44483-4030", "City": "Warren", "State": "OH", "Zip": "44483-4030", "AddressLine1": "1800 Elm Rd NE", "AddressLine2": "", "Distance": 14.7, "Latitude": 41.25119, "Longitude": -80.79673}, {"Sequence": 69, "PersonId": 63193, "AddressId": 3456217, "Specialty": "Pediatric Dentistry", "Photo": "findadentist.ada.org/Images/Profile/63193-Dr-Renee-Commarato.png", "Name": "Dr Renee Commarato", "Email": "", "Phone": "(330) 394-1516", "Address": "8845 E Market St Ste 2 Warren, OH 44484-2377", "City": "Warren", "State": "OH", "Zip": "44484-2377", "AddressLine1": "8845 E Market St Ste 2", "AddressLine2": "", "Distance": 12.2, "Latitude": 41.23831, "Longitude": -80.73038}, {"Sequence": 70, "PersonId": 187793, "AddressId": 2995029, "Specialty": "General Practice", "Photo": "findadentist.ada.org/Images/Profile/187793-Dr-Melinda-Ross.png", "Name": "Dr. Melinda A Ross", "Email": "drjime2@gmail.com", "Phone": "(330) 702-8500", "Address": "3665 Stutz Dr Canfield, OH 44406-9144", "City": "Canfield", "State": "OH", "Zip": "44406-9144", "AddressLine1": "3665 Stutz Dr", "AddressLine2": "Suite #2", "Distance": 5.4, "Latitude": 41.02204, "Longitude": -80.71293}, {"Sequence": 71, "PersonId": 63191, "AddressId": 1403696, "Specialty": "General Practice", "Photo": "findadentist.ada.org/Images/Profile/63191-Dr-David-Morvay.png", "Name": "Dr David A Morvay", "Email": "", "Phone": "(330) 856-4443", "Address": "628 Niles Cortland Rd SE Ste 101 Warren, OH 44484-2473", "City": "Warren", "State": "OH", "Zip": "44484-2473", "AddressLine1": "628 Niles Cortland Rd SE Ste 101", "AddressLine2": "", "Distance": 12.1, "Latitude": 41.23226, "Longitude": -80.74065}, {"Sequence": 72, "PersonId": 253213, "AddressId": 3512064, "Specialty": "General Practice", "Photo": "findadentist.ada.org/Images/Profile/253213-Dr-Megan-Turk.png", "Name": "Dr. Megan E Turk", "Email": "", "Phone": "(330) 533-0804", "Address": "5711 Shields Rd Ste A Canfield, OH 44406-9672", "City": "Canfield", "State": "OH", "Zip": "44406-9672", "AddressLine1": "5711 Shields Rd Ste A", "AddressLine2": "", "Distance": 6.7, "Latitude": 41.04364, "Longitude": -80.75957}, {"Sequence": 73, "PersonId": 63091, "AddressId": 3474520, "Specialty": "Oral and Maxillofacial Surgery", "Photo": "findadentist.ada.org/Images/Profile/63091-Dr-Russell-Wible.png", "Name": "Dr Russell T Wible", "Email": "", "Phone": "(724) 981-4222", "Address": "689 N Hermitage Rd Ste 3 Hermitage, PA 16148-3238", "City": "Hermitage", "State": "PA", "Zip": "16148-3238", "AddressLine1": "689 N Hermitage Rd Ste 3", "AddressLine2": "", "Distance": 15.1, "Latitude": 41.24259, "Longitude": -80.4506}, {"Sequence": 74, "PersonId": 63035, "AddressId": 3361958, "Specialty": "Endodontics", "Photo": "findadentist.ada.org/Images/Profile/63035-Dr-Gerhard-Berberich.png", "Name": "Dr Gerhard A Berberich", "Email": "", "Phone": "(330) 856-9989", "Address": "8740 E Market St Ste 1 Warren, OH 44484-2324", "City": "Warren", "State": "OH", "Zip": "44484-2324", "AddressLine1": "8740 E Market St Ste 1", "AddressLine2": "", "Distance": 12.2, "Latitude": 41.23759, "Longitude": -80.73247}, {"Sequence": 75, "PersonId": 63057, "AddressId": 1403562, "Specialty": "General Practice", "Photo": "findadentist.ada.org/Images/Profile/63057-Dr-Edwina-Burke.png", "Name": "Dr Edwina L Burke", "Email": "boardmantoothteam@gmail.com", "Phone": "(330) 758-8979", "Address": "755 Boardman Canfield Rd Ste L2 Boardman, OH 44512-7303", "City": "Boardman", "State": "OH", "Zip": "44512-7303", "AddressLine1": "755 Boardman Canfield Rd Ste L2", "AddressLine2": "", "Distance": 4.3, "Latitude": 41.02412, "Longitude": -80.68461}, {"Sequence": 76, "PersonId": 401734, "AddressId": 3554144, "Specialty": "General Practice", "Photo": "findadentist.ada.org/Images/Profile/401734-Dr-Morgan-Shivers.png", "Name": "Dr. Morgan N Shivers", "Email": "", "Phone": "(330) 332-9422", "Address": "2951 OH-45 Salem, OH 44460", "City": "Salem", "State": "OH", "Zip": "44460", "AddressLine1": "2951 OH-45", "AddressLine2": "", "Distance": 18.0, "Latitude": 40.85767, "Longitude": -80.82928}, {"Sequence": 77, "PersonId": 233365, "AddressId": 1573870, "Specialty": "General Practice", "Photo": "findadentist.ada.org/Images/Profile/233365-Dr-Dennis-Benton.png", "Name": "Dr. Dennis A Benton", "Email": "info@cortlanddentistry.com", "Phone": "(330) 638-5225", "Address": "320 Windsor Dr Cortland, OH 44410-2705", "City": "Cortland", "State": "OH", "Zip": "44410-2705", "AddressLine1": "320 Windsor Dr", "AddressLine2": "", "Distance": 17.0, "Latitude": 41.3117, "Longitude": -80.73076}, {"Sequence": 78, "PersonId": 243102, "AddressId": 3410035, "Specialty": "General Practice", "Photo": "findadentist.ada.org/Images/Profile/243102-Dr-Noelle-Peters.png", "Name": "Dr. Noelle M Peters", "Email": "thomasdentistry2@gmail.com", "Phone": "(724) 347-2722", "Address": "3705 East State Street Hermitage, PA 16148", "City": "Hermitage", "State": "PA", "Zip": "16148", "AddressLine1": "3705 East State Street", "AddressLine2": "", "Distance": 15.0, "Latitude": 41.2347, "Longitude": -80.44182}, {"Sequence": 79, "PersonId": 6427, "AddressId": 1346932, "Specialty": "Orthodontics and Dentofacial Orthopedics", "Photo": "findadentist.ada.org/Images/Profile/6427-Dr-Brad-Bauer.png", "Name": "Dr Brad L Bauer", "Email": "", "Phone": "(330) 850-5711", "Address": "8096 E Market St Warren, OH 44484-2261", "City": "Warren", "State": "OH", "Zip": "44484-2261", "AddressLine1": "8096 E Market St", "AddressLine2": "", "Distance": 12.6, "Latitude": 41.23782, "Longitude": -80.74622}, {"Sequence": 80, "PersonId": 78260, "AddressId": 1418765, "Specialty": "General Practice", "Photo": "findadentist.ada.org/Images/Profile/78260-Dr-Annette-Theofilos.png", "Name": "Dr. Annette C Theofilos", "Email": "", "Phone": "(724) 346-5173", "Address": "2213 Shenango Valley Fwy Hermitage, PA 16148-2544", "City": "Hermitage", "State": "PA", "Zip": "16148-2544", "AddressLine1": "2213 Shenango Valley Fwy", "AddressLine2": "", "Distance": 13.7, "Latitude": 41.22709, "Longitude": -80.46885}, {"Sequence": 81, "PersonId": 62825, "AddressId": 3505456, "Specialty": "General Practice", "Photo": "findadentist.ada.org/Images/Profile/62825-Dr-Martin-Raupple.png", "Name": "Dr Martin C Raupple", "Email": "rauppledds@gmail.com", "Phone": "(330) 702-9000", "Address": "6715 Tippecanoe Rd Ste E102 Canfield, OH 44406-8180", "City": "Canfield", "State": "OH", "Zip": "44406-8180", "AddressLine1": "6715 Tippecanoe Rd Ste E102", "AddressLine2": "", "Distance": 5.2, "Latitude": 41.02278, "Longitude": -80.71083}, {"Sequence": 82, "PersonId": 235028, "AddressId": 3506154, "Specialty": "General Practice", "Photo": "findadentist.ada.org/Images/Profile/235028-Dr-Matthew-Karski.png", "Name": "Dr. Matthew W Karski", "Email": "drjanekarski@gmail.com", "Phone": "(724) 654-8788", "Address": "2529 Wilmington Rd New Castle, PA 16105-1648", "City": "New Castle", "State": "PA", "Zip": "16105-1648", "AddressLine1": "2529 Wilmington Rd", "AddressLine2": "", "Distance": 15.0, "Latitude": 41.03176, "Longitude": -80.35529}, {"Sequence": 83, "PersonId": 135548, "AddressId": 1476053, "Specialty": "General Practice", "Photo": "findadentist.ada.org/Images/Profile/135548-Dr-Sergio-Nadler.png", "Name": "Dr. Sergio C Nadler", "Email": "", "Phone": "(330) 847-0676", "Address": "4817 Mahoning Ave Nw Warren, OH 44483-1430", "City": "Warren", "State": "OH", "Zip": "44483-1430", "AddressLine1": "4817 Mahoning Ave Nw", "AddressLine2": "", "Distance": 18.3, "Latitude": 41.28766, "Longitude": -80.84734}, {"Sequence": 84, "PersonId": 63040, "AddressId": 1403545, "Specialty": "General Practice", "Photo": "findadentist.ada.org/Images/Profile/63040-Dr-Gregory-Iaderosa.png", "Name": "Dr Gregory B Iaderosa", "Email": "", "Phone": "(330) 758-7540", "Address": "7645 Market St Ste 100 Youngstown, OH 44512-6098", "City": "Youngstown", "State": "OH", "Zip": "44512-6098", "AddressLine1": "7645 Market St Ste 100", "AddressLine2": "", "Distance": 4.3, "Latitude": 41.0158, "Longitude": -80.66272}, {"Sequence": 85, "PersonId": 223030, "AddressId": 2822557, "Specialty": "Oral and Maxillofacial Surgery", "Photo": "findadentist.ada.org/Images/Profile/223030-Dr-Andrew-Bushey.png", "Name": "Dr. Andrew W Bushey", "Email": "", "Phone": "(330) 758-0561", "Address": "7081 West Blvd Ste 1 Youngstown, OH 44512-4362", "City": "Youngstown", "State": "OH", "Zip": "44512-4362", "AddressLine1": "7081 West Blvd Ste 1", "AddressLine2": "", "Distance": 4.1, "Latitude": 41.02564, "Longitude": -80.6815}, {"Sequence": 86, "PersonId": 131186, "AddressId": 2692374, "Specialty": "Orthodontics and Dentofacial Orthopedics", "Photo": "findadentist.ada.org/Images/Profile/131186-Dr-Lisa-Lehky.png", "Name": "Dr. Lisa A Lehky", "Email": "", "Phone": "(330) 638-7004", "Address": "210 Windsor Dr Cortland, OH 44410-2703", "City": "Cortland", "State": "OH", "Zip": "44410-2703", "AddressLine1": "210 Windsor Dr", "AddressLine2": "", "Distance": 17.0, "Latitude": 41.31138, "Longitude": -80.7299}, {"Sequence": 87, "PersonId": 63002, "AddressId": 1403507, "Specialty": "General Practice", "Photo": "findadentist.ada.org/Images/Profile/63002-Dr-Rebecca-West-natale.png", "Name": "Dr Rebecca W Natale", "Email": "WFDENTAL@AOL.COM", "Phone": "(330) 856-2880", "Address": "433 Niles Cortland Rd NE Ste 1 Warren, OH 44484-1978", "City": "Warren", "State": "OH", "Zip": "44484-1978", "AddressLine1": "433 Niles Cortland Rd NE Ste 1", "AddressLine2": "", "Distance": 12.7, "Latitude": 41.24303, "Longitude": -80.74057}, {"Sequence": 88, "PersonId": 63181, "AddressId": 3490066, "Specialty": "General Practice", "Photo": "findadentist.ada.org/Images/Profile/63181-Dr-John-Rohrabaugh.png", "Name": "Dr John J Rohrabaugh", "Email": "Davenportrohrabaugh@yahoo.com", "Phone": "(330) 638-7796", "Address": "277 S. High St. Cortland, OH 44410", "City": "Cortland", "State": "OH", "Zip": "44410", "AddressLine1": "277 S. High St.", "AddressLine2": "", "Distance": 17.9, "Latitude": 41.32533, "Longitude": -80.72608}, {"Sequence": 89, "PersonId": 78211, "AddressId": 1418716, "Specialty": "General Practice", "Photo": "findadentist.ada.org/Images/Profile/78211-Dr-Joseph-Ross.png", "Name": "Dr Joseph E Ross", "Email": "", "Phone": "(724) 654-2511", "Address": "106 East North Street New Castle, PA 16101-3708", "City": "New Castle", "State": "PA", "Zip": "16101-3708", "AddressLine1": "106 East North Street", "AddressLine2": "", "Distance": 16.1, "Latitude": 41.00117, "Longitude": -80.34536}, {"Sequence": 90, "PersonId": 63154, "AddressId": 1403659, "Specialty": "Periodontics", "Photo": "findadentist.ada.org/Images/Profile/63154-Dr-Patrick-Haggerty.png", "Name": "Dr Patrick C Haggerty", "Email": "pch3700@yahoo.com", "Phone": "(330) 702-0373", "Address": "3700 Stutz Dr Ste 1 Canfield, OH 44406-8194", "City": "Canfield", "State": "OH", "Zip": "44406-8194", "AddressLine1": "3700 Stutz Dr Ste 1", "AddressLine2": "", "Distance": 5.4, "Latitude": 41.02284, "Longitude": -80.71427}, {"Sequence": 91, "PersonId": 63176, "AddressId": 3352287, "Specialty": "General Practice", "Photo": "findadentist.ada.org/Images/Profile/63176-Dr-Paul-Shivers.png", "Name": "Dr Paul K Shivers", "Email": "shiversdentistry@gmail.com", "Phone": "(330) 332-9422", "Address": "2951 State Route 45 S Salem, OH 44460-9465", "City": "Salem", "State": "OH", "Zip": "44460-9465", "AddressLine1": "2951 State Route 45 S", "AddressLine2": "", "Distance": 18.0, "Latitude": 40.85767, "Longitude": -80.82929}, {"Sequence": 92, "PersonId": 63010, "AddressId": 1403515, "Specialty": "Orthodontics and Dentofacial Orthopedics", "Photo": "findadentist.ada.org/Images/Profile/ADA.png", "Name": "Dr Stephen M Begezda", "Email": "", "Phone": "(330) 726-9091", "Address": "935 Trailwood Dr Ste B Youngstown, OH 44512-5062", "City": "Youngstown", "State": "OH", "Zip": "44512-5062", "AddressLine1": "935 Trailwood Dr Ste B", "AddressLine2": "", "Distance": 3.3, "Latitude": 41.02694, "Longitude": -80.63602}, {"Sequence": 93, "PersonId": 63004, "AddressId": 1403509, "Specialty": "General Practice", "Photo": "findadentist.ada.org/Images/Profile/ADA.png", "Name": "Dr M Frank Beck", "Email": "", "Phone": "(330) 965-9344", "Address": "721 Boardman Poland Rd Ste 203 Youngstown, OH 44512-5105", "City": "Youngstown", "State": "OH", "Zip": "44512-5105", "AddressLine1": "721 Boardman Poland Rd Ste 203", "AddressLine2": "", "Distance": 3.6, "Latitude": 41.02356, "Longitude": -80.64111}, {"Sequence": 94, "PersonId": 161164, "AddressId": 2690125, "Specialty": "Oral and Maxillofacial Surgery", "Photo": "findadentist.ada.org/Images/Profile/ADA.png", "Name": "Dr. Craig A Wagley", "Email": "", "Phone": null, "Address": "7010 South Ave Youngstown, OH 44512-3603", "City": "Youngstown", "State": "OH", "Zip": "44512-3603", "AddressLine1": "7010 South Ave", "AddressLine2": "", "Distance": 3.4, "Latitude": 41.02695, "Longitude": -80.63511}, {"Sequence": 95, "PersonId": 131468, "AddressId": 2752974, "Specialty": "Endodontics", "Photo": "findadentist.ada.org/Images/Profile/ADA.png", "Name": "Dr. Anthony J DiRenzo", "Email": "", "Phone": "(330) 533-0555", "Address": "6715 Tippecanoe Rd Ste D202 Canfield, OH 44406-9183", "City": "Canfield", "State": "OH", "Zip": "44406-9183", "AddressLine1": "6715 Tippecanoe Rd Ste D202", "AddressLine2": "", "Distance": 5.3, "Latitude": 41.022, "Longitude": -80.70998}, {"Sequence": 96, "PersonId": 132540, "AddressId": 1473045, "Specialty": "General Practice", "Photo": "findadentist.ada.org/Images/Profile/ADA.png", "Name": "Dr. William D Cosgrove", "Email": "", "Phone": "(724) 301-3991", "Address": "301 Hearthstone Dr New Castle, PA 16105-1373", "City": "New Castle", "State": "PA", "Zip": "16105-1373", "AddressLine1": "301 Hearthstone Dr", "AddressLine2": "", "Distance": 15.7, "Latitude": 41.04872, "Longitude": -80.3389}, {"Sequence": 97, "PersonId": 139007, "AddressId": 1479512, "Specialty": "General Practice", "Photo": "findadentist.ada.org/Images/Profile/ADA.png", "Name": "Dr. Jill K Babinec", "Email": "", "Phone": "(330) 792-5560", "Address": "6811 Pinebrook Ct. Youngstown, OH 44515-2339", "City": "Youngstown", "State": "OH", "Zip": "44515-2339", "AddressLine1": "6811 Pinebrook Ct.", "AddressLine2": "", "Distance": 8.0, "Latitude": 41.07873, "Longitude": -80.79215}, {"Sequence": 98, "PersonId": 63182, "AddressId": 3490255, "Specialty": "General Practice", "Photo": "findadentist.ada.org/Images/Profile/ADA.png", "Name": "Dr Terrence J Martzial, III", "Email": "", "Phone": "(330) 542-3067", "Address": "10282 Main St # 1 New Middletown, OH 44442-9717", "City": "New Middletown", "State": "OH", "Zip": "44442-9717", "AddressLine1": "10282 Main St # 1", "AddressLine2": "", "Distance": 8.3, "Latitude": 40.96884, "Longitude": -80.56468}, {"Sequence": 99, "PersonId": 195550, "AddressId": 1536055, "Specialty": "Orthodontics and Dentofacial Orthopedics", "Photo": "findadentist.ada.org/Images/Profile/ADA.png", "Name": "Dr. Marissa L Mikolich", "Email": "", "Phone": "(330) 967-4110", "Address": "6674 Tippecanoe Rd Ste 2 Canfield, OH 44406-9149", "City": "Canfield", "State": "OH", "Zip": "44406-9149", "AddressLine1": "6674 Tippecanoe Rd Ste 2", "AddressLine2": "", "Distance": 5.3, "Latitude": 41.02202, "Longitude": -80.7119}, {"Sequence": 100, "PersonId": 63201, "AddressId": 1403706, "Specialty": "General Practice", "Photo": "findadentist.ada.org/Images/Profile/ADA.png", "Name": "Dr Jeffrey M Palusak", "Email": "", "Phone": "(330) 482-3627", "Address": "155 Deal Dr Columbiana, OH 44408-8496", "City": "Columbiana", "State": "OH", "Zip": "44408-8496", "AddressLine1": "155 Deal Dr", "AddressLine2": "", "Distance": 12.9, "Latitude": 40.88923, "Longitude": -80.64947}]