[{"Sequence": 1, "PersonId": 228639, "AddressId": 3288263, "Specialty": "General Practice", "Photo": "findadentist.ada.org/Images/Profile/228639-Dr-Joel-Lanie.png", "Name": "Dr. Joel A Lanie", "Email": "", "Phone": "(317) 422-5172", "Address": "50 S State Road 135 Bargersville, IN 46106", "City": "Bargersville", "State": "IN", "Zip": "46106", "AddressLine1": "50 S State Road 135", "AddressLine2": "PO Box 608", "Distance": 2.5, "Latitude": 39.52159, "Longitude": -86.15931}, {"Sequence": 2, "PersonId": 220727, "AddressId": 1561232, "Specialty": "General Practice", "Photo": "findadentist.ada.org/Images/Profile/220727-Dr-Shadrach-Gonqueh.png", "Name": "Dr. Shadrach G Gonqueh", "Email": "amazingfamilydental@gmail.com", "Phone": "(317) 781-3900", "Address": "1664 E Raymond St Indianapolis, IN 46203-4143", "City": "Indianapolis", "State": "IN", "Zip": "46203-4143", "AddressLine1": "1664 E Raymond St", "AddressLine2": "", "Distance": 15.7, "Latitude": 39.73773, "Longitude": -86.13088}, {"Sequence": 3, "PersonId": 325347, "AddressId": 3441524, "Specialty": "General Practice", "Photo": "findadentist.ada.org/Images/Profile/325347-Dr-Jeffrey-Steele.png", "Name": "Dr Jeffrey E Steele", "Email": "jeffstee@iu.edu", "Phone": null, "Address": "1121 W Michigan St Indianapolis, IN 46202-5211", "City": "Indianapolis", "State": "IN", "Zip": "46202-5211", "AddressLine1": "1121 W Michigan St", "AddressLine2": "", "Distance": 17.8, "Latitude": 39.77406, "Longitude": -86.17996}, {"Sequence": 4, "PersonId": 322917, "AddressId": 1663422, "Specialty": "General Practice", "Photo": "findadentist.ada.org/Images/Profile/322917-Dr-George-Carrico.png", "Name": "Dr George L Carrico", "Email": "", "Phone": "(317) 247-1010", "Address": "610 N High School Rd Indianapolis, IN 46214-3659", "City": "Indianapolis", "State": "IN", "Zip": "46214-3659", "AddressLine1": "610 N High School Rd", "AddressLine2": "", "Distance": 18.0, "Latitude": 39.77338, "Longitude": -86.27051}, {"Sequence": 5, "PersonId": 268237, "AddressId": 3032138, "Specialty": "General Practice", "Photo": "findadentist.ada.org/Images/Profile/268237-Dr-Juan-Velez.png", "Name": "Dr. Juan E Velez", "Email": "info@velezdentistry.com", "Phone": "(317) 745-6355", "Address": "5055 E US Hwy 36 Ste 101 Avon, IN 46123", "City": "Avon", "State": "IN", "Zip": "46123", "AddressLine1": "5055 E US Hwy 36 Ste 101", "AddressLine2": "", "Distance": 8.9, "Latitude": 39.62437, "Longitude": -86.11279}, {"Sequence": 6, "PersonId": 323103, "AddressId": 2753466, "Specialty": "General Practice", "Photo": "findadentist.ada.org/Images/Profile/323103-Dr-Aaron-Wilkins.png", "Name": "Dr. Aaron L Wilkins", "Email": "stonescrossingbusiness@gmail.com", "Phone": "(317) 535-3940", "Address": "2525 S State Road 135 Greenwood, IN 46143-9449", "City": "Greenwood", "State": "IN", "Zip": "46143-9449", "AddressLine1": "2525 S State Road 135", "AddressLine2": "", "Distance": 4.9, "Latitude": 39.57896, "Longitude": -86.15896}, {"Sequence": 7, "PersonId": 354397, "AddressId": 3547598, "Specialty": "General Practice", "Photo": "findadentist.ada.org/Images/Profile/354397-Dr-Brody-Goodwine.png", "Name": "Dr. Brody W Goodwine", "Email": "", "Phone": "(317) 888-5300", "Address": "7015 US 31 S Ste D Indianapolis, IN 46227", "City": "Indianapolis", "State": "IN", "Zip": "46227", "AddressLine1": "7015 US 31 S Ste D", "AddressLine2": "", "Distance": 10.6, "Latitude": 39.66354, "Longitude": -86.14588}, {"Sequence": 8, "PersonId": 261395, "AddressId": 3383306, "Specialty": "General Practice", "Photo": "findadentist.ada.org/Images/Profile/261395-Dr-Brittany-Green.png", "Name": "Dr. Brittany M Green", "Email": "geistdentalcare@mydentalmail.com", "Phone": "(317) 826-4347", "Address": "11683 Fox Rd. Indianapolis, IN 46236", "City": "Indianapolis", "State": "IN", "Zip": "46236", "AddressLine1": "11683 Fox Rd.", "AddressLine2": "", "Distance": 18.8, "Latitude": 39.77111, "Longitude": -86.07455}, {"Sequence": 9, "PersonId": 252954, "AddressId": 3035279, "Specialty": "General Practice", "Photo": "findadentist.ada.org/Images/Profile/252954-Dr-Emily-Thomas.png", "Name": "Dr. Emily B Thomas", "Email": "info@meridiandentistry.com", "Phone": "(317) 926-5467", "Address": "2291 N Meridian St Indianapolis, IN 46208-5727", "City": "Indianapolis", "State": "IN", "Zip": "46208-5727", "AddressLine1": "2291 N Meridian St", "AddressLine2": "", "Distance": 19.6, "Latitude": 39.79894, "Longitude": -86.15664}, {"Sequence": 10, "PersonId": 251900, "AddressId": 1592405, "Specialty": "General Practice", "Photo": "findadentist.ada.org/Images/Profile/251900-Dr-Ashwani-Sharma.png", "Name": "Dr. Ashwani Sharma", "Email": "indybrooksidedental@gmail.com", "Phone": "(317) 983-1200", "Address": "2536 E 10th St Indianapolis, IN 46201", "City": "Indianapolis", "State": "IN", "Zip": "46201", "AddressLine1": "2536 E 10th St", "AddressLine2": "", "Distance": 18.8, "Latitude": 39.78159, "Longitude": -86.11831}, {"Sequence": 11, "PersonId": 322779, "AddressId": 3489357, "Specialty": "Orthodontics and Dentofacial Orthopedics", "Photo": "findadentist.ada.org/Images/Profile/322779-Dr-Jeffrey-Dean.png", "Name": "Dr Jeffrey A Dean", "Email": "martir@clarkdeanjones.com", "Phone": "(317) 271-9727", "Address": "7830 Rockville Rd  #A Indianapolis, IN 46214-3129", "City": "Indianapolis", "State": "IN", "Zip": "46214-3129", "AddressLine1": "7830 Rockville Rd  #A", "AddressLine2": "", "Distance": 17.8, "Latitude": 39.76488, "Longitude": -86.29921}, {"Sequence": 12, "PersonId": 248904, "AddressId": 2774493, "Specialty": "General Practice", "Photo": "findadentist.ada.org/Images/Profile/248904-Dr-Amanda-Miller.png", "Name": "Dr. Amanda F Miller", "Email": "wolffamilydentistry@gmail.com", "Phone": "(317) 881-8161", "Address": "8920 Southpointe Dr Indianapolis, IN 46227-7505", "City": "Indianapolis", "State": "IN", "Zip": "46227-7505", "AddressLine1": "8920 Southpointe Dr", "AddressLine2": "Ste A1", "Distance": 9.0, "Latitude": 39.63662, "Longitude": -86.13797}, {"Sequence": 13, "PersonId": 322959, "AddressId": 2753461, "Specialty": "General Practice", "Photo": "findadentist.ada.org/Images/Profile/322959-Dr-Matthew-Wittrig.png", "Name": "Dr Matthew S Wittrig", "Email": "", "Phone": "(317) 882-4028", "Address": "33 E County Line Rd Ste C Greenwood, IN 46143-1078", "City": "Greenwood", "State": "IN", "Zip": "46143-1078", "AddressLine1": "33 E County Line Rd Ste C", "AddressLine2": "", "Distance": 9.7, "Latitude": 39.63534, "Longitude": -86.10551}, {"Sequence": 14, "PersonId": 225510, "AddressId": 1566015, "Specialty": "General Practice", "Photo": "findadentist.ada.org/Images/Profile/225510-Dr-Katherine-Byerly.png", "Name": "Dr. Katherine E Byerly", "Email": "", "Phone": "(317) 632-1488", "Address": "111 Monument Circle Ste 3350 Indianapolis, IN 46204", "City": "Indianapolis", "State": "IN", "Zip": "46204", "AddressLine1": "111 Monument Circle Ste 3350", "AddressLine2": "", "Distance": 17.6, "Latitude": 39.76904, "Longitude": -86.1572}, {"Sequence": 15, "PersonId": 248896, "AddressId": 2761852, "Specialty": "General Practice", "Photo": "findadentist.ada.org/Images/Profile/248896-Dr-John-Jansen.png", "Name": "Dr. John P Jansen", "Email": "", "Phone": "(317) 888-6111", "Address": "710 Averitt Rd Ste C Greenwood, IN 46143-6391", "City": "Greenwood", "State": "IN", "Zip": "46143-6391", "AddressLine1": "710 Averitt Rd Ste C", "AddressLine2": "", "Distance": 7.5, "Latitude": 39.60515, "Longitude": -86.12156}, {"Sequence": 16, "PersonId": 323013, "AddressId": 2685544, "Specialty": "General Practice", "Photo": "findadentist.ada.org/Images/Profile/323013-Dr-Skipper-Cheesman.png", "Name": "Dr Skipper C Cheesman", "Email": "", "Phone": null, "Address": "150 N Indiana St Mooresville, IN 46158-1506", "City": "Mooresville", "State": "IN", "Zip": "46158-1506", "AddressLine1": "150 N Indiana St", "AddressLine2": "", "Distance": 11.3, "Latitude": 39.61536, "Longitude": -86.37527}, {"Sequence": 17, "PersonId": 322636, "AddressId": 1663141, "Specialty": "General Practice", "Photo": "findadentist.ada.org/Images/Profile/322636-Dr-Jay-Rifkind.png", "Name": "Dr Jay Rifkind", "Email": "", "Phone": "(317) 881-1700", "Address": "1701 Library Blvd Ste K Greenwood, IN 46142-1567", "City": "Greenwood", "State": "IN", "Zip": "46142-1567", "AddressLine1": "1701 Library Blvd Ste K", "AddressLine2": "", "Distance": 6.7, "Latitude": 39.60751, "Longitude": -86.1565}, {"Sequence": 18, "PersonId": 219925, "AddressId": 1560430, "Specialty": "Periodontics", "Photo": "findadentist.ada.org/Images/Profile/219925-Dr-Daniel-Gomes.png", "Name": "Dr. Daniel Gomes", "Email": "cipa2840@live.com", "Phone": "(317) 299-4731", "Address": "8235 Country Village Dr Indianapolis, IN 46214-3106", "City": "Indianapolis", "State": "IN", "Zip": "46214-3106", "AddressLine1": "8235 Country Village Dr", "AddressLine2": "", "Distance": 17.8, "Latitude": 39.76301, "Longitude": -86.30538}, {"Sequence": 19, "PersonId": 322641, "AddressId": 2729260, "Specialty": "Pediatric Dentistry", "Photo": "findadentist.ada.org/Images/Profile/322641-Dr-James-Weddell.png", "Name": "Dr James A Weddell", "Email": "", "Phone": "(317) 274-7957", "Address": "1121 W Michigan St Indianapolis, IN 46202-5211", "City": "Indianapolis", "State": "IN", "Zip": "46202-5211", "AddressLine1": "1121 W Michigan St", "AddressLine2": "Indiana University School of Dentistry", "Distance": 17.8, "Latitude": 39.77425, "Longitude": -86.18058}, {"Sequence": 20, "PersonId": 322602, "AddressId": 1663107, "Specialty": "General Practice", "Photo": "findadentist.ada.org/Images/Profile/322602-Dr-Robert-Vote.png", "Name": "Dr Robert B Vote", "Email": "", "Phone": "(317) 856-5544", "Address": "7441 Heathrow Way Indianapolis, IN 46241-9503", "City": "Indianapolis", "State": "IN", "Zip": "46241-9503", "AddressLine1": "7441 Heathrow Way", "AddressLine2": "", "Distance": 12.1, "Latitude": 39.68064, "Longitude": -86.29059}, {"Sequence": 21, "PersonId": 322765, "AddressId": 3469283, "Specialty": "General Practice", "Photo": "findadentist.ada.org/Images/Profile/322765-Dr-Mark-Gleixner.png", "Name": "Dr Mark E Gleixner", "Email": "gleixnerdds@sbcglobal.net", "Phone": "(317) 885-7760", "Address": "1678 Fry Rd Ste B Greenwood, IN 46142-1176", "City": "Greenwood", "State": "IN", "Zip": "46142-1176", "AddressLine1": "1678 Fry Rd Ste B", "AddressLine2": "Suite B", "Distance": 7.9, "Latitude": 39.62576, "Longitude": -86.15759}, {"Sequence": 22, "PersonId": 322905, "AddressId": 1663410, "Specialty": "General Practice", "Photo": "findadentist.ada.org/Images/Profile/322905-Dr-David-Wolf.png", "Name": "Dr David H Wolf", "Email": "wolffamilydentistry@gmail.com", "Phone": "(317) 881-8161", "Address": "8920 Southpointe Dr # A-1 Indianapolis, IN 46227-7505", "City": "Indianapolis", "State": "IN", "Zip": "46227-7505", "AddressLine1": "8920 Southpointe Dr # A-1", "AddressLine2": "", "Distance": 9.0, "Latitude": 39.63662, "Longitude": -86.13797}, {"Sequence": 23, "PersonId": 323098, "AddressId": 3331491, "Specialty": "General Practice", "Photo": "findadentist.ada.org/Images/Profile/323098-Dr-Vanessa-Mahan.png", "Name": "Dr Vanessa O Mahan", "Email": "jlp@mahanpetedds.com", "Phone": "(317) 888-4111", "Address": "710 Averitt Rd Ste D Greenwood, IN 46143-6391", "City": "Greenwood", "State": "IN", "Zip": "46143-6391", "AddressLine1": "710 Averitt Rd Ste D", "AddressLine2": "PO Box 564", "Distance": 7.5, "Latitude": 39.60515, "Longitude": -86.12156}, {"Sequence": 24, "PersonId": 322431, "AddressId": 1662936, "Specialty": "General Practice", "Photo": "findadentist.ada.org/Images/Profile/322431-Dr-James-McAllister.png", "Name": "Dr James C McAllister", "Email": "EIDA@SDCGOBAL.NET", "Phone": "(317) 357-8548", "Address": "135 N Shortridge Rd Ste B5 Indianapolis, IN 46219-8905", "City": "Indianapolis", "State": "IN", "Zip": "46219-8905", "AddressLine1": "135 N Shortridge Rd Ste B5", "AddressLine2": "", "Distance": 19.9, "Latitude": 39.77528, "Longitude": -86.04011}, {"Sequence": 25, "PersonId": 322264, "AddressId": 1662769, "Specialty": "Orthodontics and Dentofacial Orthopedics", "Photo": "findadentist.ada.org/Images/Profile/322264-Dr-Karl-Glander.png", "Name": "Dr Karl W Glander", "Email": "sglandeortho@yahoo.com", "Phone": "(317) 898-2827", "Address": "8445 S Emerson Ave Ste 102 Indianapolis, IN 46237-9597", "City": "Indianapolis", "State": "IN", "Zip": "46237-9597", "AddressLine1": "8445 S Emerson Ave Ste 102", "AddressLine2": "", "Distance": 10.9, "Latitude": 39.64412, "Longitude": -86.08195}, {"Sequence": 26, "PersonId": 322941, "AddressId": 1663446, "Specialty": "General Practice", "Photo": "findadentist.ada.org/Images/Profile/322941-Dr-Rebecca-De La Rosa.png", "Name": "Dr Rebecca J De La Rosa", "Email": "delarosaafd@aol.com", "Phone": "(317) 272-7715", "Address": "7318 E US Highway 36 Ste 100 Avon, IN 46123-6882", "City": "Avon", "State": "IN", "Zip": "46123-6882", "AddressLine1": "7318 E US Highway 36 Ste 100", "AddressLine2": "", "Distance": 19.7, "Latitude": 39.7633, "Longitude": -86.39388}, {"Sequence": 27, "PersonId": 121119, "AddressId": 3106627, "Specialty": "General Practice", "Photo": "findadentist.ada.org/Images/Profile/121119-Dr-Timothy-Dudley.png", "Name": "Dr. Timothy W Dudley", "Email": "information@smilein.com", "Phone": "(317) 786-9501", "Address": "4030 S Meridian St Ste A Indianapolis, IN 46217-4091", "City": "Indianapolis", "State": "IN", "Zip": "46217-4091", "AddressLine1": "4030 S Meridian St Ste A", "AddressLine2": "", "Distance": 13.3, "Latitude": 39.70703, "Longitude": -86.15846}, {"Sequence": 28, "PersonId": 234354, "AddressId": 1574859, "Specialty": "General Practice", "Photo": "findadentist.ada.org/Images/Profile/234354-Dr-Maxwell-Miller.png", "Name": "Dr. Maxwell S Miller", "Email": "millerdentistry@hotmail.com", "Phone": "(317) 632-6258", "Address": "320 N Meridian St Ste 808 Indianapolis, IN 46204-1719", "City": "Indianapolis", "State": "IN", "Zip": "46204-1719", "AddressLine1": "320 N Meridian St Ste 808", "AddressLine2": "", "Distance": 17.7, "Latitude": 39.77188, "Longitude": -86.15841}, {"Sequence": 29, "PersonId": 322651, "AddressId": 1663156, "Specialty": "General Practice", "Photo": "findadentist.ada.org/Images/Profile/322651-Dr-Paul-Jansen.png", "Name": "Dr Paul T Jansen", "Email": "", "Phone": "(317) 888-6111", "Address": "710 Averitt Rd Ste C Greenwood, IN 46143-6391", "City": "Greenwood", "State": "IN", "Zip": "46143-6391", "AddressLine1": "710 Averitt Rd Ste C", "AddressLine2": "", "Distance": 7.5, "Latitude": 39.60515, "Longitude": -86.12156}, {"Sequence": 30, "PersonId": 322647, "AddressId": 3547374, "Specialty": "Orthodontics and Dentofacial Orthopedics", "Photo": "findadentist.ada.org/Images/Profile/322647-Dr-Peter-Chapman.png", "Name": "Dr Peter L Chapman", "Email": "", "Phone": "(317) 247-9512", "Address": "6443 W 10th St Ste 204 Indianapolis, IN 46214-6502", "City": "Indianapolis", "State": "IN", "Zip": "46214-6502", "AddressLine1": "6443 W 10th St Ste 204", "AddressLine2": "", "Distance": 18.4, "Latitude": 39.77921, "Longitude": -86.2751}, {"Sequence": 31, "PersonId": 265784, "AddressId": 1606289, "Specialty": "General Practice", "Photo": "findadentist.ada.org/Images/Profile/265784-Dr-Shirley-Ferreira.png", "Name": "Dr. Shirley S Ferreira-Stratman", "Email": "contact@circlecity.dental", "Phone": "(317) 672-7522", "Address": "435 Virginia Ave Unit 1800 Indianapolis, IN 46203-0016", "City": "Indianapolis", "State": "IN", "Zip": "46203-0016", "AddressLine1": "435 Virginia Ave Unit 1800", "AddressLine2": "", "Distance": 17.0, "Latitude": 39.76024, "Longitude": -86.14889}, {"Sequence": 32, "PersonId": 188566, "AddressId": 3412954, "Specialty": "General Practice", "Photo": "findadentist.ada.org/Images/Profile/188566-Dr-Joseph-Hadley.png", "Name": "Dr. Joseph Hadley", "Email": "info@drhadleydental.com", "Phone": "(317) 780-7777", "Address": "5406 S Emerson Ave Ste A Indianapolis, IN 46237-1980", "City": "Indianapolis", "State": "IN", "Zip": "46237-1980", "AddressLine1": "5406 S Emerson Ave Ste A", "AddressLine2": "", "Distance": 13.5, "Latitude": 39.68909, "Longitude": -86.08302}, {"Sequence": 33, "PersonId": 322964, "AddressId": 1663469, "Specialty": "Oral and Maxillofacial Surgery", "Photo": "findadentist.ada.org/Images/Profile/322964-Dr-David-Trigg.png", "Name": "Dr David D Trigg", "Email": "", "Phone": "(317) 889-9000", "Address": "385 Meridian Parke Ln Ste A Greenwood, IN 46142-9426", "City": "Greenwood", "State": "IN", "Zip": "46142-9426", "AddressLine1": "385 Meridian Parke Ln Ste A", "AddressLine2": null, "Distance": 7.4, "Latitude": 39.61959, "Longitude": -86.16186}, {"Sequence": 34, "PersonId": 214747, "AddressId": 1555252, "Specialty": "General Practice", "Photo": "findadentist.ada.org/Images/Profile/214747-Dr-Mark-Sherer.png", "Name": "Dr. Mark E Sherer", "Email": "", "Phone": "(317) 634-8440", "Address": "151 N Delaware St Ste 135 Indianapolis, IN 46204-2571", "City": "Indianapolis", "State": "IN", "Zip": "46204-2571", "AddressLine1": "151 N Delaware St Ste 135", "AddressLine2": "", "Distance": 17.6, "Latitude": 39.7695, "Longitude": -86.15399}, {"Sequence": 35, "PersonId": 214726, "AddressId": 1555231, "Specialty": "General Practice", "Photo": "findadentist.ada.org/Images/Profile/214726-Dr-Jacob-Masters.png", "Name": "Dr. Jacob L Masters", "Email": "jmastersdds@gmail.com", "Phone": "(317) 881-2500", "Address": "5170 Commerce Circle Indianapolis, IN 46237-9744", "City": "Indianapolis", "State": "IN", "Zip": "46237-9744", "AddressLine1": "5170 Commerce Circle", "AddressLine2": "", "Distance": 11.6, "Latitude": 39.65577, "Longitude": -86.08176}, {"Sequence": 36, "PersonId": 121542, "AddressId": 1462047, "Specialty": "General Practice", "Photo": "findadentist.ada.org/Images/Profile/121542-Dr-Christopher-Shorey.png", "Name": "Dr. Christopher W Shorey", "Email": "office.shoreyfamilydental@gmail.com", "Phone": "(317) 862-9800", "Address": "8325 E Southport Rd Ste 180 Indianapolis, IN 46259-6805", "City": "Indianapolis", "State": "IN", "Zip": "46259-6805", "AddressLine1": "8325 E Southport Rd Ste 180", "AddressLine2": "", "Distance": 14.3, "Latitude": 39.66623, "Longitude": -86.01943}, {"Sequence": 37, "PersonId": 323076, "AddressId": 1663581, "Specialty": "General Practice", "Photo": "findadentist.ada.org/Images/Profile/323076-Dr-Doris-VanNatter.png", "Name": "Dr Doris A VanNatter", "Email": "", "Phone": "(317) 839-5500", "Address": "712 W Main St Ste 100 Plainfield, IN 46168-9403", "City": "Plainfield", "State": "IN", "Zip": "46168-9403", "AddressLine1": "712 W Main St Ste 100", "AddressLine2": "", "Distance": 16.7, "Latitude": 39.69988, "Longitude": -86.41284}, {"Sequence": 38, "PersonId": 323005, "AddressId": 1663510, "Specialty": "Endodontics", "Photo": "findadentist.ada.org/Images/Profile/323005-Dr-Douglas-Ramsey.png", "Name": "Dr Douglas L Ramsey", "Email": "inendo@sbcglobal.net", "Phone": "(317) 882-2882", "Address": "8782 Madison Ave Indianapolis, IN 46227-7202", "City": "Indianapolis", "State": "IN", "Zip": "46227-7202", "AddressLine1": "8782 Madison Ave", "AddressLine2": "", "Distance": 9.5, "Latitude": 39.63891, "Longitude": -86.1203}, {"Sequence": 39, "PersonId": 322836, "AddressId": 2753457, "Specialty": "General Practice", "Photo": "findadentist.ada.org/Images/Profile/322836-Dr-Brent-Barta.png", "Name": "Dr Brent J Barta", "Email": "coordinators@west10thdentalgroup.com", "Phone": "(317) 247-9512", "Address": "6443 W. 10th St Ste 204 Indianapolis, IN 46214-6502", "City": "Indianapolis", "State": "IN", "Zip": "46214-6502", "AddressLine1": "6443 W. 10th St Ste 204", "AddressLine2": "", "Distance": 18.4, "Latitude": 39.77919, "Longitude": -86.27509}, {"Sequence": 40, "PersonId": 121575, "AddressId": 1462080, "Specialty": "General Practice", "Photo": "findadentist.ada.org/Images/Profile/121575-Dr-Nell-Thompson.png", "Name": "Dr. Nell M Thompson", "Email": "", "Phone": "(317) 736-6361", "Address": "1035 W Jefferson St Franklin, IN 46131-2123", "City": "Franklin", "State": "IN", "Zip": "46131-2123", "AddressLine1": "1035 W Jefferson St", "AddressLine2": "", "Distance": 7.7, "Latitude": 39.47948, "Longitude": -86.06932}, {"Sequence": 41, "PersonId": 273424, "AddressId": 1613929, "Specialty": "General Practice", "Photo": "findadentist.ada.org/Images/Profile/273424-Dr-Timothy-Williams.png", "Name": "Dr. Timothy J Williams", "Email": "dentistry@plainfieldfamilydental.com", "Phone": "(317) 839-8684", "Address": "1620 Hawthorne Dr Ste 100 Plainfield, IN 46168-2814", "City": "Plainfield", "State": "IN", "Zip": "46168-2814", "AddressLine1": "1620 Hawthorne Dr Ste 100", "AddressLine2": "", "Distance": 16.3, "Latitude": 39.7116, "Longitude": -86.37996}, {"Sequence": 42, "PersonId": 322478, "AddressId": 1662983, "Specialty": "General Practice", "Photo": "findadentist.ada.org/Images/Profile/322478-Dr-Donald-Snyder.png", "Name": "Dr Donald L Snyder", "Email": "dls@ee.wustl.edu", "Phone": "(765) 342-7204", "Address": "2009 Burton Ln Martinsville, IN 46151-3011", "City": "Martinsville", "State": "IN", "Zip": "46151-3011", "AddressLine1": "2009 Burton Ln", "AddressLine2": "", "Distance": 14.5, "Latitude": 39.40717, "Longitude": -86.43676}, {"Sequence": 43, "PersonId": 322977, "AddressId": 1663482, "Specialty": "General Practice", "Photo": "findadentist.ada.org/Images/Profile/322977-Dr-Stacy-Johnson.png", "Name": "Dr Stacy D Johnson", "Email": "", "Phone": "(317) 535-7141", "Address": "3056 W Stones Crossing Rd Greenwood, IN 46143-6484", "City": "Greenwood", "State": "IN", "Zip": "46143-6484", "AddressLine1": "3056 W Stones Crossing Rd", "AddressLine2": "", "Distance": 4.8, "Latitude": 39.57818, "Longitude": -86.16048}, {"Sequence": 44, "PersonId": 325013, "AddressId": 2906875, "Specialty": "General Practice", "Photo": "findadentist.ada.org/Images/Profile/325013-Dr-Jeffrey-Platt.png", "Name": "Dr Jeffrey A Platt", "Email": "", "Phone": "(317) 884-8633", "Address": "8445 S Emerson Ave Ste 101 Indianapolis, IN 46237-9597", "City": "Indianapolis", "State": "IN", "Zip": "46237-9597", "AddressLine1": "8445 S Emerson Ave Ste 101", "AddressLine2": "", "Distance": 10.9, "Latitude": 39.64412, "Longitude": -86.08195}, {"Sequence": 45, "PersonId": 202688, "AddressId": 1543193, "Specialty": "General Practice", "Photo": "findadentist.ada.org/Images/Profile/202688-Dr-Stephen-Trager.png", "Name": "Dr. Stephen Trager", "Email": "info@meridiandentistry.com", "Phone": "(317) 926-5467", "Address": "2291 N Meridian St Indianapolis, IN 46208-5727", "City": "Indianapolis", "State": "IN", "Zip": "46208-5727", "AddressLine1": "2291 N Meridian St", "AddressLine2": "", "Distance": 19.6, "Latitude": 39.79894, "Longitude": -86.15664}, {"Sequence": 46, "PersonId": 322892, "AddressId": 3433241, "Specialty": "Orthodontics and Dentofacial Orthopedics", "Photo": "findadentist.ada.org/Images/Profile/322892-Dr-Kirk-Ripley.png", "Name": "Dr Kirk T Ripley", "Email": "ripley@ripleyortho.com", "Phone": "(317) 881-3997", "Address": "8849 S Shelby St Ste C2 Indianapolis, IN 46227-6299", "City": "Indianapolis", "State": "IN", "Zip": "46227-6299", "AddressLine1": "8849 S Shelby St Ste C2", "AddressLine2": "", "Distance": 8.9, "Latitude": 39.63656, "Longitude": -86.13891}, {"Sequence": 47, "PersonId": 341431, "AddressId": 3305496, "Specialty": "General Practice", "Photo": "findadentist.ada.org/Images/Profile/341431-Dr-Michael Logan-Goad.png", "Name": "Dr. Michael L Goad", "Email": "", "Phone": "(317) 780-7777", "Address": "5406 S Emerson Ave Indianapolis, IN 46237-1970", "City": "Indianapolis", "State": "IN", "Zip": "46237-1970", "AddressLine1": "5406 S Emerson Ave", "AddressLine2": "", "Distance": 13.5, "Latitude": 39.68913, "Longitude": -86.08302}, {"Sequence": 48, "PersonId": 322948, "AddressId": 1663453, "Specialty": "Pediatric Dentistry", "Photo": "findadentist.ada.org/Images/Profile/322948-Dr-Brett-Mann.png", "Name": "Dr Brett E Mann", "Email": "", "Phone": "(317) 882-1536", "Address": "8001 Shelby St Indianapolis, IN 46227-5970", "City": "Indianapolis", "State": "IN", "Zip": "46227-5970", "AddressLine1": "8001 Shelby St", "AddressLine2": "", "Distance": 9.8, "Latitude": 39.6495, "Longitude": -86.13901}, {"Sequence": 49, "PersonId": 234317, "AddressId": 2824849, "Specialty": "Orthodontics and Dentofacial Orthopedics", "Photo": "findadentist.ada.org/Images/Profile/234317-Dr-Paul-Ellis.png", "Name": "Dr. Paul C Ellis", "Email": "", "Phone": "(317) 881-1161", "Address": "1678 Fry Rd Ste A Indianapolis, IN 46142", "City": "Indianapolis", "State": "IN", "Zip": "46142", "AddressLine1": "1678 Fry Rd Ste A", "AddressLine2": "", "Distance": 7.9, "Latitude": 39.62575, "Longitude": -86.15757}, {"Sequence": 50, "PersonId": 242279, "AddressId": 2831353, "Specialty": "Pediatric Dentistry", "Photo": "findadentist.ada.org/Images/Profile/242279-Dr-Jill-Aldrich.png", "Name": "Dr. Jill C Aldrich", "Email": "records@aldrichpd.com", "Phone": "(317) 271-6060", "Address": "8930 W 10Th St Indianapolis, IN 46234-2132", "City": "Indianapolis", "State": "IN", "Zip": "46234-2132", "AddressLine1": "8930 W 10Th St", "AddressLine2": "", "Distance": 19.1, "Latitude": 39.77914, "Longitude": -86.32026}, {"Sequence": 51, "PersonId": 341389, "AddressId": 3305492, "Specialty": "General Practice", "Photo": "findadentist.ada.org/Images/Profile/341389-Dr-Jillian-Brady.png", "Name": "Dr. Jillian Brady", "Email": "office@southindydental.com", "Phone": "(317) 889-6000", "Address": "5150 E Stop 11 Rd Ste 11 Indianapolis, IN 46237-8629", "City": "Indianapolis", "State": "IN", "Zip": "46237-8629", "AddressLine1": "5150 E Stop 11 Rd Ste 11", "AddressLine2": "", "Distance": 11.4, "Latitude": 39.65172, "Longitude": -86.08032}, {"Sequence": 52, "PersonId": 323080, "AddressId": 1663585, "Specialty": "Periodontics", "Photo": "findadentist.ada.org/Images/Profile/323080-Dr-Kristin-Jackson.png", "Name": "Dr Kristin M Jackson", "Email": "staff@indianaperio.com", "Phone": "(317) 887-3180", "Address": "45 N Madison Ave Greenwood, IN 46142-3526", "City": "Greenwood", "State": "IN", "Zip": "46142-3526", "AddressLine1": "45 N Madison Ave", "AddressLine2": "", "Distance": 8.5, "Latitude": 39.61627, "Longitude": -86.11019}, {"Sequence": 53, "PersonId": 248905, "AddressId": 2757527, "Specialty": "General Practice", "Photo": "findadentist.ada.org/Images/Profile/248905-Dr-Christopher-Kumfer.png", "Name": "Dr. Christopher J Kumfer", "Email": "kumferfamilydental@yahoo.com", "Phone": "(317) 887-0700", "Address": "521 E County Line Rd Ste A Greenwood, IN 46143-1066", "City": "Greenwood", "State": "IN", "Zip": "46143-1066", "AddressLine1": "521 E County Line Rd Ste A", "AddressLine2": "", "Distance": 10.0, "Latitude": 39.63536, "Longitude": -86.09531}, {"Sequence": 54, "PersonId": 323116, "AddressId": 3106605, "Specialty": "General Practice", "Photo": "findadentist.ada.org/Images/Profile/323116-Dr-Frieda-Cooke.png", "Name": "Dr Frieda K Cooke", "Email": "", "Phone": "(317) 227-0581", "Address": "6355 Rockville Rd Indianapolis, IN 46214-3920", "City": "Indianapolis", "State": "IN", "Zip": "46214-3920", "AddressLine1": "6355 Rockville Rd", "AddressLine2": "", "Distance": 17.4, "Latitude": 39.76431, "Longitude": -86.27167}, {"Sequence": 55, "PersonId": 188588, "AddressId": 1529093, "Specialty": "General Practice", "Photo": "findadentist.ada.org/Images/Profile/188588-Dr-Patricia-New.png", "Name": "Dr. Patricia J New", "Email": "patricia@ournewdentist.com", "Phone": "(317) 888-6684", "Address": "1700 W Smith Valley Rd Suite C-2 Greenwood, IN 46142-1589", "City": "Greenwood", "State": "IN", "Zip": "46142-1589", "AddressLine1": "1700 W Smith Valley Rd Suite C-2", "AddressLine2": "", "Distance": 6.6, "Latitude": 39.60629, "Longitude": -86.1579}, {"Sequence": 56, "PersonId": 242330, "AddressId": 2828084, "Specialty": "Pediatric Dentistry", "Photo": "findadentist.ada.org/Images/Profile/242330-Dr-Scott-Papineau.png", "Name": "Dr. Scott D Papineau", "Email": "", "Phone": "(317) 882-7694", "Address": "7725 S Emerson Ave Indianapolis, IN 46237-8654", "City": "Indianapolis", "State": "IN", "Zip": "46237-8654", "AddressLine1": "7725 S Emerson Ave", "AddressLine2": "", "Distance": 11.6, "Latitude": 39.65531, "Longitude": -86.08218}, {"Sequence": 57, "PersonId": 273428, "AddressId": 1613933, "Specialty": "Oral and Maxillofacial Surgery", "Photo": "findadentist.ada.org/Images/Profile/273428-Dr-Matthew-Moll.png", "Name": "Dr. Matthew C Moll", "Email": "eastinmydos@securedds.com", "Phone": "(317) 353-1320", "Address": "125 N Shortridge Rd Indianapolis, IN 46219-4908", "City": "Indianapolis", "State": "IN", "Zip": "46219-4908", "AddressLine1": "125 N Shortridge Rd", "AddressLine2": "", "Distance": 19.8, "Latitude": 39.77509, "Longitude": -86.04018}, {"Sequence": 58, "PersonId": 323110, "AddressId": 1663615, "Specialty": "Oral and Maxillofacial Surgery", "Photo": "findadentist.ada.org/Images/Profile/323110-Dr-John-Adelsperger.png", "Name": "Dr John W Adelsperger", "Email": "", "Phone": "(317) 297-1007", "Address": "777 Beachway Dr Ste 202 Indianapolis, IN 46224-7700", "City": "Indianapolis", "State": "IN", "Zip": "46224-7700", "AddressLine1": "777 Beachway Dr Ste 202", "AddressLine2": "", "Distance": 18.2, "Latitude": 39.77686, "Longitude": -86.26888}, {"Sequence": 59, "PersonId": 341463, "AddressId": 3305503, "Specialty": "General Practice", "Photo": "findadentist.ada.org/Images/Profile/341463-Dr-Elisabeth-Nicholson.png", "Name": "Dr Elisabeth Nicholson", "Email": "kncd150@yahoo.com", "Phone": "(317) 831-4240", "Address": "150 N Indiana St Mooresville, IN 46158-1506", "City": "Mooresville", "State": "IN", "Zip": "46158-1506", "AddressLine1": "150 N Indiana St", "AddressLine2": "", "Distance": 11.3, "Latitude": 39.61536, "Longitude": -86.37527}, {"Sequence": 60, "PersonId": 121484, "AddressId": 2752934, "Specialty": "General Practice", "Photo": "findadentist.ada.org/Images/Profile/121484-Dr-James-Bailey.png", "Name": "Dr. James R Bailey", "Email": "", "Phone": "(317) 272-9300", "Address": "123 Dover St Avon, IN 46123", "City": "Avon", "State": "IN", "Zip": "46123", "AddressLine1": "123 Dover St", "AddressLine2": "", "Distance": 19.1, "Latitude": 39.76133, "Longitude": -86.3773}, {"Sequence": 61, "PersonId": 252908, "AddressId": 2818796, "Specialty": "General Practice", "Photo": "findadentist.ada.org/Images/Profile/252908-Dr-Sarah-LeClere.png", "Name": "Dr. Sarah M LeClere", "Email": "eastindydental@gmail.com", "Phone": "(317) 375-2273", "Address": "5607 E Washington Street Indianapolis, IN 46219-6627", "City": "Indianapolis", "State": "IN", "Zip": "46219-6627", "AddressLine1": "5607 E Washington Street", "AddressLine2": "", "Distance": 18.9, "Latitude": 39.77049, "Longitude": -86.07175}, {"Sequence": 62, "PersonId": 322994, "AddressId": 1663499, "Specialty": "General Practice", "Photo": "findadentist.ada.org/Images/Profile/322994-Dr-David-Durell.png", "Name": "Dr David K Durell", "Email": "", "Phone": "(317) 839-6106", "Address": "1301 Agan Dr Plainfield, IN 46168-7715", "City": "Plainfield", "State": "IN", "Zip": "46168-7715", "AddressLine1": "1301 Agan Dr", "AddressLine2": "", "Distance": 14.5, "Latitude": 39.68753, "Longitude": -86.36742}, {"Sequence": 63, "PersonId": 322826, "AddressId": 3278369, "Specialty": "General Practice", "Photo": "findadentist.ada.org/Images/Profile/322826-Dr-James-Schaefer.png", "Name": "Dr. James J. Schaefer", "Email": "frontdesk@drschaeferdds.com", "Phone": "(317) 357-3533", "Address": "9670 E Washington St Indianapolis, IN 46229-3053", "City": "Indianapolis", "State": "IN", "Zip": "46229-3053", "AddressLine1": "9670 E Washington St", "AddressLine2": "Ste 135", "Distance": 17.8, "Latitude": 39.77508, "Longitude": -86.18315}, {"Sequence": 64, "PersonId": 220788, "AddressId": 1561293, "Specialty": "General Practice", "Photo": "findadentist.ada.org/Images/Profile/220788-Dr-Kyle-Shank.png", "Name": "Dr. Kyle W Shank", "Email": "", "Phone": "(317) 788-4239", "Address": "6904 S East St Ste F Indianapolis, IN 46227-2694", "City": "Indianapolis", "State": "IN", "Zip": "46227-2694", "AddressLine1": "6904 S East St Ste F", "AddressLine2": "", "Distance": 10.7, "Latitude": 39.66578, "Longitude": -86.14869}, {"Sequence": 65, "PersonId": 322920, "AddressId": 1663425, "Specialty": "General Practice", "Photo": "findadentist.ada.org/Images/Profile/322920-Dr-Bret-Weathers.png", "Name": "Dr Bret A Weathers", "Email": "", "Phone": "(317) 359-7244", "Address": "4130 E 10th St Indianapolis, IN 46201-2613", "City": "Indianapolis", "State": "IN", "Zip": "46201-2613", "AddressLine1": "4130 E 10th St", "AddressLine2": "", "Distance": 19.1, "Latitude": 39.78167, "Longitude": -86.09711}, {"Sequence": 66, "PersonId": 220789, "AddressId": 3347234, "Specialty": "Orthodontics and Dentofacial Orthopedics", "Photo": "findadentist.ada.org/Images/Profile/220789-Dr-S-Shank.png", "Name": "Dr. S B Shank", "Email": "office@shankorthodontics.com", "Phone": "(317) 888-9833", "Address": "1700 W Smith Valley Rd Ste A1 Greenwood, IN 46142-1589", "City": "Greenwood", "State": "IN", "Zip": "46142-1589", "AddressLine1": "1700 W Smith Valley Rd Ste A1", "AddressLine2": "", "Distance": 6.6, "Latitude": 39.60629, "Longitude": -86.1579}, {"Sequence": 67, "PersonId": 322594, "AddressId": 2806276, "Specialty": "General Practice", "Photo": "findadentist.ada.org/Images/Profile/322594-Dr-Mark-Smith.png", "Name": "Dr Mark W Smith", "Email": "info@drmarksmith.com", "Phone": "(812) 526-2026", "Address": "7650 E State Road 252 Edinburgh, IN 46124-1094", "City": "Edinburgh", "State": "IN", "Zip": "46124-1094", "AddressLine1": "7650 E State Road 252", "AddressLine2": "", "Distance": 16.3, "Latitude": 39.35805, "Longitude": -85.98119}, {"Sequence": 68, "PersonId": 214713, "AddressId": 2737665, "Specialty": "General Practice", "Photo": "findadentist.ada.org/Images/Profile/214713-Dr-William-Johnson.png", "Name": "Dr. William A Johnson", "Email": "", "Phone": "(317) 881-5000", "Address": "5217 Commerce Cir Indianapolis, IN 46237-9747", "City": "Indianapolis", "State": "IN", "Zip": "46237-9747", "AddressLine1": "5217 Commerce Cir", "AddressLine2": "", "Distance": 11.6, "Latitude": 39.65505, "Longitude": -86.07992}, {"Sequence": 69, "PersonId": 121400, "AddressId": 1461905, "Specialty": "General Practice", "Photo": "findadentist.ada.org/Images/Profile/121400-Dr-Kim-Alexander.png", "Name": "Dr. Kim A Alexander", "Email": "", "Phone": "(317) 893-2193", "Address": "542 S State Road 135 Greenwood, IN 46142-1426", "City": "Greenwood", "State": "IN", "Zip": "46142-1426", "AddressLine1": "542 S State Road 135", "AddressLine2": "", "Distance": 6.7, "Latitude": 39.60786, "Longitude": -86.15903}, {"Sequence": 70, "PersonId": 322901, "AddressId": 3547371, "Specialty": "Endodontics", "Photo": "findadentist.ada.org/Images/Profile/322901-Dr-Edmund-Rapp.png", "Name": "Dr Edmund L Rapp", "Email": "", "Phone": "(317) 247-9512", "Address": "6443 W 10th St Ste 204 Indianapolis, IN 46214-6502", "City": "Indianapolis", "State": "IN", "Zip": "46214-6502", "AddressLine1": "6443 W 10th St Ste 204", "AddressLine2": "", "Distance": 18.4, "Latitude": 39.77921, "Longitude": -86.2751}, {"Sequence": 71, "PersonId": 322988, "AddressId": 3035274, "Specialty": "General Practice", "Photo": "findadentist.ada.org/Images/Profile/322988-Dr-Steven-Douglas.png", "Name": "Dr Steven A Douglas", "Email": "steve.douglas@att.net", "Phone": "(317) 786-1277", "Address": "6745 S Gray Rd Ste F Indianapolis, IN 46237-3236", "City": "Indianapolis", "State": "IN", "Zip": "46237-3236", "AddressLine1": "6745 S Gray Rd Ste F", "AddressLine2": "", "Distance": 12.0, "Latitude": 39.66884, "Longitude": -86.09626}, {"Sequence": 72, "PersonId": 322637, "AddressId": 1663142, "Specialty": "General Practice", "Photo": "findadentist.ada.org/Images/Profile/322637-Dr-Joel-Rifkind.png", "Name": "Dr Joel Rifkind", "Email": "joelrifkinddds@comcast.net", "Phone": "(317) 784-4545", "Address": "5895 E Thompson Rd Ste A Indianapolis, IN 46237-2591", "City": "Indianapolis", "State": "IN", "Zip": "46237-2591", "AddressLine1": "5895 E Thompson Rd Ste A", "AddressLine2": "", "Distance": 14.3, "Latitude": 39.69431, "Longitude": -86.06564}, {"Sequence": 73, "PersonId": 202635, "AddressId": 1543140, "Specialty": "General Practice", "Photo": "findadentist.ada.org/Images/Profile/202635-Dr-Jeffrey-Goedeker.png", "Name": "Dr. Jeffrey Goedeker", "Email": "cambyfamilydentistry@mydentalmail.com", "Phone": "(317) 821-0600", "Address": "8190 Windfall Ln Ste B Camby, IN 46113-7907", "City": "Camby", "State": "IN", "Zip": "46113-7907", "AddressLine1": "8190 Windfall Ln Ste B", "AddressLine2": null, "Distance": 11.0, "Latitude": 39.64436, "Longitude": -86.33092}, {"Sequence": 74, "PersonId": 120795, "AddressId": 1461300, "Specialty": "General Practice", "Photo": "findadentist.ada.org/Images/Profile/120795-Dr-Richard-Bonness.png", "Name": "Dr. Richard A Bonness", "Email": "", "Phone": "(317) 821-1130", "Address": "10701 Alliance Dr Ste F Camby, IN 46113-8837", "City": "Camby", "State": "IN", "Zip": "46113-8837", "AddressLine1": "10701 Alliance Dr Ste F", "AddressLine2": "", "Distance": 10.7, "Latitude": 39.63731, "Longitude": -86.33209}, {"Sequence": 75, "PersonId": 193016, "AddressId": 1533521, "Specialty": "Pediatric Dentistry", "Photo": "findadentist.ada.org/Images/Profile/193016-Dr-Mark-Ellis.png", "Name": "Dr. Mark A Ellis", "Email": "epdsmiles@gmail.com", "Phone": "(317) 859-9450", "Address": "910 Averitt Rd Greenwood, IN 46143-9540", "City": "Greenwood", "State": "IN", "Zip": "46143-9540", "AddressLine1": "910 Averitt Rd", "AddressLine2": "", "Distance": 7.4, "Latitude": 39.60333, "Longitude": -86.12146}, {"Sequence": 76, "PersonId": 322779, "AddressId": 2741754, "Specialty": "Orthodontics and Dentofacial Orthopedics", "Photo": "findadentist.ada.org/Images/Profile/322779-Dr-Jeffrey-Dean.png", "Name": "Dr Jeffrey A Dean", "Email": "martir@clarkdeanjones.com", "Phone": "(317) 274-7957", "Address": "1121 W Michigan St Ste 102 Indianapolis, IN 46202-5211", "City": "Indianapolis", "State": "IN", "Zip": "46202-5211", "AddressLine1": "1121 W Michigan St Ste 102", "AddressLine2": "", "Distance": 17.8, "Latitude": 39.77425, "Longitude": -86.18058}, {"Sequence": 77, "PersonId": 323194, "AddressId": 3508255, "Specialty": "Oral and Maxillofacial Surgery", "Photo": "findadentist.ada.org/Images/Profile/323194-Dr-Philip-Montefalco.png", "Name": "Dr Philip M Montefalco", "Email": "", "Phone": "(317) 882-1284", "Address": "8445 S Emerson Ave Indianapolis, IN 46237-9597", "City": "Indianapolis", "State": "IN", "Zip": "46237-9597", "AddressLine1": "8445 S Emerson Ave", "AddressLine2": "Ste 100", "Distance": 10.9, "Latitude": 39.64409, "Longitude": -86.08191}, {"Sequence": 78, "PersonId": 211774, "AddressId": 2772785, "Specialty": "Pediatric Dentistry", "Photo": "findadentist.ada.org/Images/Profile/211774-Dr-Juan-Yepes.png", "Name": "Dr. Juan F Yepes", "Email": "cs@drjpediatricdentistry.com", "Phone": "(317) 944-9601", "Address": "705 Riley Hospital Dr Rm 4205 Indianapolis, IN 46202-5109", "City": "Indianapolis", "State": "IN", "Zip": "46202-5109", "AddressLine1": "705 Riley Hospital Dr Rm 4205", "AddressLine2": "", "Distance": 18.0, "Latitude": 39.77743, "Longitude": -86.1803}, {"Sequence": 79, "PersonId": 322745, "AddressId": 2746207, "Specialty": "Pediatric Dentistry", "Photo": "findadentist.ada.org/Images/Profile/322745-Dr-Annette-Farthing.png", "Name": "Dr. Annette T Farthing", "Email": "", "Phone": "(317) 882-7694", "Address": "7725 S Emerson Ave Indianapolis, IN 46237-8654", "City": "Indianapolis", "State": "IN", "Zip": "46237-8654", "AddressLine1": "7725 S Emerson Ave", "AddressLine2": "", "Distance": 11.6, "Latitude": 39.65531, "Longitude": -86.08218}, {"Sequence": 80, "PersonId": 121531, "AddressId": 1462036, "Specialty": "General Practice", "Photo": "findadentist.ada.org/Images/Profile/121531-Dr-Michelle-Ebeyer.png", "Name": "Dr. Michelle T Ebeyer", "Email": "office@adentaltouch.com", "Phone": "(317) 883-3368", "Address": "973 Emerson Pkwy Ste A Greenwood, IN 46143-6907", "City": "Greenwood", "State": "IN", "Zip": "46143-6907", "AddressLine1": "973 Emerson Pkwy Ste A", "AddressLine2": "", "Distance": 10.1, "Latitude": 39.62961, "Longitude": -86.0835}, {"Sequence": 81, "PersonId": 322586, "AddressId": 1663091, "Specialty": "General Practice", "Photo": "findadentist.ada.org/Images/Profile/322586-Dr-Robert-Booher.png", "Name": "Dr Robert B Booher", "Email": "tprice@afd-dds.com", "Phone": "(317) 272-2700", "Address": "7800 E US Hwy 36 Avon, IN 46123-7156", "City": "Avon", "State": "IN", "Zip": "46123-7156", "AddressLine1": "7800 E US Hwy 36", "AddressLine2": "", "Distance": 19.5, "Latitude": 39.76422, "Longitude": -86.38473}, {"Sequence": 82, "PersonId": 121444, "AddressId": 1461949, "Specialty": "General Practice", "Photo": "findadentist.ada.org/Images/Profile/121444-Dr-John-McFadden.png", "Name": "Dr. John R McFadden", "Email": "", "Phone": "(765) 342-3232", "Address": "509 State Rd 39 Bypass Martinsville, IN 46151-1743", "City": "Martinsville", "State": "IN", "Zip": "46151-1743", "AddressLine1": "509 State Rd 39 Bypass", "AddressLine2": "", "Distance": 13.9, "Latitude": 39.42283, "Longitude": -86.43606}, {"Sequence": 83, "PersonId": 322588, "AddressId": 2753439, "Specialty": "Orthodontics and Dentofacial Orthopedics", "Photo": "findadentist.ada.org/Images/Profile/322588-Dr-Donald-Darbro.png", "Name": "Dr Donald P Darbro", "Email": "query@drdarbro.com", "Phone": "(317) 888-6090", "Address": "1901 Breckenmore Dr Greenwood, IN 46142-1300", "City": "Greenwood", "State": "IN", "Zip": "46142-1300", "AddressLine1": "1901 Breckenmore Dr", "AddressLine2": "", "Distance": 8.0, "Latitude": 39.6271, "Longitude": -86.15792}, {"Sequence": 84, "PersonId": 322887, "AddressId": 1663392, "Specialty": "General Practice", "Photo": "findadentist.ada.org/Images/Profile/322887-Dr-Matthew-Stegemiller.png", "Name": "Dr Matthew W Stegemiller", "Email": "", "Phone": "(317) 784-2266", "Address": "1505 E Southport Rd Indianapolis, IN 46227-5303", "City": "Indianapolis", "State": "IN", "Zip": "46227-5303", "AddressLine1": "1505 E Southport Rd", "AddressLine2": "", "Distance": 10.9, "Latitude": 39.66436, "Longitude": -86.13211}, {"Sequence": 85, "PersonId": 206698, "AddressId": 1547203, "Specialty": "General Practice", "Photo": "findadentist.ada.org/Images/Profile/206698-Dr-Anne-Wilmore.png", "Name": "Dr. Anne M Wilmore", "Email": "", "Phone": "(317) 272-6990", "Address": "8101 A Us Highway 36 Avon, IN 46123-8081", "City": "Avon", "State": "IN", "Zip": "46123-8081", "AddressLine1": "8101 A Us Highway 36", "AddressLine2": "", "Distance": 19.3, "Latitude": 39.76235, "Longitude": -86.38059}, {"Sequence": 86, "PersonId": 322834, "AddressId": 1663339, "Specialty": "General Practice", "Photo": "findadentist.ada.org/Images/Profile/322834-Dr-Richard-Gillum.png", "Name": "Dr Richard S Gillum", "Email": "info@gillumdentistry.com", "Phone": "(317) 888-7576", "Address": "1259 N State Road 135 Ste E Greenwood, IN 46142-1026", "City": "Greenwood", "State": "IN", "Zip": "46142-1026", "AddressLine1": "1259 N State Road 135 Ste E", "AddressLine2": "", "Distance": 8.4, "Latitude": 39.63443, "Longitude": -86.15836}, {"Sequence": 87, "PersonId": 341453, "AddressId": 3413210, "Specialty": "General Practice", "Photo": "findadentist.ada.org/Images/Profile/341453-Dr-Jacob-Long.png", "Name": "Dr Jacob Long", "Email": "Kim@drstacyjohnson.com", "Phone": "(317) 535-7141", "Address": "3056 W Stones Crossing Rd Greenwood, IN 46143-6484", "City": "Greenwood", "State": "IN", "Zip": "46143-6484", "AddressLine1": "3056 W Stones Crossing Rd", "AddressLine2": "", "Distance": 4.8, "Latitude": 39.57818, "Longitude": -86.16048}, {"Sequence": 88, "PersonId": 323089, "AddressId": 1663594, "Specialty": "Periodontics", "Photo": "findadentist.ada.org/Images/Profile/323089-Dr-T-Jackson.png", "Name": "Dr T Ryan Jackson", "Email": "staff@indianaperio.com", "Phone": "(317) 887-3180", "Address": "45 N Madison Ave Greenwood, IN 46142-3526", "City": "Greenwood", "State": "IN", "Zip": "46142-3526", "AddressLine1": "45 N Madison Ave", "AddressLine2": "", "Distance": 8.5, "Latitude": 39.61627, "Longitude": -86.11019}, {"Sequence": 89, "PersonId": 200331, "AddressId": 2691373, "Specialty": "Oral and Maxillofacial Surgery", "Photo": "findadentist.ada.org/Images/Profile/200331-Dr-Samuel-Tancredi.png", "Name": "Dr. Samuel A Tancredi", "Email": "", "Phone": null, "Address": "1050 Wishard Blvd # 4201 Indianapolis, IN 46202-2872", "City": "Indianapolis", "State": "IN", "Zip": "46202-2872", "AddressLine1": "1050 Wishard Blvd # 4201", "AddressLine2": "", "Distance": 18.1, "Latitude": 39.77861, "Longitude": -86.17788}, {"Sequence": 90, "PersonId": 322737, "AddressId": 1663242, "Specialty": "General Practice", "Photo": "findadentist.ada.org/Images/Profile/322737-Dr-Randy-Wells.png", "Name": "Dr Randy R Wells", "Email": "wellmarveldds@sbcglobal.net", "Phone": "(765) 342-7090", "Address": "829 Plaza Dr Martinsville, IN 46151-3236", "City": "Martinsville", "State": "IN", "Zip": "46151-3236", "AddressLine1": "829 Plaza Dr", "AddressLine2": "", "Distance": 14.8, "Latitude": 39.4054, "Longitude": -86.4408}, {"Sequence": 91, "PersonId": 323013, "AddressId": 3342611, "Specialty": "General Practice", "Photo": "findadentist.ada.org/Images/Profile/323013-Dr-Skipper-Cheesman.png", "Name": "Dr Skipper C Cheesman", "Email": "", "Phone": "(317) 839-2088", "Address": "1855 Stafford Rd Plainfield, IN 46168-2338", "City": "Plainfield", "State": "IN", "Zip": "46168-2338", "AddressLine1": "1855 Stafford Rd", "AddressLine2": "", "Distance": 15.3, "Latitude": 39.69662, "Longitude": -86.37544}, {"Sequence": 92, "PersonId": 200270, "AddressId": 1540775, "Specialty": "General Practice", "Photo": "findadentist.ada.org/Images/Profile/200270-Dr-Heather-Maupin.png", "Name": "Dr. Heather A Maupin", "Email": "", "Phone": "(317) 838-7100", "Address": "1070 W Main St Ste 151 Plainfield, IN 46168-9704", "City": "Plainfield", "State": "IN", "Zip": "46168-9704", "AddressLine1": "1070 W Main St Ste 151", "AddressLine2": "", "Distance": 16.8, "Latitude": 39.69837, "Longitude": -86.41783}, {"Sequence": 93, "PersonId": 261390, "AddressId": 3510615, "Specialty": "General Practice", "Photo": "findadentist.ada.org/Images/Profile/261390-Dr-Garrett-Fiorenza.png", "Name": "Dr. Garrett Fiorenza", "Email": "info.fiorenzadentalgroup@gmail.com", "Phone": "(317) 886-7803", "Address": "438 S. Emerson Ave. Ste. 230 Greenwood, IN 46143-1948", "City": "Greenwood", "State": "IN", "Zip": "46143-1948", "AddressLine1": "438 S. Emerson Ave. Ste. 230", "AddressLine2": "", "Distance": 9.2, "Latitude": 39.6109, "Longitude": -86.08347}, {"Sequence": 94, "PersonId": 322812, "AddressId": 1663317, "Specialty": "General Practice", "Photo": "findadentist.ada.org/Images/Profile/322812-Dr-Bradley-Bendush.png", "Name": "Dr Bradley R Bendush", "Email": "info@bendushdental.com", "Phone": "(317) 353-1062", "Address": "115 N Shortridge Rd Suite 200 Indianapolis, IN 46219-4917", "City": "Indianapolis", "State": "IN", "Zip": "46219-4917", "AddressLine1": "115 N Shortridge Rd Suite 200", "AddressLine2": "", "Distance": 19.8, "Latitude": 39.7748, "Longitude": -86.0401}, {"Sequence": 95, "PersonId": 188552, "AddressId": 1529057, "Specialty": "General Practice", "Photo": "findadentist.ada.org/Images/Profile/188552-Dr-Jeremiah-Frasier.png", "Name": "Dr. Jeremiah Frasier", "Email": "info@forestcreekdental.com", "Phone": "(317) 783-3390", "Address": "6447 S East St Ste B Indianapolis, IN 46227-2119", "City": "Indianapolis", "State": "IN", "Zip": "46227-2119", "AddressLine1": "6447 S East St Ste B", "AddressLine2": "", "Distance": 11.1, "Latitude": 39.67206, "Longitude": -86.14866}, {"Sequence": 96, "PersonId": 322877, "AddressId": 2741759, "Specialty": "General Practice", "Photo": "findadentist.ada.org/Images/Profile/322877-Dr-Sharon-Haley.png", "Name": "Dr Sharon M Haley", "Email": "info@franklinfamilydentistry.com", "Phone": "(317) 736-6361", "Address": "1035 W Jefferson St Franklin, IN 46131-2123", "City": "Franklin", "State": "IN", "Zip": "46131-2123", "AddressLine1": "1035 W Jefferson St", "AddressLine2": "", "Distance": 7.7, "Latitude": 39.47947, "Longitude": -86.06934}, {"Sequence": 97, "PersonId": 202653, "AddressId": 1543158, "Specialty": "Oral and Maxillofacial Surgery", "Photo": "findadentist.ada.org/Images/Profile/202653-Dr-Raymond-Lee.png", "Name": "Dr. Raymond W Lee", "Email": "", "Phone": "(317) 527-0066", "Address": "803 Edwards Dr Plainfield, IN 46168-2785", "City": "Plainfield", "State": "IN", "Zip": "46168-2785", "AddressLine1": "803 Edwards Dr", "AddressLine2": "", "Distance": 15.1, "Latitude": 39.69691, "Longitude": -86.36918}, {"Sequence": 98, "PersonId": 323132, "AddressId": 3502711, "Specialty": "Oral and Maxillofacial Surgery", "Photo": "findadentist.ada.org/Images/Profile/323132-Dr-Kevin-Stockton.png", "Name": "Dr Kevin T Stockton", "Email": "", "Phone": "(317) 272-2200", "Address": "6695 E US Highway 36 Avon, IN 46123-8923", "City": "Avon", "State": "IN", "Zip": "46123-8923", "AddressLine1": "6695 E US Highway 36", "AddressLine2": "", "Distance": 19.9, "Latitude": 39.76195, "Longitude": -86.40567}, {"Sequence": 99, "PersonId": 192993, "AddressId": 1533498, "Specialty": "General Practice", "Photo": "findadentist.ada.org/Images/Profile/192993-Dr-Lori-Shattuck.png", "Name": "Dr. Lori Shattuck", "Email": "llshattuck@yahoo.com", "Phone": "(317) 736-6361", "Address": "1035 W Jefferson St Franklin, IN 46131-2123", "City": "Franklin", "State": "IN", "Zip": "46131-2123", "AddressLine1": "1035 W Jefferson St", "AddressLine2": "", "Distance": 7.7, "Latitude": 39.47947, "Longitude": -86.06934}, {"Sequence": 100, "PersonId": 188533, "AddressId": 1529038, "Specialty": "General Practice", "Photo": "findadentist.ada.org/Images/Profile/188533-Dr-Ann-Bonness.png", "Name": "Dr. Ann M Bonness", "Email": "care@bonnessfamilydentistry.com", "Phone": "(317) 821-1130", "Address": "10701 Alliance Dr Ste F Camby, IN 46113-8837", "City": "Camby", "State": "IN", "Zip": "46113-8837", "AddressLine1": "10701 Alliance Dr Ste F", "AddressLine2": "", "Distance": 10.7, "Latitude": 39.63731, "Longitude": -86.33209}]