[{"Sequence": 1, "PersonId": 121065, "AddressId": 1461570, "Specialty": "General Practice", "Photo": "findadentist.ada.org/Images/Profile/121065-Dr-Thomas-Kennedy.png", "Name": "Dr. Thomas M Kennedy", "Email": "thkennedydds@cinergymetro.net", "Phone": "(812) 265-6411", "Address": "1261 Clifty Hollow Rd Madison, IN 47250-3049", "City": "Madison", "State": "IN", "Zip": "47250-3049", "AddressLine1": "1261 Clifty Hollow Rd", "AddressLine2": "", "Distance": 13.2, "Latitude": 38.74228, "Longitude": -85.40999}, {"Sequence": 2, "PersonId": 242315, "AddressId": 3305829, "Specialty": "General Practice", "Photo": "findadentist.ada.org/Images/Profile/242315-Dr-Daniel-Kress.png", "Name": "Dr. Daniel J Kress", "Email": "", "Phone": "(812) 689-5151", "Address": "823 S Adams St Versailles, IN 47042-9422", "City": "Versailles", "State": "IN", "Zip": "47042-9422", "AddressLine1": "823 S Adams St", "AddressLine2": "P O Box 685", "Distance": 12.7, "Latitude": 39.06363, "Longitude": -85.25558}, {"Sequence": 3, "PersonId": 326133, "AddressId": 1666638, "Specialty": "Oral and Maxillofacial Surgery", "Photo": "findadentist.ada.org/Images/Profile/326133-Dr-David-Butler.png", "Name": "Dr David F Butler", "Email": "", "Phone": "(812) 265-6225", "Address": "505 Cragmont St Madison, IN 47250-3003", "City": "Madison", "State": "IN", "Zip": "47250-3003", "AddressLine1": "505 Cragmont St", "AddressLine2": "", "Distance": 12.7, "Latitude": 38.74018, "Longitude": -85.39295}, {"Sequence": 4, "PersonId": 247034, "AddressId": 2952822, "Specialty": "General Practice", "Photo": "findadentist.ada.org/Images/Profile/247034-Dr-Ashley-Lee.png", "Name": "Dr. Ashley M Lee", "Email": "", "Phone": "(812) 273-2388", "Address": "411 Clifty Dr Madison, IN 47250-1607", "City": "Madison", "State": "IN", "Zip": "47250-1607", "AddressLine1": "411 Clifty Dr", "AddressLine2": "", "Distance": 11.1, "Latitude": 38.77444, "Longitude": -85.39489}, {"Sequence": 5, "PersonId": 122671, "AddressId": 1463176, "Specialty": "Orthodontics and Dentofacial Orthopedics", "Photo": "findadentist.ada.org/Images/Profile/122671-Dr-Elizabeth-Pawlak.png", "Name": "Dr. Elizabeth W Pawlak", "Email": "", "Phone": "(812) 273-8744", "Address": "160 Demaree Dr Madison, IN 47250-4622", "City": "Madison", "State": "IN", "Zip": "47250-4622", "AddressLine1": "160 Demaree Dr", "AddressLine2": "", "Distance": 10.5, "Latitude": 38.77754, "Longitude": -85.38534}, {"Sequence": 6, "PersonId": 247057, "AddressId": 2824714, "Specialty": "General Practice", "Photo": "findadentist.ada.org/Images/Profile/247057-Dr-Lauren-Spencer.png", "Name": "Dr. Lauren E Spencer", "Email": "madisondentalhealth@gmail.com", "Phone": "(812) 265-5962", "Address": "753 W Main St Madison, IN 47250-3150", "City": "Madison", "State": "IN", "Zip": "47250-3150", "AddressLine1": "753 W Main St", "AddressLine2": "", "Distance": 12.7, "Latitude": 38.73798, "Longitude": -85.39052}, {"Sequence": 7, "PersonId": 326178, "AddressId": 1666683, "Specialty": "General Practice", "Photo": "findadentist.ada.org/Images/Profile/326178-Dr-Linda-Wehner.png", "Name": "Dr Linda Wehner", "Email": "cliftyfamilydental@yahoo.com", "Phone": "(812) 273-0207", "Address": "1105 Clifty Dr Madison, IN 47250-1614", "City": "Madison", "State": "IN", "Zip": "47250-1614", "AddressLine1": "1105 Clifty Dr", "AddressLine2": "", "Distance": 11.7, "Latitude": 38.77302, "Longitude": -85.40927}, {"Sequence": 8, "PersonId": 202616, "AddressId": 1543121, "Specialty": "General Practice", "Photo": "findadentist.ada.org/Images/Profile/202616-Dr-Benjamin-Canida.png", "Name": "Dr. Benjamin R Canida", "Email": "", "Phone": "(812) 265-2083", "Address": "904 E 1st St Madison, IN 47250-3623", "City": "Madison", "State": "IN", "Zip": "47250-3623", "AddressLine1": "904 E 1st St", "AddressLine2": "", "Distance": 12.3, "Latitude": 38.73371, "Longitude": -85.36906}, {"Sequence": 9, "PersonId": 200284, "AddressId": 3374727, "Specialty": "General Practice", "Photo": "findadentist.ada.org/Images/Profile/200284-Dr-Zachary-Gilbertson.png", "Name": "Dr. Zachary D Gilbertson", "Email": "", "Phone": "(812) 265-6161", "Address": "301 Walnut St Madison, IN 47250", "City": "Madison", "State": "IN", "Zip": "47250", "AddressLine1": "301 Walnut St", "AddressLine2": "", "Distance": 12.4, "Latitude": 38.73527, "Longitude": -85.37595}, {"Sequence": 10, "PersonId": 326110, "AddressId": 1666615, "Specialty": "General Practice", "Photo": "findadentist.ada.org/Images/Profile/326110-Dr-Robert-Canida.png", "Name": "Dr Robert R Canida", "Email": "canidadentistry@gmail.com", "Phone": "(812) 265-4766", "Address": "904 E 1st St Madison, IN 47250-3623", "City": "Madison", "State": "IN", "Zip": "47250-3623", "AddressLine1": "904 E 1st St", "AddressLine2": "", "Distance": 12.3, "Latitude": 38.73371, "Longitude": -85.36906}, {"Sequence": 11, "PersonId": 326135, "AddressId": 1666640, "Specialty": "General Practice", "Photo": "findadentist.ada.org/Images/Profile/326135-Dr-Kevin-Klinedinst.png", "Name": "Dr Kevin L Klinedinst", "Email": "kklinedinst@cinergymetro.net", "Phone": "(812) 273-4524", "Address": "110 Miles Ridge Rd Madison, IN 47250-2410", "City": "Madison", "State": "IN", "Zip": "47250-2410", "AddressLine1": "110 Miles Ridge Rd", "AddressLine2": "", "Distance": 10.9, "Latitude": 38.77066, "Longitude": -85.38653}, {"Sequence": 12, "PersonId": 192919, "AddressId": 3510273, "Specialty": "General Practice", "Photo": "findadentist.ada.org/Images/Profile/192919-Dr-Danielle-Mchatton.png", "Name": "Dr. Danielle R Renslow", "Email": "", "Phone": "(502) 732-0333", "Address": "2482 Highway 227 Carrollton, KY 41008-8048", "City": "Carrollton", "State": "KY", "Zip": "41008-8048", "AddressLine1": "2482 Highway 227", "AddressLine2": "", "Distance": 16.5, "Latitude": 38.65687, "Longitude": -85.13409}, {"Sequence": 13, "PersonId": 326132, "AddressId": 2749659, "Specialty": "General Practice", "Photo": "findadentist.ada.org/Images/Profile/326132-Dr-Christopher-Brown.png", "Name": "Dr Christopher R Brown", "Email": "", "Phone": "(812) 689-5151", "Address": "823 S Adams St Versailles, IN 47042-9422", "City": "Versailles", "State": "IN", "Zip": "47042-9422", "AddressLine1": "823 S Adams St", "AddressLine2": "PO Box 685", "Distance": 12.7, "Latitude": 39.06363, "Longitude": -85.25558}, {"Sequence": 14, "PersonId": 326118, "AddressId": 1666623, "Specialty": "General Practice", "Photo": "findadentist.ada.org/Images/Profile/ADA.png", "Name": "Dr Lee G Dunker", "Email": "", "Phone": "(812) 265-2832", "Address": "424 West St Madison, IN 47250-3302", "City": "Madison", "State": "IN", "Zip": "47250-3302", "AddressLine1": "424 West St", "AddressLine2": "", "Distance": 12.4, "Latitude": 38.73732, "Longitude": -85.38005}, {"Sequence": 15, "PersonId": 326125, "AddressId": 1666630, "Specialty": "General Practice", "Photo": "findadentist.ada.org/Images/Profile/ADA.png", "Name": "Dr Robert D Findley", "Email": "", "Phone": "(812) 427-2400", "Address": "1190 W Main St Ste 100 Vevay, IN 47043-3639", "City": "Vevay", "State": "IN", "Zip": "47043-3639", "AddressLine1": "1190 W Main St Ste 100", "AddressLine2": "", "Distance": 12.9, "Latitude": 38.73529, "Longitude": -85.09076}, {"Sequence": 16, "PersonId": 326126, "AddressId": 1666631, "Specialty": "General Practice", "Photo": "findadentist.ada.org/Images/Profile/ADA.png", "Name": "Dr John R Spaulding, Jr", "Email": "", "Phone": "(812) 265-2752", "Address": "220 W 3rd St Madison, IN 47250-3339", "City": "Madison", "State": "IN", "Zip": "47250-3339", "AddressLine1": "220 W 3rd St", "AddressLine2": "", "Distance": 12.4, "Latitude": 38.7378, "Longitude": -85.38203}, {"Sequence": 17, "PersonId": 326177, "AddressId": 1666682, "Specialty": "General Practice", "Photo": "findadentist.ada.org/Images/Profile/ADA.png", "Name": "Dr Gayle Spaulding", "Email": "", "Phone": "(812) 265-2752", "Address": "220 W 3rd St Madison, IN 47250-3339", "City": "Madison", "State": "IN", "Zip": "47250-3339", "AddressLine1": "220 W 3rd St", "AddressLine2": "", "Distance": 12.4, "Latitude": 38.7378, "Longitude": -85.38203}]