[{"Sequence": 1, "PersonId": 233411, "AddressId": 3400635, "Specialty": "General Practice", "Photo": "findadentist.ada.org/Images/Profile/233411-Dr-Daniel-Klauer.png", "Name": "Dr. Daniel G Klauer", "Email": "", "Phone": "(574) 968-5166", "Address": "1245 E University Dr Granger, IN 46530-4292", "City": "Granger", "State": "IN", "Zip": "46530-4292", "AddressLine1": "1245 E University Dr", "AddressLine2": "", "Distance": 18.2, "Latitude": 41.72169, "Longitude": -86.16535}, {"Sequence": 2, "PersonId": 325337, "AddressId": 1665842, "Specialty": "General Practice", "Photo": "findadentist.ada.org/Images/Profile/325337-Dr-Craig-Yoder.png", "Name": "Dr Craig R Yoder", "Email": "craig@craigryoderdds.com", "Phone": "(574) 825-1252", "Address": "317 Bristol Ave Middlebury, IN 46540-9019", "City": "Middlebury", "State": "IN", "Zip": "46540-9019", "AddressLine1": "317 Bristol Ave", "AddressLine2": "", "Distance": 17.9, "Latitude": 41.67912, "Longitude": -85.71139}, {"Sequence": 3, "PersonId": 16707, "AddressId": 3376809, "Specialty": "General Practice", "Photo": "findadentist.ada.org/Images/Profile/16707-Dr-John-Hayman.png", "Name": "Dr. John E. Hayman", "Email": "contactus@cassdental.com", "Phone": "(269) 445-8636", "Address": "62225 M62 Cassopolis, MI 49031-0335", "City": "Cassopolis", "State": "MI", "Zip": "49031-0335", "AddressLine1": "62225 M62", "AddressLine2": "PO Box 335", "Distance": 5.8, "Latitude": 41.91171, "Longitude": -86.01001}, {"Sequence": 4, "PersonId": 262715, "AddressId": 3416545, "Specialty": "General Practice", "Photo": "findadentist.ada.org/Images/Profile/262715-Dr-Travis-Brown.png", "Name": "Dr. Travis Brown", "Email": "adcadmin@trusteddentistry.com", "Phone": "(574) 875-7711", "Address": "3560 Elkhart Rd. Goshen, IN 46526", "City": "Goshen", "State": "IN", "Zip": "46526", "AddressLine1": "3560 Elkhart Rd.", "AddressLine2": "", "Distance": 19.5, "Latitude": 41.61466, "Longitude": -85.88788}, {"Sequence": 5, "PersonId": 252653, "AddressId": 3416560, "Specialty": "General Practice", "Photo": "findadentist.ada.org/Images/Profile/252653-Dr-Kelli-Thiele.png", "Name": "Dr. Kelli D Thiele", "Email": "adcadmin@trusteddentistry.com", "Phone": "(574) 875-7711", "Address": "3560 Elkhart Rd. Goshen Goshen, IN 46526", "City": "Goshen", "State": "IN", "Zip": "46526", "AddressLine1": "3560 Elkhart Rd. Goshen", "AddressLine2": "", "Distance": 19.5, "Latitude": 41.61466, "Longitude": -85.88788}, {"Sequence": 6, "PersonId": 273421, "AddressId": 1613926, "Specialty": "General Practice", "Photo": "findadentist.ada.org/Images/Profile/273421-Dr-Mark-Shafer.png", "Name": "Dr. Mark D Shafer", "Email": "", "Phone": "(574) 277-7995", "Address": "51410 Bittersweet Rd Granger, IN 46530-9119", "City": "Granger", "State": "IN", "Zip": "46530-9119", "AddressLine1": "51410 Bittersweet Rd", "AddressLine2": "", "Distance": 15.1, "Latitude": 41.74502, "Longitude": -86.11085}, {"Sequence": 7, "PersonId": 256002, "AddressId": 2856610, "Specialty": "General Practice", "Photo": "findadentist.ada.org/Images/Profile/256002-Dr-Elizabeth-Thorpe.png", "Name": "Dr. Elizabeth J. Thorpe", "Email": "info@smilecentreville.com", "Phone": "(269) 467-9325", "Address": "664 E Main St Ste F Centreville, MI 49032-8515", "City": "Centreville", "State": "MI", "Zip": "49032-8515", "AddressLine1": "664 E Main St Ste F", "AddressLine2": "Centerville Family Dentistry", "Distance": 19.9, "Latitude": 41.92168, "Longitude": -85.51353}, {"Sequence": 8, "PersonId": 325761, "AddressId": 2701531, "Specialty": "Orthodontics and Dentofacial Orthopedics", "Photo": "findadentist.ada.org/Images/Profile/325761-Dr-Shawn-Long.png", "Name": "Dr Shawn R Long", "Email": "office@drshawnlong.com", "Phone": null, "Address": "231 W Bristol St Elkhart, IN 46514-3105", "City": "Elkhart", "State": "IN", "Zip": "46514-3105", "AddressLine1": "231 W Bristol St", "AddressLine2": "", "Distance": 14.0, "Latitude": 41.70248, "Longitude": -85.97962}, {"Sequence": 9, "PersonId": 260469, "AddressId": 2947113, "Specialty": "General Practice", "Photo": "findadentist.ada.org/Images/Profile/260469-Dr-Ross-Schafer.png", "Name": "Dr. Ross J Schafer", "Email": "", "Phone": "(574) 277-5406", "Address": "12545 Adams Rd Granger, IN 46530-9226", "City": "Granger", "State": "IN", "Zip": "46530-9226", "AddressLine1": "12545 Adams Rd", "AddressLine2": "", "Distance": 14.7, "Latitude": 41.75383, "Longitude": -86.11188}, {"Sequence": 10, "PersonId": 19094, "AddressId": 3049633, "Specialty": "General Practice", "Photo": "findadentist.ada.org/Images/Profile/19094-Dr-Murray-Malinoski.png", "Name": "Dr. Murray Malinoski", "Email": "", "Phone": "(269) 279-7876", "Address": "717 S Health Pkwy Three Rivers, MI 49093-8352", "City": "Three Rivers", "State": "MI", "Zip": "49093-8352", "AddressLine1": "717 S Health Pkwy", "AddressLine2": "", "Distance": 13.3, "Latitude": 41.93383, "Longitude": -85.64705}, {"Sequence": 11, "PersonId": 354423, "AddressId": 3424314, "Specialty": "General Practice", "Photo": "findadentist.ada.org/Images/Profile/354423-Dr-Jason-Maxwell.png", "Name": "Dr Jason E Maxwell", "Email": "", "Phone": "(574) 293-6342", "Address": "423 Waterfall Drive Elkhart, IN 46516-2023", "City": "Elkhart", "State": "IN", "Zip": "46516-2023", "AddressLine1": "423 Waterfall Drive", "AddressLine2": "", "Distance": 15.0, "Latitude": 41.68478, "Longitude": -85.96306}, {"Sequence": 12, "PersonId": 325359, "AddressId": 1665864, "Specialty": "General Practice", "Photo": "findadentist.ada.org/Images/Profile/325359-Dr-Ronald-Stangebye.png", "Name": "Dr Ronald F Stangebye", "Email": "advancedentalgranger@gmail.com", "Phone": "(574) 271-9910", "Address": "15601 State Road 23 Granger, IN 46530-7091", "City": "Granger", "State": "IN", "Zip": "46530-7091", "AddressLine1": "15601 State Road 23", "AddressLine2": "", "Distance": 18.1, "Latitude": 41.7281, "Longitude": -86.16957}, {"Sequence": 13, "PersonId": 125458, "AddressId": 3437694, "Specialty": "General Practice", "Photo": "findadentist.ada.org/Images/Profile/125458-Dr-Minchul-Kwon.png", "Name": "Dr. Minchul J Kwon", "Email": "info@jeremykwondds.com", "Phone": "(574) 247-2512", "Address": "6910 N Main St Building 6B Unit46 Granger, IN 46530", "City": "Granger", "State": "IN", "Zip": "46530", "AddressLine1": "6910 N Main St Building 6B Unit46", "AddressLine2": "", "Distance": 18.6, "Latitude": 41.723, "Longitude": -86.17681}, {"Sequence": 14, "PersonId": 234305, "AddressId": 3579859, "Specialty": "Oral and Maxillofacial Surgery", "Photo": "findadentist.ada.org/Images/Profile/234305-Dr-Edward-Collins.png", "Name": "Dr. Edward C Collins, III", "Email": "", "Phone": "(574) 272-8823", "Address": "270 East Day Road Ste 260 Mishawaka, IN 46545-3464", "City": "Mishawaka", "State": "IN", "Zip": "46545-3464", "AddressLine1": "270 East Day Road Ste 260", "AddressLine2": "", "Distance": 19.8, "Latitude": 41.69943, "Longitude": -86.17912}, {"Sequence": 15, "PersonId": 16339, "AddressId": 1356844, "Specialty": "General Practice", "Photo": "findadentist.ada.org/Images/Profile/16339-Dr-Rodolfo-Bianco.png", "Name": "Dr Rodolfo E Bianco", "Email": "", "Phone": "(574) 271-1060", "Address": "165 W University Dr Mishawaka, IN 46545-1199", "City": "Mishawaka", "State": "IN", "Zip": "46545-1199", "AddressLine1": "165 W University Dr", "AddressLine2": "", "Distance": 18.9, "Latitude": 41.71748, "Longitude": -86.17882}, {"Sequence": 16, "PersonId": 325364, "AddressId": 2753489, "Specialty": "General Practice", "Photo": "findadentist.ada.org/Images/Profile/325364-Dr-Terry-Bryant.png", "Name": "Dr Terry R Bryant", "Email": "", "Phone": "(574) 264-4161", "Address": "3820 E Bristol St Elkhart, IN 46514-4383", "City": "Elkhart", "State": "IN", "Zip": "46514-4383", "AddressLine1": "3820 E Bristol St", "AddressLine2": "", "Distance": 13.4, "Latitude": 41.70287, "Longitude": -85.91939}, {"Sequence": 17, "PersonId": 16723, "AddressId": 3585462, "Specialty": "General Practice", "Photo": "findadentist.ada.org/Images/Profile/16723-Dr-Matthew-Cripe.png", "Name": "Dr. Matthew V. Cripe", "Email": "info@matthewcripedds.com", "Phone": "(269) 782-5511", "Address": "303 Hamilton St Dowagiac, MI 49047-1259", "City": "Dowagiac", "State": "MI", "Zip": "49047-1259", "AddressLine1": "303 Hamilton St", "AddressLine2": "", "Distance": 12.7, "Latitude": 41.99141, "Longitude": -86.11064}, {"Sequence": 18, "PersonId": 266879, "AddressId": 3328350, "Specialty": "General Practice", "Photo": "findadentist.ada.org/Images/Profile/266879-Dr-Eric-Stefanski.png", "Name": "Dr. Eric Stefanski", "Email": "contactus@cassdental.com", "Phone": "(269) 445-8636", "Address": "62225 M 62 Cassopolis, MI 49031-8733", "City": "Cassopolis", "State": "MI", "Zip": "49031-8733", "AddressLine1": "62225 M 62", "AddressLine2": "Cassopolis Dental, P.C.", "Distance": 5.8, "Latitude": 41.91171, "Longitude": -86.01001}, {"Sequence": 19, "PersonId": 325350, "AddressId": 1665855, "Specialty": "Orthodontics and Dentofacial Orthopedics", "Photo": "findadentist.ada.org/Images/Profile/325350-Dr-Richard-Burns Jr.png", "Name": "Dr Richard D Burns Jr", "Email": "", "Phone": "(574) 875-8196", "Address": "23618 US Highway 33 Elkhart, IN 46517-3608", "City": "Elkhart", "State": "IN", "Zip": "46517-3608", "AddressLine1": "23618 US Highway 33", "AddressLine2": "", "Distance": 18.1, "Latitude": 41.63437, "Longitude": -85.92}, {"Sequence": 20, "PersonId": 325344, "AddressId": 1665849, "Specialty": "General Practice", "Photo": "findadentist.ada.org/Images/Profile/325344-Dr-James-Burkart.png", "Name": "Dr James M Burkart", "Email": "", "Phone": "(574) 255-0035", "Address": "13432 McKinley Hwy Mishawaka, IN 46545-7447", "City": "Mishawaka", "State": "IN", "Zip": "46545-7447", "AddressLine1": "13432 McKinley Hwy", "AddressLine2": "", "Distance": 19.0, "Latitude": 41.68056, "Longitude": -86.12744}, {"Sequence": 21, "PersonId": 216157, "AddressId": 1556662, "Specialty": "General Practice", "Photo": "findadentist.ada.org/Images/Profile/216157-Dr-Avis-Barker.png", "Name": "Dr. Avis L Barker", "Email": "", "Phone": "(574) 855-3829", "Address": "15045 State Road 23 Granger, IN 46530-9666", "City": "Granger", "State": "IN", "Zip": "46530-9666", "AddressLine1": "15045 State Road 23", "AddressLine2": "", "Distance": 17.5, "Latitude": 41.73333, "Longitude": -86.15985}, {"Sequence": 22, "PersonId": 325340, "AddressId": 1665845, "Specialty": "General Practice", "Photo": "findadentist.ada.org/Images/Profile/325340-Dr-Mark-Corn.png", "Name": "Dr Mark A Corn", "Email": "office@elkhartsedationdentist.com", "Phone": "(574) 293-7032", "Address": "902 County Road 6 E Elkhart, IN 46514-5571", "City": "Elkhart", "State": "IN", "Zip": "46514-5571", "AddressLine1": "902 County Road 6 E", "AddressLine2": "", "Distance": 12.3, "Latitude": 41.72471, "Longitude": -85.96584}, {"Sequence": 23, "PersonId": 19112, "AddressId": 1359617, "Specialty": "General Practice", "Photo": "findadentist.ada.org/Images/Profile/19112-Dr-Richard-Moussalli.png", "Name": "Dr Richard L Moussalli", "Email": "decaturdentalteam@gmail.com", "Phone": "(269) 423-4961", "Address": "115 S Phelps St Decatur, MI 49045-1117", "City": "Decatur", "State": "MI", "Zip": "49045-1117", "AddressLine1": "115 S Phelps St", "AddressLine2": "", "Distance": 15.1, "Latitude": 42.10829, "Longitude": -85.97391}, {"Sequence": 24, "PersonId": 124786, "AddressId": 1465291, "Specialty": "General Practice", "Photo": "findadentist.ada.org/Images/Profile/124786-Dr-Jonathan-Gillesby.png", "Name": "Dr. Jonathan Gillesby", "Email": "bandgdental@yahoo.com", "Phone": "(269) 782-5161", "Address": "530 Riverside Dr Dowagiac, MI 49047-2101", "City": "Dowagiac", "State": "MI", "Zip": "49047-2101", "AddressLine1": "530 Riverside Dr", "AddressLine2": "", "Distance": 11.6, "Latitude": 41.97633, "Longitude": -86.09762}, {"Sequence": 25, "PersonId": 379054, "AddressId": 3441858, "Specialty": "General Practice", "Photo": "findadentist.ada.org/Images/Profile/379054-Dr-Anna-Buuck.png", "Name": "Dr. Anna M. Buuck", "Email": "abuuck@vbcassdhd.org", "Phone": null, "Address": "302 S Front St Dowagiac, MI 49047-1740", "City": "Dowagiac", "State": "MI", "Zip": "49047-1740", "AddressLine1": "302 S Front St", "AddressLine2": "Van Buren/Cass District Health Department", "Distance": 12.3, "Latitude": 41.98127, "Longitude": -86.11054}, {"Sequence": 26, "PersonId": 19101, "AddressId": 1359606, "Specialty": "General Practice", "Photo": "findadentist.ada.org/Images/Profile/19101-Dr-Robert-Murav.png", "Name": "Dr. Robert Murav", "Email": "office@DecaturFamilyDentistryMi.com", "Phone": "(269) 423-7025", "Address": "321 W Delaware St Decatur, MI 49045-1106", "City": "Decatur", "State": "MI", "Zip": "49045-1106", "AddressLine1": "321 W Delaware St", "AddressLine2": "", "Distance": 15.1, "Latitude": 42.10602, "Longitude": -85.9795}, {"Sequence": 27, "PersonId": 325074, "AddressId": 3393972, "Specialty": "General Practice", "Photo": "findadentist.ada.org/Images/Profile/325074-Dr-Guy-Moore.png", "Name": "Dr Guy J Moore", "Email": "adcadmin@trusteddentistry.com", "Phone": "(574) 875-7711", "Address": "3560 Elkhart Rd Goshen, IN 46517-3693", "City": "Goshen", "State": "IN", "Zip": "46517-3693", "AddressLine1": "3560 Elkhart Rd", "AddressLine2": "", "Distance": 18.6, "Latitude": 41.62752, "Longitude": -85.91039}, {"Sequence": 28, "PersonId": 325461, "AddressId": 3351641, "Specialty": "General Practice", "Photo": "findadentist.ada.org/Images/Profile/325461-Dr-Thomas-Anglemire.png", "Name": "Dr Thomas J Anglemire", "Email": "", "Phone": "(574) 277-5406", "Address": "12545 State Rd 23 Granger, IN 46530-9226", "City": "Granger", "State": "IN", "Zip": "46530-9226", "AddressLine1": "12545 State Rd 23", "AddressLine2": "", "Distance": 14.7, "Latitude": 41.75383, "Longitude": -86.11189}, {"Sequence": 29, "PersonId": 120900, "AddressId": 1461405, "Specialty": "General Practice", "Photo": "findadentist.ada.org/Images/Profile/120900-Dr-David-Regan.png", "Name": "Dr. David P Regan", "Email": "cvfdentistry@gmail.com", "Phone": "(574) 825-4040", "Address": "1004 Spring Arbor Dr Middlebury, IN 46540-9493", "City": "Middlebury", "State": "IN", "Zip": "46540-9493", "AddressLine1": "1004 Spring Arbor Dr", "AddressLine2": "", "Distance": 18.0, "Latitude": 41.66765, "Longitude": -85.73254}, {"Sequence": 30, "PersonId": 325361, "AddressId": 1665866, "Specialty": "General Practice", "Photo": "findadentist.ada.org/Images/Profile/325361-Dr-Sangyoung-Lee.png", "Name": "Dr Sangyoung Lee", "Email": "", "Phone": "(574) 522-0156", "Address": "125 S Nappanee St Elkhart, IN 46514-1967", "City": "Elkhart", "State": "IN", "Zip": "46514-1967", "AddressLine1": "125 S Nappanee St", "AddressLine2": "", "Distance": 15.6, "Latitude": 41.68449, "Longitude": -86.0037}, {"Sequence": 31, "PersonId": 229782, "AddressId": 3567808, "Specialty": "General Practice", "Photo": "findadentist.ada.org/Images/Profile/229782-Dr-Troy-Springer.png", "Name": "Dr. Troy R Springer", "Email": "ContactUs@SpringerDentalCare.com", "Phone": "(574) 875-6595", "Address": "3702 E Mishawaka Rd Elkhart, IN 46517-3550", "City": "Elkhart", "State": "IN", "Zip": "46517-3550", "AddressLine1": "3702 E Mishawaka Rd", "AddressLine2": "", "Distance": 17.8, "Latitude": 41.63944, "Longitude": -85.93225}, {"Sequence": 32, "PersonId": 325350, "AddressId": 2732374, "Specialty": "Orthodontics and Dentofacial Orthopedics", "Photo": "findadentist.ada.org/Images/Profile/325350-Dr-Richard-Burns Jr.png", "Name": "Dr Richard D Burns Jr", "Email": "", "Phone": null, "Address": "503 Spring Valley Dr Middlebury, IN 46540-9245", "City": "Middlebury", "State": "IN", "Zip": "46540-9245", "AddressLine1": "503 Spring Valley Dr", "AddressLine2": "", "Distance": 18.0, "Latitude": 41.66745, "Longitude": -85.73177}, {"Sequence": 33, "PersonId": 120895, "AddressId": 1461400, "Specialty": "General Practice", "Photo": "findadentist.ada.org/Images/Profile/120895-Dr-Christiaan-Willig.png", "Name": "Dr. Christiaan A Willig", "Email": "warsaworangedoor@gmail.com", "Phone": "(574) 293-5216", "Address": "110 N Nappanee St Elkhart, IN 46514-1956", "City": "Elkhart", "State": "IN", "Zip": "46514-1956", "AddressLine1": "110 N Nappanee St", "AddressLine2": "", "Distance": 15.4, "Latitude": 41.68634, "Longitude": -86.00312}, {"Sequence": 34, "PersonId": 228659, "AddressId": 3307914, "Specialty": "Pediatric Dentistry", "Photo": "findadentist.ada.org/Images/Profile/228659-Dr-Cara-Kilgore.png", "Name": "Dr. Cara A Kilgore", "Email": "information@northpointkids.com", "Phone": "(574) 273-8393", "Address": "3434 East Douglas Road South Bend, IN 46635-1776", "City": "South Bend", "State": "IN", "Zip": "46635-1776", "AddressLine1": "3434 East Douglas Road", "AddressLine2": "", "Distance": 19.3, "Latitude": 41.7099, "Longitude": -86.17917}, {"Sequence": 35, "PersonId": 202891, "AddressId": 3049630, "Specialty": "General Practice", "Photo": "findadentist.ada.org/Images/Profile/202891-Dr-Kyle-McGill.png", "Name": "Dr. Kyle P McGill", "Email": "info@nilesdental.com", "Phone": "(269) 684-6003", "Address": "10 N State St Niles, MI 49120-2295", "City": "Niles", "State": "MI", "Zip": "49120-2295", "AddressLine1": "10 N State St", "AddressLine2": "", "Distance": 19.3, "Latitude": 41.82759, "Longitude": -86.2628}, {"Sequence": 36, "PersonId": 325355, "AddressId": 1665860, "Specialty": "General Practice", "Photo": "findadentist.ada.org/Images/Profile/325355-Dr-Matthew-Brennan.png", "Name": "Dr Matthew S Brennan", "Email": "", "Phone": "(574) 259-9956", "Address": "330 Park Pl Mishawaka, IN 46545-3555", "City": "Mishawaka", "State": "IN", "Zip": "46545-3555", "AddressLine1": "330 Park Pl", "AddressLine2": "", "Distance": 19.9, "Latitude": 41.69692, "Longitude": -86.1783}, {"Sequence": 37, "PersonId": 325351, "AddressId": 1665856, "Specialty": "General Practice", "Photo": "findadentist.ada.org/Images/Profile/325351-Dr-Tod-Lovan.png", "Name": "Dr Tod L Lovan", "Email": "drtodlovan@gmail.com", "Phone": "(574) 294-7134", "Address": "2735 Prairie St Elkhart, IN 46517-2108", "City": "Elkhart", "State": "IN", "Zip": "46517-2108", "AddressLine1": "2735 Prairie St", "AddressLine2": "", "Distance": 16.8, "Latitude": 41.65801, "Longitude": -85.96575}, {"Sequence": 38, "PersonId": 325371, "AddressId": 1665876, "Specialty": "General Practice", "Photo": "findadentist.ada.org/Images/Profile/325371-Dr-William-Coulter.png", "Name": "Dr William B Coulter", "Email": "bcoulter@coulterfamilydentistry.com", "Phone": "(574) 271-8771", "Address": "325 Park Place Mishawaka, IN 46545-3556", "City": "Mishawaka", "State": "IN", "Zip": "46545-3556", "AddressLine1": "325 Park Place", "AddressLine2": "", "Distance": 19.9, "Latitude": 41.6968, "Longitude": -86.1796}, {"Sequence": 39, "PersonId": 268219, "AddressId": 3032048, "Specialty": "General Practice", "Photo": "findadentist.ada.org/Images/Profile/268219-Dr-Michael-Reider.png", "Name": "Dr. Michael J Reider", "Email": "drsteele@drsteeledental.com", "Phone": "(219) 363-9838", "Address": "423 Waterfall Dr Elkhart, IN 46516-3660", "City": "Elkhart", "State": "IN", "Zip": "46516-3660", "AddressLine1": "423 Waterfall Dr", "AddressLine2": "", "Distance": 15.0, "Latitude": 41.68474, "Longitude": -85.96311}, {"Sequence": 40, "PersonId": 341434, "AddressId": 3319293, "Specialty": "General Practice", "Photo": "findadentist.ada.org/Images/Profile/341434-Dr-Hannah-Pechin.png", "Name": "Dr. Hannah Pechin", "Email": "adcadmin@trusteddentistry.com", "Phone": "(574) 875-7711", "Address": "3560 Elkhart Rd Goshen, IN 46526-5814", "City": "Goshen", "State": "IN", "Zip": "46526-5814", "AddressLine1": "3560 Elkhart Rd", "AddressLine2": "", "Distance": 19.5, "Latitude": 41.61465, "Longitude": -85.88789}, {"Sequence": 41, "PersonId": 123742, "AddressId": 3032645, "Specialty": "Pediatric Dentistry", "Photo": "findadentist.ada.org/Images/Profile/123742-Dr-Deanna-O'Neil.png", "Name": "Dr. Deanna L O'Neil", "Email": "", "Phone": "(574) 271-0044", "Address": "51565 Bittersweet Road Granger, IN 46530", "City": "Granger", "State": "IN", "Zip": "46530", "AddressLine1": "51565 Bittersweet Road", "AddressLine2": "", "Distance": 15.1, "Latitude": 41.74396, "Longitude": -86.11087}, {"Sequence": 42, "PersonId": 242275, "AddressId": 2770058, "Specialty": "General Practice", "Photo": "findadentist.ada.org/Images/Profile/242275-Dr-Matthew-Bueter.png", "Name": "Dr. Matthew J Bueter", "Email": "", "Phone": "(574) 277-2220", "Address": "605 W Douglas Rd Mishawaka, IN 46545-1438", "City": "Mishawaka", "State": "IN", "Zip": "46545-1438", "AddressLine1": "605 W Douglas Rd", "AddressLine2": "", "Distance": 19.8, "Latitude": 41.70893, "Longitude": -86.19081}, {"Sequence": 43, "PersonId": 325357, "AddressId": 1665862, "Specialty": "General Practice", "Photo": "findadentist.ada.org/Images/Profile/325357-Dr-Jeffrey-Turner.png", "Name": "Dr Jeffrey a Turner", "Email": "universityparkfamilydentistry@comcast.net", "Phone": "(574) 272-4441", "Address": "16597 State Road 23 South Bend, IN 46635-1461", "City": "South Bend", "State": "IN", "Zip": "46635-1461", "AddressLine1": "16597 State Road 23", "AddressLine2": "", "Distance": 19.5, "Latitude": 41.71911, "Longitude": -86.19444}, {"Sequence": 44, "PersonId": 325370, "AddressId": 3032089, "Specialty": "General Practice", "Photo": "findadentist.ada.org/Images/Profile/325370-Dr-R-Sheline.png", "Name": "Dr R D Sheline", "Email": "", "Phone": "(574) 293-8744", "Address": "415 Waterfall Dr Ste A Elkhart, IN 46516-3660", "City": "Elkhart", "State": "IN", "Zip": "46516-3660", "AddressLine1": "415 Waterfall Dr Ste A", "AddressLine2": "", "Distance": 15.0, "Latitude": 41.68505, "Longitude": -85.9639}, {"Sequence": 45, "PersonId": 325381, "AddressId": 1665886, "Specialty": "General Practice", "Photo": "findadentist.ada.org/Images/Profile/325381-Dr-Brian-King.png", "Name": "Dr Brian J King", "Email": "kingandandycocrichdds@gmail.com", "Phone": "(574) 293-4213", "Address": "25947 County Road 20 Elkhart, IN 46517-2301", "City": "Elkhart", "State": "IN", "Zip": "46517-2301", "AddressLine1": "25947 County Road 20", "AddressLine2": "", "Distance": 17.2, "Latitude": 41.65155, "Longitude": -85.96429}, {"Sequence": 46, "PersonId": 121488, "AddressId": 2832869, "Specialty": "General Practice", "Photo": "findadentist.ada.org/Images/Profile/121488-Dr-Bruce-Watkins.png", "Name": "Dr. Bruce D Watkins", "Email": "drbwatkins1@comcast.net", "Phone": "(574) 293-9832", "Address": "205 E Jackson Blvd Elkhart, IN 46516-3514", "City": "Elkhart", "State": "IN", "Zip": "46516-3514", "AddressLine1": "205 E Jackson Blvd", "AddressLine2": "", "Distance": 14.9, "Latitude": 41.68784, "Longitude": -85.97105}, {"Sequence": 47, "PersonId": 325330, "AddressId": 3032087, "Specialty": "General Practice", "Photo": "findadentist.ada.org/Images/Profile/325330-Dr-Douglas-Snyder.png", "Name": "Dr Douglas J Snyder", "Email": "", "Phone": "(574) 293-9495", "Address": "427 Waterfall Dr Elkhart, IN 46516-3660", "City": "Elkhart", "State": "IN", "Zip": "46516-3660", "AddressLine1": "427 Waterfall Dr", "AddressLine2": "", "Distance": 15.0, "Latitude": 41.68447, "Longitude": -85.96288}, {"Sequence": 48, "PersonId": 200287, "AddressId": 1540792, "Specialty": "General Practice", "Photo": "findadentist.ada.org/Images/Profile/200287-Dr-Byron-Moore.png", "Name": "Dr. Byron Moore", "Email": "", "Phone": "(574) 277-2220", "Address": "605 W Douglas Rd Mishawaka, IN 46545-1438", "City": "Mishawaka", "State": "IN", "Zip": "46545-1438", "AddressLine1": "605 W Douglas Rd", "AddressLine2": "", "Distance": 19.8, "Latitude": 41.70893, "Longitude": -86.19081}, {"Sequence": 49, "PersonId": 325328, "AddressId": 1665833, "Specialty": "Pediatric Dentistry", "Photo": "findadentist.ada.org/Images/Profile/325328-Dr-Gregory-Robbins.png", "Name": "Dr Gregory A Robbins", "Email": "", "Phone": "(574) 264-9499", "Address": "4420 E Bristol St Elkhart, IN 46514-6946", "City": "Elkhart", "State": "IN", "Zip": "46514-6946", "AddressLine1": "4420 E Bristol St", "AddressLine2": "", "Distance": 13.2, "Latitude": 41.70502, "Longitude": -85.90822}, {"Sequence": 50, "PersonId": 16729, "AddressId": 3049629, "Specialty": "General Practice", "Photo": "findadentist.ada.org/Images/Profile/16729-Dr-Richard-Beckermeyer.png", "Name": "Dr. Richard L. Beckermeyer", "Email": "Dr.Richard.Beckermeyer@gmail.com", "Phone": "(269) 683-6461", "Address": "123 Marmont St Niles, MI 49120-1657", "City": "Niles", "State": "MI", "Zip": "49120-1657", "AddressLine1": "123 Marmont St", "AddressLine2": "", "Distance": 18.9, "Latitude": 41.84092, "Longitude": -86.2602}, {"Sequence": 51, "PersonId": 325377, "AddressId": 1665882, "Specialty": "General Practice", "Photo": "findadentist.ada.org/Images/Profile/325377-Dr-Randy-Stauffer.png", "Name": "Dr Randy A Stauffer", "Email": "rmstauffer@msn.com", "Phone": "(574) 293-3416", "Address": "920 E Mishawaka Rd Elkhart, IN 46517-3226", "City": "Elkhart", "State": "IN", "Zip": "46517-3226", "AddressLine1": "920 E Mishawaka Rd", "AddressLine2": "", "Distance": 17.4, "Latitude": 41.64777, "Longitude": -85.95439}, {"Sequence": 52, "PersonId": 325372, "AddressId": 1665877, "Specialty": "General Practice", "Photo": "findadentist.ada.org/Images/Profile/325372-Dr-Elizabeth-Elliott.png", "Name": "Dr Elizabeth A Elliott", "Email": "tracyg@cdentalcare.com", "Phone": "(574) 264-4161", "Address": "3820 E Bristol St Elkhart, IN 46514-4383", "City": "Elkhart", "State": "IN", "Zip": "46514-4383", "AddressLine1": "3820 E Bristol St", "AddressLine2": "", "Distance": 13.4, "Latitude": 41.70287, "Longitude": -85.91939}, {"Sequence": 53, "PersonId": 242329, "AddressId": 1582834, "Specialty": "General Practice", "Photo": "findadentist.ada.org/Images/Profile/242329-Dr-Emily-Stout.png", "Name": "Dr. Emily M Stout", "Email": "", "Phone": "(574) 293-9222", "Address": "805 Waterbury Park Dr Elkhart, IN 46517-2390", "City": "Elkhart", "State": "IN", "Zip": "46517-2390", "AddressLine1": "805 Waterbury Park Dr", "AddressLine2": "", "Distance": 17.2, "Latitude": 41.65113, "Longitude": -85.95656}, {"Sequence": 54, "PersonId": 256057, "AddressId": 2821101, "Specialty": "General Practice", "Photo": "findadentist.ada.org/Images/Profile/256057-Dr-Chad-Thorpe.png", "Name": "Dr. Chad T Thorpe", "Email": "info@smilecentreville.com", "Phone": "(269) 467-9325", "Address": "664 E Main St Ste F Centreville, MI 49032-8515", "City": "Centreville", "State": "MI", "Zip": "49032-8515", "AddressLine1": "664 E Main St Ste F", "AddressLine2": "PO Box 777", "Distance": 19.2, "Latitude": 41.92338, "Longitude": -85.52832}, {"Sequence": 55, "PersonId": 233615, "AddressId": 1574120, "Specialty": "General Practice", "Photo": "findadentist.ada.org/Images/Profile/233615-Dr-Manuel-Carranza.png", "Name": "Dr. Manuel R Carranza", "Email": "adcadmin@trusteddentistry.com", "Phone": "(574) 875-7711", "Address": "3560 Elkhart Rd. Goshen, IN 46526", "City": "Goshen", "State": "IN", "Zip": "46526", "AddressLine1": "3560 Elkhart Rd.", "AddressLine2": "", "Distance": 16.9, "Latitude": 41.65363, "Longitude": -85.85404}, {"Sequence": 56, "PersonId": 325316, "AddressId": 3436451, "Specialty": "General Practice", "Photo": "findadentist.ada.org/Images/Profile/325316-Dr-Kevin-Campbell.png", "Name": "Dr Kevin T Campbell", "Email": "office@grangerdentalgroup.com", "Phone": "(574) 277-4235", "Address": "6910 N Main St Blding 1Unit 58 Granger, IN 46530-9681", "City": "Granger", "State": "IN", "Zip": "46530-9681", "AddressLine1": "6910 N Main St Blding 1Unit 58", "AddressLine2": "", "Distance": 18.6, "Latitude": 41.723, "Longitude": -86.17681}, {"Sequence": 57, "PersonId": 220709, "AddressId": 2767622, "Specialty": "Oral and Maxillofacial Surgery", "Photo": "findadentist.ada.org/Images/Profile/220709-Dr-Taite-Anderson.png", "Name": "Dr. Taite R Anderson", "Email": "referal@grangeroralsurgery.com", "Phone": "(574) 277-6637", "Address": "15051 Cleveland Road Granger, IN 46530-9218", "City": "Granger", "State": "IN", "Zip": "46530-9218", "AddressLine1": "15051 Cleveland Road", "AddressLine2": "", "Distance": 17.9, "Latitude": 41.7243, "Longitude": -86.15987}, {"Sequence": 58, "PersonId": 325277, "AddressId": 1665782, "Specialty": "General Practice", "Photo": "findadentist.ada.org/Images/Profile/325277-Dr-Roger-Pecina.png", "Name": "Dr Roger S Pecina", "Email": "information@afdent.com", "Phone": "(574) 277-2220", "Address": "605 W Douglas Rd Mishawaka, IN 46545-1438", "City": "Mishawaka", "State": "IN", "Zip": "46545-1438", "AddressLine1": "605 W Douglas Rd", "AddressLine2": "", "Distance": 19.8, "Latitude": 41.70893, "Longitude": -86.19081}, {"Sequence": 59, "PersonId": 325339, "AddressId": 1665844, "Specialty": "General Practice", "Photo": "findadentist.ada.org/Images/Profile/325339-Dr-Bruce-Benifiel.png", "Name": "Dr Bruce P Benifiel", "Email": "staff@benifiel.com", "Phone": "(574) 277-7733", "Address": "925 E University Dr Granger, IN 46530-4465", "City": "Granger", "State": "IN", "Zip": "46530-4465", "AddressLine1": "925 E University Dr", "AddressLine2": "", "Distance": 18.4, "Latitude": 41.71994, "Longitude": -86.16802}, {"Sequence": 60, "PersonId": 325367, "AddressId": 1665872, "Specialty": "General Practice", "Photo": "findadentist.ada.org/Images/Profile/325367-Dr-Manuel-Lopez.png", "Name": "Dr. Manuel Lopez, Jr.", "Email": "brfd32@hotmail.com", "Phone": "(574) 277-7995", "Address": "51410 Bittersweet Rd Granger, IN 46530-9119", "City": "Granger", "State": "IN", "Zip": "46530-9119", "AddressLine1": "51410 Bittersweet Rd", "AddressLine2": "", "Distance": 15.1, "Latitude": 41.74489, "Longitude": -86.11086}, {"Sequence": 61, "PersonId": 214708, "AddressId": 1555213, "Specialty": "General Practice", "Photo": "findadentist.ada.org/Images/Profile/214708-Dr-Joseph-Hickey.png", "Name": "Dr. Joseph E Hickey, III", "Email": "office@grangerdentalgroup.com", "Phone": "(574) 277-4235", "Address": "6910 N Main St Bldg 1 Unit 58 Granger, IN 46530-9681", "City": "Granger", "State": "IN", "Zip": "46530-9681", "AddressLine1": "6910 N Main St Bldg 1 Unit 58", "AddressLine2": "", "Distance": 18.6, "Latitude": 41.723, "Longitude": -86.17681}, {"Sequence": 62, "PersonId": 121461, "AddressId": 1461966, "Specialty": "Endodontics", "Photo": "findadentist.ada.org/Images/Profile/121461-Dr-Scott-Risser.png", "Name": "Dr. Scott E Risser", "Email": "", "Phone": "(574) 232-5866", "Address": "117 S Nappanee St Elkhart, IN 46514-1955", "City": "Elkhart", "State": "IN", "Zip": "46514-1955", "AddressLine1": "117 S Nappanee St", "AddressLine2": "", "Distance": 15.5, "Latitude": 41.68504, "Longitude": -86.00378}, {"Sequence": 63, "PersonId": 16394, "AddressId": 3433316, "Specialty": "General Practice", "Photo": "findadentist.ada.org/Images/Profile/ADA.png", "Name": "Dr Patrick Goodman", "Email": "patientdentistry1@yahoo.com", "Phone": "(269) 483-9621", "Address": "113 S Kalamazoo St White Pigeon, MI 49099-0695", "City": "White Pigeon", "State": "MI", "Zip": "49099-0695", "AddressLine1": "113 S Kalamazoo St", "AddressLine2": "PO Box 695", "Distance": 14.8, "Latitude": 41.79798, "Longitude": -85.64319}, {"Sequence": 64, "PersonId": 125245, "AddressId": 1465750, "Specialty": "General Practice", "Photo": "findadentist.ada.org/Images/Profile/ADA.png", "Name": "Dr. Tia L Jeffers", "Email": "", "Phone": "(269) 445-3874", "Address": "1422 Lincoln Way E South Bend, IN 46613-3250", "City": "South Bend", "State": "IN", "Zip": "46613-3250", "AddressLine1": "1422 Lincoln Way E", "AddressLine2": "", "Distance": 6.3, "Latitude": 41.91661, "Longitude": -86.01849}, {"Sequence": 65, "PersonId": 16728, "AddressId": 1357233, "Specialty": "General Practice", "Photo": "findadentist.ada.org/Images/Profile/ADA.png", "Name": "Dr. David R. Cleppe", "Email": "", "Phone": "(269) 683-6006", "Address": "16 S St Joseph Ave Niles, MI 49120-2847", "City": "Niles", "State": "MI", "Zip": "49120-2847", "AddressLine1": "16 S St Joseph Ave", "AddressLine2": "", "Distance": 19.2, "Latitude": 41.82656, "Longitude": -86.26177}, {"Sequence": 66, "PersonId": 325338, "AddressId": 1665843, "Specialty": "General Practice", "Photo": "findadentist.ada.org/Images/Profile/ADA.png", "Name": "Dr Todd S Wyse", "Email": "tswysedds@aol.com", "Phone": "(574) 875-3817", "Address": "57250 Alpha Dr Goshen, IN 46528-7804", "City": "Goshen", "State": "IN", "Zip": "46528-7804", "AddressLine1": "57250 Alpha Dr", "AddressLine2": "", "Distance": 16.1, "Latitude": 41.66359, "Longitude": -85.88494}, {"Sequence": 67, "PersonId": 325341, "AddressId": 1665846, "Specialty": "Oral and Maxillofacial Surgery", "Photo": "findadentist.ada.org/Images/Profile/ADA.png", "Name": "Dr Jeffrey S Mc Bride", "Email": "", "Phone": "(574) 293-8211", "Address": "117 S Nappanee St Elkhart, IN 46514-1955", "City": "Elkhart", "State": "IN", "Zip": "46514-1955", "AddressLine1": "117 S Nappanee St", "AddressLine2": "", "Distance": 15.5, "Latitude": 41.68504, "Longitude": -86.00378}, {"Sequence": 68, "PersonId": 214731, "AddressId": 1555236, "Specialty": "General Practice", "Photo": "findadentist.ada.org/Images/Profile/ADA.png", "Name": "Dr. Alison R Robertson", "Email": "", "Phone": "(574) 970-1937", "Address": "236 Simpson Ave Elkhart, IN 46516-4666", "City": "Elkhart", "State": "IN", "Zip": "46516-4666", "AddressLine1": "236 Simpson Ave", "AddressLine2": "", "Distance": 14.5, "Latitude": 41.68979, "Longitude": -85.94584}, {"Sequence": 69, "PersonId": 325282, "AddressId": 1665787, "Specialty": "Oral and Maxillofacial Surgery", "Photo": "findadentist.ada.org/Images/Profile/ADA.png", "Name": "Dr David M Fairchild", "Email": "", "Phone": "(574) 293-8211", "Address": "117 S Nappanee St Elkhart, IN 46514-1955", "City": "Elkhart", "State": "IN", "Zip": "46514-1955", "AddressLine1": "117 S Nappanee St", "AddressLine2": "", "Distance": 15.5, "Latitude": 41.68504, "Longitude": -86.00378}, {"Sequence": 70, "PersonId": 19245, "AddressId": 3277349, "Specialty": "General Practice", "Photo": "findadentist.ada.org/Images/Profile/ADA.png", "Name": "Dr. Carl C. Druskovich", "Email": "", "Phone": "(269) 423-7866", "Address": "45140 M 51 Decatur, MI 49045-9094", "City": "Decatur", "State": "MI", "Zip": "49045-9094", "AddressLine1": "45140 M 51", "AddressLine2": "", "Distance": 14.9, "Latitude": 42.10272, "Longitude": -85.98595}, {"Sequence": 71, "PersonId": 325353, "AddressId": 1665858, "Specialty": "Endodontics", "Photo": "findadentist.ada.org/Images/Profile/ADA.png", "Name": "Dr Lynn J Albrecht", "Email": "", "Phone": "(574) 875-1717", "Address": "21767 Omega Ct Goshen, IN 46528-7809", "City": "Goshen", "State": "IN", "Zip": "46528-7809", "AddressLine1": "21767 Omega Ct", "AddressLine2": "", "Distance": 16.1, "Latitude": 41.66312, "Longitude": -85.88412}, {"Sequence": 72, "PersonId": 376227, "AddressId": 3430522, "Specialty": "General Practice", "Photo": "findadentist.ada.org/Images/Profile/ADA.png", "Name": "Dr. Timothy J. Ponkowski, Jr.", "Email": "office@decaturfamilydentistrymi.com", "Phone": "(269) 201-5831", "Address": "321 W Delaware St Decatur, MI 49045-1106", "City": "Decatur", "State": "MI", "Zip": "49045-1106", "AddressLine1": "321 W Delaware St", "AddressLine2": "", "Distance": 15.0, "Latitude": 42.10514, "Longitude": -85.9806}, {"Sequence": 73, "PersonId": 250601, "AddressId": 2820176, "Specialty": "General Practice", "Photo": "findadentist.ada.org/Images/Profile/ADA.png", "Name": "Dr. Timothy J. Ewert", "Email": "", "Phone": "(269) 488-5400", "Address": "32652 Kno Dowagiac, MI 49047-9329", "City": "Dowagiac", "State": "MI", "Zip": "49047-9329", "AddressLine1": "32652 Kno", "AddressLine2": "Pokagon Band of Pottawatomi", "Distance": 12.3, "Latitude": 41.98421, "Longitude": -86.10862}, {"Sequence": 74, "PersonId": 325346, "AddressId": 3379532, "Specialty": "Periodontics", "Photo": "findadentist.ada.org/Images/Profile/ADA.png", "Name": "Dr Wesley R Mark", "Email": "", "Phone": "(574) 266-6107", "Address": "320 west bristol str elkhart, IN 46514", "City": "elkhart", "State": "IN", "Zip": "46514", "AddressLine1": "320 west bristol str", "AddressLine2": "", "Distance": 14.0, "Latitude": 41.70308, "Longitude": -85.98032}, {"Sequence": 75, "PersonId": 17335, "AddressId": 1357840, "Specialty": "General Practice", "Photo": "findadentist.ada.org/Images/Profile/ADA.png", "Name": "Dr Paul Blank", "Email": "dentist.blank@gmail.com", "Phone": "(269) 279-5278", "Address": "213 Spring St Three Rivers, MI 49093-2150", "City": "Three Rivers", "State": "MI", "Zip": "49093-2150", "AddressLine1": "213 Spring St", "AddressLine2": "", "Distance": 13.9, "Latitude": 41.94064, "Longitude": -85.63605}, {"Sequence": 76, "PersonId": 121267, "AddressId": 1461772, "Specialty": "Oral and Maxillofacial Surgery", "Photo": "findadentist.ada.org/Images/Profile/ADA.png", "Name": "Dr. Daniel A Burns", "Email": "", "Phone": "(574) 875-0547", "Address": "3807 S Main St Elkhart, IN 46517-3510", "City": "Elkhart", "State": "IN", "Zip": "46517-3510", "AddressLine1": "3807 S Main St", "AddressLine2": "", "Distance": 17.9, "Latitude": 41.63848, "Longitude": -85.92646}, {"Sequence": 77, "PersonId": 16710, "AddressId": 3043310, "Specialty": "General Practice", "Photo": "findadentist.ada.org/Images/Profile/ADA.png", "Name": "Dr. Darrin Gourlay", "Email": "", "Phone": "(269) 683-1077", "Address": "104 Grant St Niles, MI 49120-2201", "City": "Niles", "State": "MI", "Zip": "49120-2201", "AddressLine1": "104 Grant St", "AddressLine2": "", "Distance": 19.1, "Latitude": 41.82688, "Longitude": -86.25907}, {"Sequence": 78, "PersonId": 120409, "AddressId": 1460914, "Specialty": "General Practice", "Photo": "findadentist.ada.org/Images/Profile/ADA.png", "Name": "Dr. Michelle B Brown", "Email": "", "Phone": "(574) 293-0052", "Address": "236 Simpson Ave Elkhart, IN 46516-4666", "City": "Elkhart", "State": "IN", "Zip": "46516-4666", "AddressLine1": "236 Simpson Ave", "AddressLine2": "", "Distance": 14.5, "Latitude": 41.68979, "Longitude": -85.94584}]