[{"Sequence": 1, "PersonId": 226110, "AddressId": 1566615, "Specialty": "General Practice", "Photo": "findadentist.ada.org/Images/Profile/226110-Dr-Sunjay-Lad.png", "Name": "Dr. Sunjay Lad", "Email": "info@drlad.com", "Phone": "(626) 287-4094", "Address": "5813 Temple City Blvd Temple City, CA 91780-2113", "City": "Temple City", "State": "CA", "Zip": "91780-2113", "AddressLine1": "5813 Temple City Blvd", "AddressLine2": "", "Distance": 0.9, "Latitude": 34.10528, "Longitude": -118.06096}, {"Sequence": 2, "PersonId": 288590, "AddressId": 1629095, "Specialty": "General Practice", "Photo": "findadentist.ada.org/Images/Profile/288590-Dr-Chiman-Lad.png", "Name": "Dr Chiman Lad", "Email": "", "Phone": "(626) 287-4094", "Address": "5813 Temple City Blvd Temple City, CA 91780-2113", "City": "Temple City", "State": "CA", "Zip": "91780-2113", "AddressLine1": "5813 Temple City Blvd", "AddressLine2": "", "Distance": 0.9, "Latitude": 34.10529, "Longitude": -118.06095}, {"Sequence": 3, "PersonId": 147009, "AddressId": 1487514, "Specialty": "General Practice", "Photo": "findadentist.ada.org/Images/Profile/147009-Dr-Brian-Kar.png", "Name": "Dr. Brian M Kar", "Email": "instyledental@yahoo.com", "Phone": "(626) 287-2625", "Address": "138 N San Gabriel Blvd San Gabriel, CA 91775-2427", "City": "San Gabriel", "State": "CA", "Zip": "91775-2427", "AddressLine1": "138 N San Gabriel Blvd", "AddressLine2": "", "Distance": 1.1, "Latitude": 34.10488, "Longitude": -118.09076}, {"Sequence": 4, "PersonId": 206369, "AddressId": 1546874, "Specialty": "General Practice", "Photo": "findadentist.ada.org/Images/Profile/206369-Dr-Benjamin-Szu.png", "Name": "Dr. Benjamin Y Szu", "Email": "info@drszu.com", "Phone": "(626) 291-2917", "Address": "1125 S San Gabriel Blvd San Gabriel, CA 91776-3114", "City": "San Gabriel", "State": "CA", "Zip": "91776-3114", "AddressLine1": "1125 S San Gabriel Blvd", "AddressLine2": "", "Distance": 1.2, "Latitude": 34.08723, "Longitude": -118.0911}, {"Sequence": 5, "PersonId": 207908, "AddressId": 1548413, "Specialty": "General Practice", "Photo": "findadentist.ada.org/Images/Profile/207908-Dr-Hwei-Wan-Liou.png", "Name": "Dr. Hwei-Wan E Liou", "Email": "", "Phone": "(626) 788-9008", "Address": "9428 Valley Blvd Ste 101 Rosemead, CA 91770-1514", "City": "Rosemead", "State": "CA", "Zip": "91770-1514", "AddressLine1": "9428 Valley Blvd Ste 101", "AddressLine2": "", "Distance": 1.2, "Latitude": 34.08096, "Longitude": -118.06361}, {"Sequence": 6, "PersonId": 193996, "AddressId": 2737208, "Specialty": "General Practice", "Photo": "findadentist.ada.org/Images/Profile/193996-Dr-Kevin-Kang.png", "Name": "Dr. Kevin C Kang", "Email": "garfielddentalgroup@yahoo.com", "Phone": "(909) 468-0091", "Address": "3925 Rosemead Blvd Ste 203 Rosemead, CA 91770-1933", "City": "Rosemead", "State": "CA", "Zip": "91770-1933", "AddressLine1": "3925 Rosemead Blvd Ste 203", "AddressLine2": "", "Distance": 1.2, "Latitude": 34.07932, "Longitude": -118.07348}, {"Sequence": 7, "PersonId": 168819, "AddressId": 1509324, "Specialty": "General Practice", "Photo": "findadentist.ada.org/Images/Profile/168819-Dr-Heejoung-Kim.png", "Name": "Dr. Hee-Joung Kim", "Email": "hjkimdds@hjkimdental.com", "Phone": "(626) 285-1159", "Address": "206 E Las Tunas Dr Ste 7 San Gabriel, CA 91776-1411", "City": "San Gabriel", "State": "CA", "Zip": "91776-1411", "AddressLine1": "206 E Las Tunas Dr Ste 7", "AddressLine2": null, "Distance": 1.4, "Latitude": 34.10257, "Longitude": -118.09777}, {"Sequence": 8, "PersonId": 224106, "AddressId": 2772430, "Specialty": "General Practice", "Photo": "findadentist.ada.org/Images/Profile/224106-Dr-Amy-Tran.png", "Name": "Dr. Amy Tran", "Email": "ASPIREDDS@GMAIL.COM", "Phone": "(626) 307-7196", "Address": "844 E Valley Blvd San Gabriel, CA 91776-3642", "City": "San Gabriel", "State": "CA", "Zip": "91776-3642", "AddressLine1": "844 E Valley Blvd", "AddressLine2": "", "Distance": 1.4, "Latitude": 34.08002, "Longitude": -118.08876}, {"Sequence": 9, "PersonId": 134437, "AddressId": 1474942, "Specialty": "General Practice", "Photo": "findadentist.ada.org/Images/Profile/134437-Dr-Daniel-Cheng.png", "Name": "Dr. Daniel D Cheng", "Email": "danielchengdds@gmail.com", "Phone": "(626) 287-0991", "Address": "211 E Las Tunas Dr San Gabriel, CA 91776-1403", "City": "San Gabriel", "State": "CA", "Zip": "91776-1403", "AddressLine1": "211 E Las Tunas Dr", "AddressLine2": "", "Distance": 1.5, "Latitude": 34.10321, "Longitude": -118.09784}, {"Sequence": 10, "PersonId": 288711, "AddressId": 1629216, "Specialty": "General Practice", "Photo": "findadentist.ada.org/Images/Profile/288711-Dr-Linda-Ng.png", "Name": "Dr Linda L Ng", "Email": "", "Phone": "(626) 294-0988", "Address": "556 Las Tunas Dr Ste 104 Arcadia, CA 91007-8410", "City": "Arcadia", "State": "CA", "Zip": "91007-8410", "AddressLine1": "556 Las Tunas Dr Ste 104", "AddressLine2": "", "Distance": 1.5, "Latitude": 34.10715, "Longitude": -118.05081}, {"Sequence": 11, "PersonId": 280245, "AddressId": 1620750, "Specialty": "General Practice", "Photo": "findadentist.ada.org/Images/Profile/280245-Dr-Min-Lwin.png", "Name": "Dr Min Lwin", "Email": "", "Phone": "(626) 288-5777", "Address": "1739 S San Gabriel Blvd San Gabriel, CA 91776-3927", "City": "San Gabriel", "State": "CA", "Zip": "91776-3927", "AddressLine1": "1739 S San Gabriel Blvd", "AddressLine2": "", "Distance": 1.7, "Latitude": 34.07733, "Longitude": -118.09094}, {"Sequence": 12, "PersonId": 206371, "AddressId": 1546876, "Specialty": "Periodontics", "Photo": "findadentist.ada.org/Images/Profile/206371-Dr-Irene-Tam.png", "Name": "Dr. Irene W Tam", "Email": "lawilshireperio@yahoo.com", "Phone": "(310) 385-8016", "Address": "1811 S Del Mar Ave Ste 101 San Gabriel, CA 91776-4131", "City": "San Gabriel", "State": "CA", "Zip": "91776-4131", "AddressLine1": "1811 S Del Mar Ave Ste 101", "AddressLine2": "", "Distance": 2.1, "Latitude": 34.07629, "Longitude": -118.10005}, {"Sequence": 13, "PersonId": 195142, "AddressId": 3499306, "Specialty": "General Practice", "Photo": "findadentist.ada.org/Images/Profile/195142-Dr-Eric-To.png", "Name": "Dr. Eric C To", "Email": "info@ParklaneDental.net", "Phone": "(626) 445-3388", "Address": "815 W Naomi Ave Arcadia, CA 91007-7560", "City": "Arcadia", "State": "CA", "Zip": "91007-7560", "AddressLine1": "815 W Naomi Ave", "AddressLine2": "Ste L", "Distance": 2.1, "Latitude": 34.12417, "Longitude": -118.05831}, {"Sequence": 14, "PersonId": 198586, "AddressId": 2772374, "Specialty": "Pediatric Dentistry", "Photo": "findadentist.ada.org/Images/Profile/198586-Dr-Toni-Chen.png", "Name": "Dr. Toni Chen", "Email": "INFO@TONICHENDDS.COM", "Phone": "(626) 656-8680", "Address": "8204 Huntington Dr Ste B San Gabriel, CA 91775-1053", "City": "San Gabriel", "State": "CA", "Zip": "91775-1053", "AddressLine1": "8204 Huntington Dr Ste B", "AddressLine2": "", "Distance": 2.3, "Latitude": 34.12654, "Longitude": -118.09059}, {"Sequence": 15, "PersonId": 288670, "AddressId": 2772485, "Specialty": "General Practice", "Photo": "findadentist.ada.org/Images/Profile/288670-Dr-Peter-Wu.png", "Name": "Dr Peter Wu", "Email": "", "Phone": "(626) 446-6618", "Address": "622 W Duarte Rd Ste 201 Arcadia, CA 91007-9271", "City": "Arcadia", "State": "CA", "Zip": "91007-9271", "AddressLine1": "622 W Duarte Rd Ste 201", "AddressLine2": "", "Distance": 2.3, "Latitude": 34.12489, "Longitude": -118.05181}, {"Sequence": 16, "PersonId": 288773, "AddressId": 1629278, "Specialty": "General Practice", "Photo": "findadentist.ada.org/Images/Profile/288773-Dr-Stephen-Dang.png", "Name": "Dr Stephen Dang", "Email": "", "Phone": "(626) 281-1536", "Address": "1315 E Main St Alhambra, CA 91801-4163", "City": "Alhambra", "State": "CA", "Zip": "91801-4163", "AddressLine1": "1315 E Main St", "AddressLine2": "", "Distance": 2.3, "Latitude": 34.10183, "Longitude": -118.1134}, {"Sequence": 17, "PersonId": 289079, "AddressId": 1629584, "Specialty": "Oral and Maxillofacial Surgery", "Photo": "findadentist.ada.org/Images/Profile/289079-Dr-Leonard-Lem.png", "Name": "Dr Leonard Lem", "Email": "leonardlemsc@yahoo.com", "Phone": "(626) 821-9633", "Address": "650 W Duarte Rd Ste 300 Arcadia, CA 91007-7648", "City": "Arcadia", "State": "CA", "Zip": "91007-7648", "AddressLine1": "650 W Duarte Rd Ste 300", "AddressLine2": "", "Distance": 2.3, "Latitude": 34.12604, "Longitude": -118.05359}, {"Sequence": 18, "PersonId": 151073, "AddressId": 1491578, "Specialty": "Periodontics", "Photo": "findadentist.ada.org/Images/Profile/151073-Dr-Donna-Klauser.png", "Name": "Dr. Donna K Klauser", "Email": "DKLAUSER@SBCGLOBAL.NET", "Phone": "(626) 577-8880", "Address": "1215 W Huntington Dr Ste 3 Arcadia, CA 91007-6375", "City": "Arcadia", "State": "CA", "Zip": "91007-6375", "AddressLine1": "1215 W Huntington Dr Ste 3", "AddressLine2": "", "Distance": 2.4, "Latitude": 34.13123, "Longitude": -118.06795}, {"Sequence": 19, "PersonId": 224077, "AddressId": 1564582, "Specialty": "Pediatric Dentistry", "Photo": "findadentist.ada.org/Images/Profile/224077-Dr-Stephanie-Morphis.png", "Name": "Dr. Stephanie L Morphis", "Email": "", "Phone": null, "Address": "1235 W Huntington Dr Ste A Arcadia, CA 91007-6382", "City": "Arcadia", "State": "CA", "Zip": "91007-6382", "AddressLine1": "1235 W Huntington Dr Ste A", "AddressLine2": "", "Distance": 2.4, "Latitude": 34.13115, "Longitude": -118.06833}, {"Sequence": 20, "PersonId": 248854, "AddressId": 3519845, "Specialty": "General Practice", "Photo": "findadentist.ada.org/Images/Profile/248854-Dr-Hui-Yang.png", "Name": "Dr. Hui Yang", "Email": "yangdental.arcadia@gmail.com", "Phone": "(626) 446-3101", "Address": "623 W Duarte Rd Ste 3 Arcadia, CA 91007-7346", "City": "Arcadia", "State": "CA", "Zip": "91007-7346", "AddressLine1": "623 W Duarte Rd Ste 3", "AddressLine2": "", "Distance": 2.4, "Latitude": 34.12692, "Longitude": -118.05236}, {"Sequence": 21, "PersonId": 288665, "AddressId": 1629170, "Specialty": "Orthodontics and Dentofacial Orthopedics", "Photo": "findadentist.ada.org/Images/Profile/288665-Dr-Tina-Siu.png", "Name": "Dr Tina Siu", "Email": "frontdesk@tmsmile.com", "Phone": "(626) 796-0615", "Address": "2595 Huntington Dr San Marino, CA 91108-2235", "City": "San Marino", "State": "CA", "Zip": "91108-2235", "AddressLine1": "2595 Huntington Dr", "AddressLine2": "", "Distance": 2.4, "Latitude": 34.12444, "Longitude": -118.10013}, {"Sequence": 22, "PersonId": 288692, "AddressId": 1629197, "Specialty": "Pediatric Dentistry", "Photo": "findadentist.ada.org/Images/Profile/288692-Dr-Kevin-Snaer.png", "Name": "Dr Kevin J Snaer", "Email": "", "Phone": "(818) 499-8963", "Address": "1235 W Huntington Dr Ste A Arcadia, CA 91007-6382", "City": "Arcadia", "State": "CA", "Zip": "91007-6382", "AddressLine1": "1235 W Huntington Dr Ste A", "AddressLine2": "", "Distance": 2.4, "Latitude": 34.13115, "Longitude": -118.06833}, {"Sequence": 23, "PersonId": 288698, "AddressId": 1629203, "Specialty": "General Practice", "Photo": "findadentist.ada.org/Images/Profile/288698-Dr-Brian-Snaer.png", "Name": "Dr Brian W Snaer", "Email": "briansnaerdds@gmail.com", "Phone": "(626) 449-6047", "Address": "1235 W Huntington Dr Ste B Arcadia, CA 91007-6378", "City": "Arcadia", "State": "CA", "Zip": "91007-6378", "AddressLine1": "1235 W Huntington Dr Ste B", "AddressLine2": null, "Distance": 2.4, "Latitude": 34.13115, "Longitude": -118.06833}, {"Sequence": 24, "PersonId": 287745, "AddressId": 2675541, "Specialty": "Oral and Maxillofacial Surgery", "Photo": "findadentist.ada.org/Images/Profile/287745-Dr-Peter-Lam.png", "Name": "Dr Peter S Lam", "Email": "info@peterlamdds.com", "Phone": "(626) 486-0700", "Address": "2453 Huntington Dr San Marino, CA 91108-2644", "City": "San Marino", "State": "CA", "Zip": "91108-2644", "AddressLine1": "2453 Huntington Dr", "AddressLine2": "", "Distance": 2.5, "Latitude": 34.1236, "Longitude": -118.10235}, {"Sequence": 25, "PersonId": 201002, "AddressId": 3477785, "Specialty": "Periodontics", "Photo": "findadentist.ada.org/Images/Profile/201002-Dr-Bertina-Yuen.png", "Name": "Dr. Bertina C Yuen", "Email": "smile@santaanitadentalgroup.com", "Phone": "(626) 574-1766", "Address": "721 W Huntington Dr Ste B Arcadia, CA 91007-6734", "City": "Arcadia", "State": "CA", "Zip": "91007-6734", "AddressLine1": "721 W Huntington Dr Ste B", "AddressLine2": "", "Distance": 2.6, "Latitude": 34.13203, "Longitude": -118.05566}, {"Sequence": 26, "PersonId": 201002, "AddressId": 3477785, "Specialty": "Periodontics", "Photo": "findadentist.ada.org/Images/Profile/201002-Dr-Bertina-Yuen.png", "Name": "Dr. Bertina C Yuen", "Email": "smile@santaanitadentalgroup.com", "Phone": "(626) 351-0195", "Address": "721 W Huntington Dr Ste B Arcadia, CA 91007-6734", "City": "Arcadia", "State": "CA", "Zip": "91007-6734", "AddressLine1": "721 W Huntington Dr Ste B", "AddressLine2": "", "Distance": 2.6, "Latitude": 34.13203, "Longitude": -118.05566}, {"Sequence": 27, "PersonId": 259123, "AddressId": 2713729, "Specialty": "General Practice", "Photo": "findadentist.ada.org/Images/Profile/259123-Dr-Mercedes-Arroyo.png", "Name": "Dr. Mercedes Arroyo", "Email": "INFO@PATRICIAARROYODDS.COM", "Phone": "(626) 279-6258", "Address": "9814 Garvey Ave Ste 9 El Monte, CA 91733-4704", "City": "El Monte", "State": "CA", "Zip": "91733-4704", "AddressLine1": "9814 Garvey Ave Ste 9", "AddressLine2": "", "Distance": 2.6, "Latitude": 34.06221, "Longitude": -118.0549}, {"Sequence": 28, "PersonId": 280245, "AddressId": 2708500, "Specialty": "General Practice", "Photo": "findadentist.ada.org/Images/Profile/280245-Dr-Min-Lwin.png", "Name": "Dr Min Lwin", "Email": "", "Phone": "(626) 571-7000", "Address": "8115 Garvey Ave Rosemead, CA 91770-2422", "City": "Rosemead", "State": "CA", "Zip": "91770-2422", "AddressLine1": "8115 Garvey Ave", "AddressLine2": "", "Distance": 2.6, "Latitude": 34.0627, "Longitude": -118.09176}, {"Sequence": 29, "PersonId": 289134, "AddressId": 1629639, "Specialty": "General Practice", "Photo": "findadentist.ada.org/Images/Profile/289134-Dr-Roger-Anderson.png", "Name": "Dr Roger W Anderson", "Email": "sm@rwandersondds.com", "Phone": "(626) 796-6371", "Address": "1477 San Marino Ave Ste 1 San Marino, CA 91108-2053", "City": "San Marino", "State": "CA", "Zip": "91108-2053", "AddressLine1": "1477 San Marino Ave Ste 1", "AddressLine2": "", "Distance": 2.6, "Latitude": 34.12214, "Longitude": -118.10712}, {"Sequence": 30, "PersonId": 217933, "AddressId": 3477794, "Specialty": "Endodontics", "Photo": "findadentist.ada.org/Images/Profile/217933-Dr-Michael-Vongphoe.png", "Name": "Dr. Michael O Vongphoe", "Email": "smile@santaanitadentalgroup.com", "Phone": "(626) 574-1766", "Address": "721 W Huntington Dr Ste B Arcadia, CA 91007-6734", "City": "Arcadia", "State": "CA", "Zip": "91007-6734", "AddressLine1": "721 W Huntington Dr Ste B", "AddressLine2": "", "Distance": 2.7, "Latitude": 34.13203, "Longitude": -118.05565}, {"Sequence": 31, "PersonId": 150956, "AddressId": 3477779, "Specialty": "General Practice", "Photo": "findadentist.ada.org/Images/Profile/150956-Dr-Dean-Wright.png", "Name": "Dr. Dean A Wright", "Email": "smile@santaanitadentalgroup.com", "Phone": "(626) 574-1766", "Address": "721 W Huntington Dr Ste B Arcadia, CA 91007-6734", "City": "Arcadia", "State": "CA", "Zip": "91007-6734", "AddressLine1": "721 W Huntington Dr Ste B", "AddressLine2": "", "Distance": 2.7, "Latitude": 34.13203, "Longitude": -118.05565}, {"Sequence": 32, "PersonId": 150899, "AddressId": 2770381, "Specialty": "Orthodontics and Dentofacial Orthopedics", "Photo": "findadentist.ada.org/Images/Profile/150899-Dr-Lili-Mirtorabi.png", "Name": "Dr. Lili Mirtorabi", "Email": "", "Phone": null, "Address": "11008 Valley Mall Unit 203 El Monte, CA 91731-2645", "City": "El Monte", "State": "CA", "Zip": "91731-2645", "AddressLine1": "11008 Valley Mall Unit 203", "AddressLine2": "", "Distance": 2.7, "Latitude": 34.07353, "Longitude": -118.03504}, {"Sequence": 33, "PersonId": 259984, "AddressId": 3421610, "Specialty": "Orthodontics and Dentofacial Orthopedics", "Photo": "findadentist.ada.org/Images/Profile/259984-Dr-Bethany-Chong.png", "Name": "Dr. Bethany A Chong", "Email": "em@drlilyorthodontics.com", "Phone": "(626) 279-9992", "Address": "11008 Valley Mall Unit 203 El Monte, CA 91731-2645", "City": "El Monte", "State": "CA", "Zip": "91731-2645", "AddressLine1": "11008 Valley Mall Unit 203", "AddressLine2": "", "Distance": 2.7, "Latitude": 34.07353, "Longitude": -118.03504}, {"Sequence": 34, "PersonId": 127950, "AddressId": 1468455, "Specialty": "General Practice", "Photo": "findadentist.ada.org/Images/Profile/127950-Dr-Kyaw-Mg.png", "Name": "Dr. Kyaw K Mg", "Email": "MG.DENTISTRY@GMAIL.COM", "Phone": "(626) 575-1191", "Address": "11004 Lower Azusa Rd El Monte, CA 91731-1440", "City": "El Monte", "State": "CA", "Zip": "91731-1440", "AddressLine1": "11004 Lower Azusa Rd", "AddressLine2": "", "Distance": 2.8, "Latitude": 34.09138, "Longitude": -118.02591}, {"Sequence": 35, "PersonId": 198702, "AddressId": 2674552, "Specialty": "General Practice", "Photo": "findadentist.ada.org/Images/Profile/198702-Dr-Christopher-Nguyen.png", "Name": "Dr. Christopher D Nguyen", "Email": "nicesmilesdental@yahoo.com", "Phone": "(626) 575-8592", "Address": "3131 Santa Anita Ave El Monte, CA 91733-1369", "City": "El Monte", "State": "CA", "Zip": "91733-1369", "AddressLine1": "3131 Santa Anita Ave", "AddressLine2": "", "Distance": 2.8, "Latitude": 34.065, "Longitude": -118.0431}, {"Sequence": 36, "PersonId": 213538, "AddressId": 2772381, "Specialty": "General Practice", "Photo": "findadentist.ada.org/Images/Profile/213538-Dr-Lata-Beri.png", "Name": "Dr. Lata G Beri", "Email": "", "Phone": "(626) 442-5678", "Address": "10496 Garvey Ave El Monte, CA 91733-2265", "City": "El Monte", "State": "CA", "Zip": "91733-2265", "AddressLine1": "10496 Garvey Ave", "AddressLine2": "", "Distance": 2.9, "Latitude": 34.0627, "Longitude": -118.04339}, {"Sequence": 37, "PersonId": 196068, "AddressId": 3393016, "Specialty": "General Practice", "Photo": "findadentist.ada.org/Images/Profile/196068-Dr-Robert-Cai.png", "Name": "Dr. Robert X Cai", "Email": "choicedentalct@yahoo.com", "Phone": "(626) 284-0908", "Address": "911 South Garfield Ave Alhambra, CA 91801", "City": "Alhambra", "State": "CA", "Zip": "91801", "AddressLine1": "911 South Garfield Ave", "AddressLine2": "", "Distance": 2.9, "Latitude": 34.08559, "Longitude": -118.12333}, {"Sequence": 38, "PersonId": 119250, "AddressId": 2772601, "Specialty": "General Practice", "Photo": "findadentist.ada.org/Images/Profile/119250-Dr-Marc-Shishima.png", "Name": "Dr. Marc H Shishima", "Email": "", "Phone": "(626) 289-1148", "Address": "330 S Garfield Ave Ste 216 Alhambra, CA 91801-3896", "City": "Alhambra", "State": "CA", "Zip": "91801-3896", "AddressLine1": "330 S Garfield Ave Ste 216", "AddressLine2": "", "Distance": 2.9, "Latitude": 34.0914, "Longitude": -118.12393}, {"Sequence": 39, "PersonId": 288792, "AddressId": 1629297, "Specialty": "General Practice", "Photo": "findadentist.ada.org/Images/Profile/288792-Dr-Steven-Bergara.png", "Name": "Dr Steven R Bergara", "Email": "drbergara@msn.com", "Phone": "(626) 289-1148", "Address": "330 S Garfield Ave Ste 216 Alhambra, CA 91801-3896", "City": "Alhambra", "State": "CA", "Zip": "91801-3896", "AddressLine1": "330 S Garfield Ave Ste 216", "AddressLine2": "", "Distance": 2.9, "Latitude": 34.0914, "Longitude": -118.12393}, {"Sequence": 40, "PersonId": 132975, "AddressId": 2679085, "Specialty": "General Practice", "Photo": "findadentist.ada.org/Images/Profile/132975-Dr-Jimmy-Slamat.png", "Name": "Dr. Jimmy S Slamat", "Email": "dentalartsdds@gmail.com", "Phone": "(626) 307-0279", "Address": "2421 San Gabriel Blvd Rosemead, CA 91770-3653", "City": "Rosemead", "State": "CA", "Zip": "91770-3653", "AddressLine1": "2421 San Gabriel Blvd", "AddressLine2": "", "Distance": 3.0, "Latitude": 34.05594, "Longitude": -118.09097}, {"Sequence": 41, "PersonId": 266218, "AddressId": 3585198, "Specialty": "Orthodontics and Dentofacial Orthopedics", "Photo": "findadentist.ada.org/Images/Profile/266218-Dr-Casey-Luu.png", "Name": "Dr. Casey A Luu", "Email": "orthoappointment@roseman.edu", "Phone": "(626) 590-6750", "Address": "1101 E Garvey Ave Ste 106 San Marino, CA 91108", "City": "San Marino", "State": "CA", "Zip": "91108", "AddressLine1": "1101 E Garvey Ave Ste 106", "AddressLine2": "", "Distance": 3.0, "Latitude": 34.06293, "Longitude": -118.10792}, {"Sequence": 42, "PersonId": 280457, "AddressId": 2711745, "Specialty": "Periodontics", "Photo": "findadentist.ada.org/Images/Profile/280457-Dr-Miles-Madison.png", "Name": "Dr Miles Madison", "Email": "beverlyhillsperio@gmail.com", "Phone": "(626) 444-2605", "Address": "2732 Santa Anita Ave El Monte, CA 91733-2262", "City": "El Monte", "State": "CA", "Zip": "91733-2262", "AddressLine1": "2732 Santa Anita Ave", "AddressLine2": "", "Distance": 3.0, "Latitude": 34.06197, "Longitude": -118.04216}, {"Sequence": 43, "PersonId": 219494, "AddressId": 1559999, "Specialty": "General Practice", "Photo": "findadentist.ada.org/Images/Profile/219494-Dr-Biyan-Yang.png", "Name": "Dr. Biyan Yang", "Email": "bydentaloffice@gmail.com", "Phone": "(626) 576-8100", "Address": "1234 S Garfield Ave Ste 101 Alhambra, CA 91801-5068", "City": "Alhambra", "State": "CA", "Zip": "91801-5068", "AddressLine1": "1234 S Garfield Ave Ste 101", "AddressLine2": "", "Distance": 3.1, "Latitude": 34.07947, "Longitude": -118.12269}, {"Sequence": 44, "PersonId": 288922, "AddressId": 3427178, "Specialty": "General Practice", "Photo": "findadentist.ada.org/Images/Profile/288922-Dr-Dat-Minh-Do.png", "Name": "Dr Dat-Minh Do", "Email": "dodentistry@gmail.com", "Phone": "(626) 639-3309", "Address": "255 S. ROSEMEAD BLVD. PASADENA, CA 91107", "City": "PASADENA", "State": "CA", "Zip": "91107", "AddressLine1": "255 S. ROSEMEAD BLVD.", "AddressLine2": "", "Distance": 3.1, "Latitude": 34.14193, "Longitude": -118.07356}, {"Sequence": 45, "PersonId": 188157, "AddressId": 1528662, "Specialty": "Endodontics", "Photo": "findadentist.ada.org/Images/Profile/188157-Dr-Jung-Lim.png", "Name": "Dr. Jung Lim", "Email": "ARCADIAIVY@GMAIL.COM", "Phone": "(626) 445-8530", "Address": "301 W Huntington Dr Ste 520 Arcadia, CA 91007-1513", "City": "Arcadia", "State": "CA", "Zip": "91007-1513", "AddressLine1": "301 W Huntington Dr Ste 520", "AddressLine2": "", "Distance": 3.2, "Latitude": 34.13496, "Longitude": -118.04306}, {"Sequence": 46, "PersonId": 247419, "AddressId": 2828187, "Specialty": "General Practice", "Photo": "findadentist.ada.org/Images/Profile/247419-Dr-Stephanie-Lee.png", "Name": "Dr. Stephanie P Lee", "Email": "info@peteryoungdds.com", "Phone": "(626) 445-2536", "Address": "301 W Huntington Dr Ste 217 Arcadia, CA 91007-1529", "City": "Arcadia", "State": "CA", "Zip": "91007-1529", "AddressLine1": "301 W Huntington Dr Ste 217", "AddressLine2": "", "Distance": 3.2, "Latitude": 34.13496, "Longitude": -118.04306}, {"Sequence": 47, "PersonId": 267818, "AddressId": 3154152, "Specialty": "General Practice", "Photo": "findadentist.ada.org/Images/Profile/267818-Dr-Jimmy-Lau.png", "Name": "Dr. Jimmy Lau", "Email": "", "Phone": "(626) 348-9433", "Address": "914 E Garvey Ave Monterey Park, CA 91755-3044", "City": "Monterey Park", "State": "CA", "Zip": "91755-3044", "AddressLine1": "914 E Garvey Ave", "AddressLine2": "", "Distance": 3.2, "Latitude": 34.06229, "Longitude": -118.11021}, {"Sequence": 48, "PersonId": 289064, "AddressId": 1629569, "Specialty": "Periodontics", "Photo": "findadentist.ada.org/Images/Profile/289064-Dr-Joseph-Fuentes.png", "Name": "Dr Joseph P Fuentes", "Email": "info@arcadiaperio.com", "Phone": "(626) 447-0945", "Address": "301 W Huntington Dr Ste 507 Arcadia, CA 91007-1520", "City": "Arcadia", "State": "CA", "Zip": "91007-1520", "AddressLine1": "301 W Huntington Dr Ste 507", "AddressLine2": null, "Distance": 3.2, "Latitude": 34.13496, "Longitude": -118.04306}, {"Sequence": 49, "PersonId": 289144, "AddressId": 1629649, "Specialty": "General Practice", "Photo": "findadentist.ada.org/Images/Profile/289144-Dr-Eugh-Shibasaki.png", "Name": "Dr. Eugh Shibasaki, Jr.", "Email": "eughdds@sbcglobal.net", "Phone": "(626) 446-3023", "Address": "301 W Huntington Dr Ste 509 Arcadia, CA 91007-1510", "City": "Arcadia", "State": "CA", "Zip": "91007-1510", "AddressLine1": "301 W Huntington Dr Ste 509", "AddressLine2": "", "Distance": 3.2, "Latitude": 34.13491, "Longitude": -118.04311}, {"Sequence": 50, "PersonId": 225113, "AddressId": 2771162, "Specialty": "General Practice", "Photo": "findadentist.ada.org/Images/Profile/225113-Dr-Chunyi-Yin.png", "Name": "Dr. Chunyi Yin", "Email": "YINDENT@GMAIL.COM", "Phone": "(626) 288-0208", "Address": "616 N Garfield Ave Ste 102 Monterey Park, CA 91754-1153", "City": "Monterey Park", "State": "CA", "Zip": "91754-1153", "AddressLine1": "616 N Garfield Ave Ste 102", "AddressLine2": "", "Distance": 3.4, "Latitude": 34.06917, "Longitude": -118.1227}, {"Sequence": 51, "PersonId": 194018, "AddressId": 3474241, "Specialty": "General Practice", "Photo": "findadentist.ada.org/Images/Profile/194018-Dr-Johnny-Liu.png", "Name": "Dr. Johnny S Liu", "Email": "garfielddentalgroup@yahoo.com", "Phone": "(626) 288-1688", "Address": "328 N Garfield Ave Ste A&B Monterey Park, CA 91754-1708", "City": "Monterey Park", "State": "CA", "Zip": "91754-1708", "AddressLine1": "328 N Garfield Ave Ste A&B", "AddressLine2": "", "Distance": 3.5, "Latitude": 34.06597, "Longitude": -118.12254}, {"Sequence": 52, "PersonId": 193996, "AddressId": 2737209, "Specialty": "General Practice", "Photo": "findadentist.ada.org/Images/Profile/193996-Dr-Kevin-Kang.png", "Name": "Dr. Kevin C Kang", "Email": "garfielddentalgroup@yahoo.com", "Phone": "(626) 288-1688", "Address": "328 N Garfield Ave Ste A&B Monterey Park, CA 91754-1708", "City": "Monterey Park", "State": "CA", "Zip": "91754-1708", "AddressLine1": "328 N Garfield Ave Ste A&B", "AddressLine2": "", "Distance": 3.5, "Latitude": 34.06597, "Longitude": -118.12254}, {"Sequence": 53, "PersonId": 188434, "AddressId": 3474260, "Specialty": "Oral and Maxillofacial Surgery", "Photo": "findadentist.ada.org/Images/Profile/188434-Dr-Ian-Woo.png", "Name": "Dr. Ian Woo", "Email": "garfielddentalgroup@yahoo.com", "Phone": "(626) 288-1688", "Address": "328 N Garfield Ave Ste A&B Monterey Park, CA 91754-1708", "City": "Monterey Park", "State": "CA", "Zip": "91754-1708", "AddressLine1": "328 N Garfield Ave Ste A&B", "AddressLine2": "", "Distance": 3.5, "Latitude": 34.06597, "Longitude": -118.1226}, {"Sequence": 54, "PersonId": 249722, "AddressId": 3474270, "Specialty": "General Practice", "Photo": "findadentist.ada.org/Images/Profile/249722-Dr-Lisa-Hou.png", "Name": "Dr. Lisa A Hou", "Email": "garfielddentalgroup@yahoo.com", "Phone": "(626) 288-1688", "Address": "328 N Garfield Ave Ste A&B Monterey Park, CA 91754-1708", "City": "Monterey Park", "State": "CA", "Zip": "91754-1708", "AddressLine1": "328 N Garfield Ave Ste A&B", "AddressLine2": "", "Distance": 3.5, "Latitude": 34.06597, "Longitude": -118.12254}, {"Sequence": 55, "PersonId": 289092, "AddressId": 1629597, "Specialty": "General Practice", "Photo": "findadentist.ada.org/Images/Profile/289092-Dr-Sylvia-Beeman.png", "Name": "Dr Sylvia Beeman", "Email": "sylviabeeman@gmail.com", "Phone": "(626) 795-4251", "Address": "3858 E Colorado Blvd Pasadena, CA 91107-3940", "City": "Pasadena", "State": "CA", "Zip": "91107-3940", "AddressLine1": "3858 E Colorado Blvd", "AddressLine2": "", "Distance": 3.5, "Latitude": 34.14718, "Longitude": -118.06879}, {"Sequence": 56, "PersonId": 201002, "AddressId": 3560846, "Specialty": "Periodontics", "Photo": "findadentist.ada.org/Images/Profile/201002-Dr-Bertina-Yuen.png", "Name": "Dr. Bertina C Yuen", "Email": "smile@santaanitadentalgroup.com", "Phone": "(626) 574-1766", "Address": "255 N Rosemead Blvd Pasadena, CA 91107", "City": "Pasadena", "State": "CA", "Zip": "91107", "AddressLine1": "255 N Rosemead Blvd", "AddressLine2": "", "Distance": 3.8, "Latitude": 34.15109, "Longitude": -118.07398}, {"Sequence": 57, "PersonId": 201002, "AddressId": 3560846, "Specialty": "Periodontics", "Photo": "findadentist.ada.org/Images/Profile/201002-Dr-Bertina-Yuen.png", "Name": "Dr. Bertina C Yuen", "Email": "smile@santaanitadentalgroup.com", "Phone": "(626) 351-0195", "Address": "255 N Rosemead Blvd Pasadena, CA 91107", "City": "Pasadena", "State": "CA", "Zip": "91107", "AddressLine1": "255 N Rosemead Blvd", "AddressLine2": "", "Distance": 3.8, "Latitude": 34.15109, "Longitude": -118.07398}, {"Sequence": 58, "PersonId": 133041, "AddressId": 1473546, "Specialty": "General Practice", "Photo": "findadentist.ada.org/Images/Profile/133041-Dr-Farzaneh-Yassamy.png", "Name": "Dr. Farzaneh S Yassamy", "Email": "fary@faryyassamydds.com", "Phone": "(626) 441-2231", "Address": "825 Huntington Drive San Marino, CA 91108-1824", "City": "San Marino", "State": "CA", "Zip": "91108-1824", "AddressLine1": "825 Huntington Drive", "AddressLine2": "", "Distance": 3.8, "Latitude": 34.11889, "Longitude": -118.13403}, {"Sequence": 59, "PersonId": 188010, "AddressId": 3560849, "Specialty": "Endodontics", "Photo": "findadentist.ada.org/Images/Profile/188010-Dr-Raymond-Grigorian.png", "Name": "Dr. Raymond Grigorian", "Email": "", "Phone": "(661) 288-0288", "Address": "255 N Rosemead Blvd Pasadena, CA 91107", "City": "Pasadena", "State": "CA", "Zip": "91107", "AddressLine1": "255 N Rosemead Blvd", "AddressLine2": "", "Distance": 3.8, "Latitude": 34.15109, "Longitude": -118.07398}, {"Sequence": 60, "PersonId": 188010, "AddressId": 3560849, "Specialty": "Endodontics", "Photo": "findadentist.ada.org/Images/Profile/188010-Dr-Raymond-Grigorian.png", "Name": "Dr. Raymond Grigorian", "Email": "", "Phone": "(626) 351-0195", "Address": "255 N Rosemead Blvd Pasadena, CA 91107", "City": "Pasadena", "State": "CA", "Zip": "91107", "AddressLine1": "255 N Rosemead Blvd", "AddressLine2": "", "Distance": 3.8, "Latitude": 34.15109, "Longitude": -118.07398}, {"Sequence": 61, "PersonId": 187451, "AddressId": 1527956, "Specialty": "General Practice", "Photo": "findadentist.ada.org/Images/Profile/187451-Dr-Hong-Kim.png", "Name": "Dr. Hong K Kim", "Email": "", "Phone": "(626) 584-7017", "Address": "2379 E Colorado Blvd Pasadena, CA 91107-4263", "City": "Pasadena", "State": "CA", "Zip": "91107-4263", "AddressLine1": "2379 E Colorado Blvd", "AddressLine2": "", "Distance": 3.8, "Latitude": 34.14614, "Longitude": -118.10086}, {"Sequence": 62, "PersonId": 187325, "AddressId": 3560843, "Specialty": "Orthodontics and Dentofacial Orthopedics", "Photo": "findadentist.ada.org/Images/Profile/187325-Dr-Sunny-Hutchinson.png", "Name": "Dr. Sunny L Hutchinson", "Email": "smile@valenciadentalcrossroads.com", "Phone": "(661) 288-0288", "Address": "255 N Rosemead Blvd Pasadena, CA 91107", "City": "Pasadena", "State": "CA", "Zip": "91107", "AddressLine1": "255 N Rosemead Blvd", "AddressLine2": "", "Distance": 3.8, "Latitude": 34.15109, "Longitude": -118.07398}, {"Sequence": 63, "PersonId": 187325, "AddressId": 3560843, "Specialty": "Orthodontics and Dentofacial Orthopedics", "Photo": "findadentist.ada.org/Images/Profile/187325-Dr-Sunny-Hutchinson.png", "Name": "Dr. Sunny L Hutchinson", "Email": "smile@valenciadentalcrossroads.com", "Phone": "(626) 351-0195", "Address": "255 N Rosemead Blvd Pasadena, CA 91107", "City": "Pasadena", "State": "CA", "Zip": "91107", "AddressLine1": "255 N Rosemead Blvd", "AddressLine2": "", "Distance": 3.8, "Latitude": 34.15109, "Longitude": -118.07398}, {"Sequence": 64, "PersonId": 239776, "AddressId": 3560830, "Specialty": "General Practice", "Photo": "findadentist.ada.org/Images/Profile/239776-Dr-Ezra-Solaiman Tehrani.png", "Name": "Dr. Ezra Solaiman Tehrani", "Email": "", "Phone": "(626) 351-0195", "Address": "255 N Rosemead Blvd Pasadena, CA 91107", "City": "Pasadena", "State": "CA", "Zip": "91107", "AddressLine1": "255 N Rosemead Blvd", "AddressLine2": "", "Distance": 3.8, "Latitude": 34.15109, "Longitude": -118.07398}, {"Sequence": 65, "PersonId": 254238, "AddressId": 3560844, "Specialty": "Periodontics", "Photo": "findadentist.ada.org/Images/Profile/254238-Dr-Vahe-Nakashyan.png", "Name": "Dr. Vahe Nakashyan", "Email": "", "Phone": "(626) 351-0195", "Address": "255 N Rosemead Blvd Pasadena, CA 91107", "City": "Pasadena", "State": "CA", "Zip": "91107", "AddressLine1": "255 N Rosemead Blvd", "AddressLine2": "", "Distance": 3.8, "Latitude": 34.15109, "Longitude": -118.07398}, {"Sequence": 66, "PersonId": 271340, "AddressId": 3526055, "Specialty": "General Practice", "Photo": "findadentist.ada.org/Images/Profile/271340-Dr-Jessica-Sung.png", "Name": "Dr. Jessica T Sung", "Email": "sungj@pacificdentalservices.com", "Phone": "(626) 351-0195", "Address": "255 N Rosemead Blvd Pasadena, CA 91107-3102", "City": "Pasadena", "State": "CA", "Zip": "91107-3102", "AddressLine1": "255 N Rosemead Blvd", "AddressLine2": "", "Distance": 3.8, "Latitude": 34.15109, "Longitude": -118.07398}, {"Sequence": 67, "PersonId": 288602, "AddressId": 2767651, "Specialty": "General Practice", "Photo": "findadentist.ada.org/Images/Profile/288602-Dr-Jess-Saenz.png", "Name": "Dr Jess Saenz", "Email": "", "Phone": "(626) 446-8264", "Address": "221 S First Ave Arcadia, CA 91006-3608", "City": "Arcadia", "State": "CA", "Zip": "91006-3608", "AddressLine1": "221 S First Ave", "AddressLine2": "", "Distance": 3.8, "Latitude": 34.13722, "Longitude": -118.02865}, {"Sequence": 68, "PersonId": 289122, "AddressId": 1629627, "Specialty": "General Practice", "Photo": "findadentist.ada.org/Images/Profile/289122-Dr-Peter-Kam.png", "Name": "Dr Peter M Kam", "Email": "", "Phone": "(626) 571-0283", "Address": "230 S Garfield Ave Ste 103 Monterey Park, CA 91754-2992", "City": "Monterey Park", "State": "CA", "Zip": "91754-2992", "AddressLine1": "230 S Garfield Ave Ste 103", "AddressLine2": null, "Distance": 3.8, "Latitude": 34.06041, "Longitude": -118.12249}, {"Sequence": 69, "PersonId": 280303, "AddressId": 1620808, "Specialty": "General Practice", "Photo": "findadentist.ada.org/Images/Profile/280303-Dr-Michelle-Kim.png", "Name": "Dr Michelle K Kim", "Email": "kandolee@sbcglobal.net", "Phone": "(626) 449-3367", "Address": "2245 E Colorado Blvd Ste 201 Pasadena, CA 91107-3651", "City": "Pasadena", "State": "CA", "Zip": "91107-3651", "AddressLine1": "2245 E Colorado Blvd Ste 201", "AddressLine2": "", "Distance": 3.9, "Latitude": 34.14666, "Longitude": -118.10371}, {"Sequence": 70, "PersonId": 289072, "AddressId": 1629577, "Specialty": "General Practice", "Photo": "findadentist.ada.org/Images/Profile/289072-Dr-Hanfu-Lee.png", "Name": "Dr Hanfu Lee", "Email": "arcadiaSmile@gmail.com", "Phone": "(626) 447 -0888", "Address": "29 E Huntington Dr Ste A Arcadia, CA 91006-3210", "City": "Arcadia", "State": "CA", "Zip": "91006-3210", "AddressLine1": "29 E Huntington Dr Ste A", "AddressLine2": "", "Distance": 3.9, "Latitude": 34.14045, "Longitude": -118.03003}, {"Sequence": 71, "PersonId": 187417, "AddressId": 3295543, "Specialty": "General Practice", "Photo": "findadentist.ada.org/Images/Profile/187417-Dr-Jennifer-Chen.png", "Name": "Dr. Jennifer N Chen", "Email": "", "Phone": "(310) 645-5705", "Address": "1941 Huntington Dr Ste H South Pasadena, CA 91030-4995", "City": "South Pasadena", "State": "CA", "Zip": "91030-4995", "AddressLine1": "1941 Huntington Dr Ste H", "AddressLine2": "", "Distance": 4.0, "Latitude": 34.10388, "Longitude": -118.14221}, {"Sequence": 72, "PersonId": 162526, "AddressId": 1503031, "Specialty": "General Practice", "Photo": "findadentist.ada.org/Images/Profile/162526-Dr-Bing-Zhong-Fang.png", "Name": "Dr. Bing-Zhong Fang", "Email": "", "Phone": "(626) 254-9066", "Address": "65 N 1st Ave Ste 203 Arcadia, CA 91006-3256", "City": "Arcadia", "State": "CA", "Zip": "91006-3256", "AddressLine1": "65 N 1st Ave Ste 203", "AddressLine2": "", "Distance": 4.0, "Latitude": 34.14082, "Longitude": -118.02902}, {"Sequence": 73, "PersonId": 149496, "AddressId": 1490001, "Specialty": "Pediatric Dentistry", "Photo": "findadentist.ada.org/Images/Profile/149496-Dr-Tony-Hwang.png", "Name": "Dr. Tony Hwang", "Email": "DRTONYHWANG@YAHOO.COM", "Phone": "(626) 308-1807", "Address": "1941 Huntington Dr Ste A South Pasadena, CA 91030-4990", "City": "South Pasadena", "State": "CA", "Zip": "91030-4990", "AddressLine1": "1941 Huntington Dr Ste A", "AddressLine2": "", "Distance": 4.0, "Latitude": 34.10388, "Longitude": -118.14221}, {"Sequence": 74, "PersonId": 140454, "AddressId": 1480959, "Specialty": "General Practice", "Photo": "findadentist.ada.org/Images/Profile/140454-Dr-Oksana-Boyechko.png", "Name": "Dr. Oksana Boyechko", "Email": "", "Phone": "(626) 351-8444", "Address": "482 N Rosemead Blvd Ste 201 Pasadena, CA 91107-3053", "City": "Pasadena", "State": "CA", "Zip": "91107-3053", "AddressLine1": "482 N Rosemead Blvd Ste 201", "AddressLine2": "", "Distance": 4.0, "Latitude": 34.15472, "Longitude": -118.07797}, {"Sequence": 75, "PersonId": 288577, "AddressId": 1629082, "Specialty": "General Practice", "Photo": "findadentist.ada.org/Images/Profile/288577-Dr-Kent-Wilson.png", "Name": "Dr Kent Wilson", "Email": "KwilsonDDS@Att.net", "Phone": "(626) 441-1167", "Address": "1941 Huntington Dr Ste B S Pasadena, CA 91030-4993", "City": "S Pasadena", "State": "CA", "Zip": "91030-4993", "AddressLine1": "1941 Huntington Dr Ste B", "AddressLine2": null, "Distance": 4.0, "Latitude": 34.10388, "Longitude": -118.14221}, {"Sequence": 76, "PersonId": 288670, "AddressId": 2817395, "Specialty": "General Practice", "Photo": "findadentist.ada.org/Images/Profile/288670-Dr-Peter-Wu.png", "Name": "Dr Peter Wu", "Email": "", "Phone": "(626) 799-4187", "Address": "1941 Huntington Dr Ste D South Pasadena, CA 91030-5601", "City": "South Pasadena", "State": "CA", "Zip": "91030-5601", "AddressLine1": "1941 Huntington Dr Ste D", "AddressLine2": "", "Distance": 4.0, "Latitude": 34.10388, "Longitude": -118.14221}, {"Sequence": 77, "PersonId": 288922, "AddressId": 1629427, "Specialty": "General Practice", "Photo": "findadentist.ada.org/Images/Profile/288922-Dr-Dat-Minh-Do.png", "Name": "Dr Dat-Minh Do", "Email": "dodentistry@gmail.com", "Phone": "(626) 576-5933", "Address": "516 W Garvey Ave Monterey Park, CA 91754-2704", "City": "Monterey Park", "State": "CA", "Zip": "91754-2704", "AddressLine1": "516 W Garvey Ave", "AddressLine2": "", "Distance": 4.0, "Latitude": 34.06227, "Longitude": -118.12954}, {"Sequence": 78, "PersonId": 134345, "AddressId": 2951415, "Specialty": "General Practice", "Photo": "findadentist.ada.org/Images/Profile/134345-Dr-Hala-Al-Tarifi.png", "Name": "Dr. Hala Al-Tarifi", "Email": "hala@halaaltarifidds.com", "Phone": "(626) 799-2990", "Address": "1730 Huntington Dr Ste 102 S Pasadena, CA 91030-4880", "City": "S Pasadena", "State": "CA", "Zip": "91030-4880", "AddressLine1": "1730 Huntington Dr Ste 102", "AddressLine2": "", "Distance": 4.1, "Latitude": 34.10449, "Longitude": -118.14519}, {"Sequence": 79, "PersonId": 194734, "AddressId": 3537897, "Specialty": "General Practice", "Photo": "findadentist.ada.org/Images/Profile/194734-Dr-Rita-Lui.png", "Name": "Dr. Rita Lui", "Email": "", "Phone": "(626) 247-8365", "Address": "440 E Huntington Dr Suite 101 Arcadia, CA 91006", "City": "Arcadia", "State": "CA", "Zip": "91006", "AddressLine1": "440 E Huntington Dr Suite 101", "AddressLine2": "", "Distance": 4.2, "Latitude": 34.13907, "Longitude": -118.02199}, {"Sequence": 80, "PersonId": 206316, "AddressId": 3494773, "Specialty": "Periodontics", "Photo": "findadentist.ada.org/Images/Profile/206316-Dr-Tyler-Hendry.png", "Name": "Dr. Tyler J Hendry", "Email": "office@glendaleperiodontics.com", "Phone": "(626) 796-5386", "Address": "72 North Hill Avenue Pasadena, CA 91106", "City": "Pasadena", "State": "CA", "Zip": "91106", "AddressLine1": "72 North Hill Avenue", "AddressLine2": "", "Distance": 4.4, "Latitude": 34.14736, "Longitude": -118.12135}, {"Sequence": 81, "PersonId": 239680, "AddressId": 3426970, "Specialty": "Periodontics", "Photo": "findadentist.ada.org/Images/Profile/239680-Dr-Matthew-Somerville.png", "Name": "Dr. Matthew Somerville", "Email": "", "Phone": "(626) 407-3649", "Address": "72 N Hill Ave Pasadena, CA 91106-1905", "City": "Pasadena", "State": "CA", "Zip": "91106-1905", "AddressLine1": "72 N Hill Ave", "AddressLine2": "", "Distance": 4.4, "Latitude": 34.14736, "Longitude": -118.12079}, {"Sequence": 82, "PersonId": 142518, "AddressId": 1483023, "Specialty": "Orthodontics and Dentofacial Orthopedics", "Photo": "findadentist.ada.org/Images/Profile/142518-Dr-Medhat-Nashed.png", "Name": "Dr. Medhat N Nashed", "Email": "", "Phone": "(626) 294-9119", "Address": "45 E Foothill Blvd Arcadia, CA 91006-2307", "City": "Arcadia", "State": "CA", "Zip": "91006-2307", "AddressLine1": "45 E Foothill Blvd", "AddressLine2": "", "Distance": 4.5, "Latitude": 34.1513, "Longitude": -118.02958}, {"Sequence": 83, "PersonId": 194080, "AddressId": 1534585, "Specialty": "General Practice", "Photo": "findadentist.ada.org/Images/Profile/194080-Dr-Jennifer-Wong.png", "Name": "Dr. Jennifer C Wong", "Email": "", "Phone": "(626) 799-1288", "Address": "1506 Huntington Dr South Pasadena, CA 91030-4520", "City": "South Pasadena", "State": "CA", "Zip": "91030-4520", "AddressLine1": "1506 Huntington Dr", "AddressLine2": "", "Distance": 4.5, "Latitude": 34.1045, "Longitude": -118.15131}, {"Sequence": 84, "PersonId": 198421, "AddressId": 3358515, "Specialty": "General Practice", "Photo": "findadentist.ada.org/Images/Profile/198421-Dr-Michael-Balikyan.png", "Name": "Dr. Michael Balikyan", "Email": "southlakedental@yahoo.com", "Phone": "(626) 844-6674", "Address": "903 E Del Mar Blvd Pasadena, CA 91106-3201", "City": "Pasadena", "State": "CA", "Zip": "91106-3201", "AddressLine1": "903 E Del Mar Blvd", "AddressLine2": "", "Distance": 4.5, "Latitude": 34.14108, "Longitude": -118.13168}, {"Sequence": 85, "PersonId": 198405, "AddressId": 2772373, "Specialty": "General Practice", "Photo": "findadentist.ada.org/Images/Profile/198405-Dr-Karen-Ho.png", "Name": "Dr. Karen Ho", "Email": "info@palmviewdental.net", "Phone": "(626) 379-6246", "Address": "310 S Lake Ave Pasadena, CA 91101-3537", "City": "Pasadena", "State": "CA", "Zip": "91101-3537", "AddressLine1": "310 S Lake Ave", "AddressLine2": "", "Distance": 4.5, "Latitude": 34.14045, "Longitude": -118.13185}, {"Sequence": 86, "PersonId": 151216, "AddressId": 1491721, "Specialty": "Endodontics", "Photo": "findadentist.ada.org/Images/Profile/151216-Dr-Joseph-Kim.png", "Name": "Dr. Joseph C Kim", "Email": "", "Phone": "(626) 395-5140", "Address": "1092 E Green St Pasadena, CA 91106-2506", "City": "Pasadena", "State": "CA", "Zip": "91106-2506", "AddressLine1": "1092 E Green St", "AddressLine2": "", "Distance": 4.5, "Latitude": 34.14436, "Longitude": -118.12783}, {"Sequence": 87, "PersonId": 191135, "AddressId": 1531640, "Specialty": "General Practice", "Photo": "findadentist.ada.org/Images/Profile/191135-Dr-Jacqueline-Aguillon.png", "Name": "Dr. Jacqueline C Aguillon", "Email": "fremontdentists@gmail.com", "Phone": "(323) 340-8882", "Address": "1915 Fremont Ave South Pasadena, CA 91030-4507", "City": "South Pasadena", "State": "CA", "Zip": "91030-4507", "AddressLine1": "1915 Fremont Ave", "AddressLine2": "", "Distance": 4.5, "Latitude": 34.10331, "Longitude": -118.15261}, {"Sequence": 88, "PersonId": 210147, "AddressId": 3476870, "Specialty": "Orthodontics and Dentofacial Orthopedics", "Photo": "findadentist.ada.org/Images/Profile/210147-Dr-Lesley-Jeong.png", "Name": "Dr. Lesley Jeong", "Email": "info@cjsmiles.com", "Phone": "(626) 795-5978", "Address": "1318 Fair Oaks Ave South Pasadena, CA 91030-3808", "City": "South Pasadena", "State": "CA", "Zip": "91030-3808", "AddressLine1": "1318 Fair Oaks Ave", "AddressLine2": "", "Distance": 4.5, "Latitude": 34.11033, "Longitude": -118.14999}, {"Sequence": 89, "PersonId": 219978, "AddressId": 1560483, "Specialty": "General Practice", "Photo": "findadentist.ada.org/Images/Profile/219978-Dr-Maung-Maung.png", "Name": "Dr. Maung Maung", "Email": "EWDCENTER@GMAIL.COM", "Phone": "(626) 288-6622", "Address": "635 E Garvey Ave Monterey Park, CA 91755-1910", "City": "Monterey Park", "State": "CA", "Zip": "91755-1910", "AddressLine1": "635 E Garvey Ave", "AddressLine2": "", "Distance": 4.5, "Latitude": 34.04278, "Longitude": -118.11812}, {"Sequence": 90, "PersonId": 233937, "AddressId": 3421055, "Specialty": "Orthodontics and Dentofacial Orthopedics", "Photo": "findadentist.ada.org/Images/Profile/233937-Dr-Kimberley-Wu.png", "Name": "Dr. Kimberley W Wu", "Email": "", "Phone": "(626) 403-6500", "Address": "1525 Fair Oaks Ave South Pasadena, CA 91030-3835", "City": "South Pasadena", "State": "CA", "Zip": "91030-3835", "AddressLine1": "1525 Fair Oaks Ave", "AddressLine2": "", "Distance": 4.5, "Latitude": 34.108, "Longitude": -118.15083}, {"Sequence": 91, "PersonId": 279828, "AddressId": 1620333, "Specialty": "Periodontics", "Photo": "findadentist.ada.org/Images/Profile/279828-Dr-Krikor-Simonian.png", "Name": "Dr Krikor Simonian", "Email": "", "Phone": "(626) 578-1853", "Address": "1156 E Green St Ste 102 Pasadena, CA 91106-2515", "City": "Pasadena", "State": "CA", "Zip": "91106-2515", "AddressLine1": "1156 E Green St Ste 102", "AddressLine2": "", "Distance": 4.5, "Latitude": 34.14444, "Longitude": -118.12654}, {"Sequence": 92, "PersonId": 288580, "AddressId": 1629085, "Specialty": "General Practice", "Photo": "findadentist.ada.org/Images/Profile/288580-Dr-James-La Briola.png", "Name": "Dr James M La Briola", "Email": "", "Phone": "(626) 449-2231", "Address": "350 S Lake Ave Ste 250 Pasadena, CA 91101-3532", "City": "Pasadena", "State": "CA", "Zip": "91101-3532", "AddressLine1": "350 S Lake Ave Ste 250", "AddressLine2": null, "Distance": 4.5, "Latitude": 34.1397, "Longitude": -118.13183}, {"Sequence": 93, "PersonId": 288725, "AddressId": 2772487, "Specialty": "Pediatric Dentistry", "Photo": "findadentist.ada.org/Images/Profile/288725-Dr-Sumalee-Sangsurasak.png", "Name": "Dr Sumalee Sangsurasak", "Email": "", "Phone": "(626) 792-2782", "Address": "1121 E Green St Pasadena, CA 91106-2505", "City": "Pasadena", "State": "CA", "Zip": "91106-2505", "AddressLine1": "1121 E Green St", "AddressLine2": "", "Distance": 4.5, "Latitude": 34.14488, "Longitude": -118.1273}, {"Sequence": 94, "PersonId": 288786, "AddressId": 1629291, "Specialty": "General Practice", "Photo": "findadentist.ada.org/Images/Profile/288786-Dr-James-Angelos.png", "Name": "Dr James N Angelos", "Email": "dr_angelos@sbcglobal.net", "Phone": "(626) 584-3031", "Address": "1137 E Green St Pasadena, CA 91106-2505", "City": "Pasadena", "State": "CA", "Zip": "91106-2505", "AddressLine1": "1137 E Green St", "AddressLine2": "", "Distance": 4.5, "Latitude": 34.14481, "Longitude": -118.12697}, {"Sequence": 95, "PersonId": 207954, "AddressId": 1548459, "Specialty": "General Practice", "Photo": "findadentist.ada.org/Images/Profile/207954-Dr-Alejandro-Magat.png", "Name": "Dr. Alejandro R Magat", "Email": "dralexmaget@aol.com", "Phone": "(626) 599-2000", "Address": "617 W Huntington Dr Monrovia, CA 91016-3205", "City": "Monrovia", "State": "CA", "Zip": "91016-3205", "AddressLine1": "617 W Huntington Dr", "AddressLine2": "", "Distance": 4.6, "Latitude": 34.14049, "Longitude": -118.0126}, {"Sequence": 96, "PersonId": 188359, "AddressId": 2800242, "Specialty": "General Practice", "Photo": "findadentist.ada.org/Images/Profile/188359-Dr-Mojgan-Ramezani.png", "Name": "Dr. Mojgan Ramezani", "Email": "", "Phone": null, "Address": "1506 Huntington Drive Burbank, CA 91030-4520", "City": "Burbank", "State": "CA", "Zip": "91030-4520", "AddressLine1": "1506 Huntington Drive", "AddressLine2": "", "Distance": 4.6, "Latitude": 34.10583, "Longitude": -118.15323}, {"Sequence": 97, "PersonId": 133656, "AddressId": 1474161, "Specialty": "Endodontics", "Photo": "findadentist.ada.org/Images/Profile/133656-Dr-Younes-Safa.png", "Name": "Dr. Younes Safa", "Email": "info@pasadenaendontix.com", "Phone": "(626) 304-3636", "Address": "960 E Green St Ste 111 Pasadena, CA 91106-2401", "City": "Pasadena", "State": "CA", "Zip": "91106-2401", "AddressLine1": "960 E Green St Ste 111", "AddressLine2": "", "Distance": 4.6, "Latitude": 34.1444, "Longitude": -118.12993}, {"Sequence": 98, "PersonId": 218729, "AddressId": 3582678, "Specialty": "General Practice", "Photo": "findadentist.ada.org/Images/Profile/218729-Dr-Vasag-Bouzoghlanian.png", "Name": "Dr. Vasag H Bouzoghlanian", "Email": "", "Phone": "(626) 577-2017", "Address": "1060 E Green St Ste 203 Pasadena, CA 91106-2408", "City": "Pasadena", "State": "CA", "Zip": "91106-2408", "AddressLine1": "1060 E Green St Ste 203", "AddressLine2": "", "Distance": 4.6, "Latitude": 34.14448, "Longitude": -118.12843}, {"Sequence": 99, "PersonId": 288731, "AddressId": 2772488, "Specialty": "General Practice", "Photo": "findadentist.ada.org/Images/Profile/288731-Dr-Patrick-Challita.png", "Name": "Dr Patrick Y Challita", "Email": "DRCHALLITA@YAHOO.COM", "Phone": "(626) 355-2211", "Address": "80 S Baldwin Ave Sierra Madre, CA 91024-2540", "City": "Sierra Madre", "State": "CA", "Zip": "91024-2540", "AddressLine1": "80 S Baldwin Ave", "AddressLine2": "", "Distance": 4.6, "Latitude": 34.1604, "Longitude": -118.0525}, {"Sequence": 100, "PersonId": 288902, "AddressId": 1629407, "Specialty": "General Practice", "Photo": "findadentist.ada.org/Images/Profile/288902-Dr-Arkady-Tsibel.png", "Name": "Dr. Arkady Tsibel", "Email": "SOUTHPASDENTAL@GMAIL.COM", "Phone": "(626) 441-6234", "Address": "181 N Hill Ave Pasadena, CA 91106-1955", "City": "Pasadena", "State": "CA", "Zip": "91106-1955", "AddressLine1": "181 N Hill Ave", "AddressLine2": "", "Distance": 4.6, "Latitude": 34.14926, "Longitude": -118.12154}]