[{"Sequence": 1, "PersonId": 317138, "AddressId": 3401848, "Specialty": "General Practice", "Photo": "findadentist.ada.org/Images/Profile/317138-Dr-David-Behm.png", "Name": "Dr. David S Behm", "Email": "david.behmdds@aol.com", "Phone": "(773) 561-7729", "Address": "5600 N. Sheridan Rd Chicago, IL 60660-4877", "City": "Chicago", "State": "IL", "Zip": "60660-4877", "AddressLine1": "5600 N. Sheridan Rd", "AddressLine2": "", "Distance": 0.1, "Latitude": 41.98399, "Longitude": -87.6556}, {"Sequence": 2, "PersonId": 120744, "AddressId": 3394379, "Specialty": "General Practice", "Photo": "findadentist.ada.org/Images/Profile/120744-Dr-John-Tran.png", "Name": "Dr John L Tran", "Email": "info@5852nbd.com", "Phone": "(773) 878-2970", "Address": "5852 N Broadway St Chicago, IL 60660-4061", "City": "Chicago", "State": "IL", "Zip": "60660-4061", "AddressLine1": "5852 N Broadway St", "AddressLine2": "", "Distance": 0.3, "Latitude": 41.98853, "Longitude": -87.66052}, {"Sequence": 3, "PersonId": 314991, "AddressId": 1655496, "Specialty": "General Practice", "Photo": "findadentist.ada.org/Images/Profile/314991-Dr-Gary-Monson.png", "Name": "Dr Gary L Monson", "Email": "balmoraldds@gmail.com", "Phone": "(312) 263-2483", "Address": "5358 N Broadway St Chicago, IL 60640-2312", "City": "Chicago", "State": "IL", "Zip": "60640-2312", "AddressLine1": "5358 N Broadway St", "AddressLine2": "", "Distance": 0.4, "Latitude": 41.97981, "Longitude": -87.66029}, {"Sequence": 4, "PersonId": 250621, "AddressId": 3352085, "Specialty": "General Practice", "Photo": "findadentist.ada.org/Images/Profile/250621-Dr-Kapil-Kella.png", "Name": "Dr Kapil Kella", "Email": "info@lakeshoredentalstudio.com", "Phone": "(773) 839-0177", "Address": "5505 N Clark St Chicago, IL 60640-1213", "City": "Chicago", "State": "IL", "Zip": "60640-1213", "AddressLine1": "5505 N Clark St", "AddressLine2": "", "Distance": 0.7, "Latitude": 41.98193, "Longitude": -87.66811}, {"Sequence": 5, "PersonId": 314257, "AddressId": 1654762, "Specialty": "General Practice", "Photo": "findadentist.ada.org/Images/Profile/314257-Dr-Grant-Sims.png", "Name": "Dr Grant W Sims", "Email": "info.drsimsdentistry@gmail.com", "Phone": "(773) 878-7467", "Address": "5503 N Clark St Ste 2 Chicago, IL 60640-1397", "City": "Chicago", "State": "IL", "Zip": "60640-1397", "AddressLine1": "5503 N Clark St Ste 2", "AddressLine2": "", "Distance": 0.7, "Latitude": 41.98183, "Longitude": -87.66818}, {"Sequence": 6, "PersonId": 143007, "AddressId": 2696123, "Specialty": "Prosthodontics", "Photo": "findadentist.ada.org/Images/Profile/143007-Dr-Ghassan-Abboud.png", "Name": "Dr Ghassan Abboud", "Email": "kedzie@1stfamilydental.com", "Phone": "(733) 728-5333", "Address": "5333 N Clark St Chicago, IL 60640-2121", "City": "Chicago", "State": "IL", "Zip": "60640-2121", "AddressLine1": "5333 N Clark St", "AddressLine2": "", "Distance": 0.8, "Latitude": 41.97909, "Longitude": -87.66813}, {"Sequence": 7, "PersonId": 223836, "AddressId": 3525190, "Specialty": "General Practice", "Photo": "findadentist.ada.org/Images/Profile/223836-Dr-Brent-Agran.png", "Name": "Dr Brent E Agran", "Email": "info@northsidesmiles.com", "Phone": "(773) 561-2237", "Address": "5820 N Clark St, Unit 1S Chicago, IL 60660-3202", "City": "Chicago", "State": "IL", "Zip": "60660-3202", "AddressLine1": "5820 N Clark St, Unit 1S", "AddressLine2": "", "Distance": 0.8, "Latitude": 41.98752, "Longitude": -87.67002}, {"Sequence": 8, "PersonId": 253168, "AddressId": 3352191, "Specialty": "Orthodontics and Dentofacial Orthopedics", "Photo": "findadentist.ada.org/Images/Profile/253168-Dr-Ginu-Dahiya.png", "Name": "Dr Ginu D Dahiya", "Email": "clark@1stfamilydental.com", "Phone": "(773) 728-5333", "Address": "5333 N Clark St Chicago, IL 60640-2121", "City": "Chicago", "State": "IL", "Zip": "60640-2121", "AddressLine1": "5333 N Clark St", "AddressLine2": "", "Distance": 0.8, "Latitude": 41.97909, "Longitude": -87.66813}, {"Sequence": 9, "PersonId": 265314, "AddressId": 2814257, "Specialty": "General Practice", "Photo": "findadentist.ada.org/Images/Profile/265314-Dr-Alia-Ahmed.png", "Name": "Dr. Alia Ahmed", "Email": "clark@1stfamilydental.com", "Phone": "(773) 687-9646", "Address": "5333 N Clark St Chicago, IL 60640-2121", "City": "Chicago", "State": "IL", "Zip": "60640-2121", "AddressLine1": "5333 N Clark St", "AddressLine2": "", "Distance": 0.8, "Latitude": 41.97909, "Longitude": -87.66813}, {"Sequence": 10, "PersonId": 217357, "AddressId": 3451336, "Specialty": "Pediatric Dentistry", "Photo": "findadentist.ada.org/Images/Profile/217357-Dr-Saleem-Siddiqui.png", "Name": "Dr Saleem W Siddiqui", "Email": "brightsmilespediatricdentistry@gmail.com", "Phone": "(773) 423-6050", "Address": "4835 N Sheridan Rd Chicago, IL 60640-3718", "City": "Chicago", "State": "IL", "Zip": "60640-3718", "AddressLine1": "4835 N Sheridan Rd", "AddressLine2": "", "Distance": 1.0, "Latitude": 41.97029, "Longitude": -87.65461}, {"Sequence": 11, "PersonId": 223863, "AddressId": 2795893, "Specialty": "Pediatric Dentistry", "Photo": "findadentist.ada.org/Images/Profile/223863-Dr-Johnny-Kuttab.png", "Name": "Dr Johnny I Kuttab", "Email": "brightsmilespediatricdentistry@gmail.com", "Phone": "(773) 423-6050", "Address": "4835 N Sheridan Rd Chicago, IL 60640-3718", "City": "Chicago", "State": "IL", "Zip": "60640-3718", "AddressLine1": "4835 N Sheridan Rd", "AddressLine2": "", "Distance": 1.0, "Latitude": 41.97029, "Longitude": -87.65461}, {"Sequence": 12, "PersonId": 244229, "AddressId": 3451330, "Specialty": "Pediatric Dentistry", "Photo": "findadentist.ada.org/Images/Profile/244229-Dr-Andreina-Ramones.png", "Name": "Dr. Andreina D Ramones", "Email": "brightsmilespediatricdentistry@gmail.com", "Phone": "(773) 423-6050", "Address": "4835 N Sheridan Rd Chicago, IL 60640", "City": "Chicago", "State": "IL", "Zip": "60640", "AddressLine1": "4835 N Sheridan Rd", "AddressLine2": "", "Distance": 1.0, "Latitude": 41.97033, "Longitude": -87.65454}, {"Sequence": 13, "PersonId": 312556, "AddressId": 1653061, "Specialty": "General Practice", "Photo": "findadentist.ada.org/Images/Profile/312556-Dr-Anita-Shahin.png", "Name": "Dr. Anita Shahin", "Email": "", "Phone": "(773) 334-4200", "Address": "1700 W Foster Ave Chicago, IL 60640-2016", "City": "Chicago", "State": "IL", "Zip": "60640-2016", "AddressLine1": "1700 W Foster Ave", "AddressLine2": "", "Distance": 1.1, "Latitude": 41.97628, "Longitude": -87.67227}, {"Sequence": 14, "PersonId": 314022, "AddressId": 1654527, "Specialty": "General Practice", "Photo": "findadentist.ada.org/Images/Profile/314022-Dr-Henry-Lotsof.png", "Name": "Dr Henry L Lotsof", "Email": "henryl320@aol.com", "Phone": "(773) 334-3555", "Address": "5015 N Paulina St Ste 330 Chicago, IL 60640-2756", "City": "Chicago", "State": "IL", "Zip": "60640-2756", "AddressLine1": "5015 N Paulina St Ste 330", "AddressLine2": null, "Distance": 1.1, "Latitude": 41.97302, "Longitude": -87.67075}, {"Sequence": 15, "PersonId": 315942, "AddressId": 1656447, "Specialty": "General Practice", "Photo": "findadentist.ada.org/Images/Profile/315942-Dr-Veronica-DiMario.png", "Name": "Dr Veronica L DiMario", "Email": "", "Phone": "(773) 751-1713", "Address": "1015 W Lawrence Ave Chicago, IL 60640-5017", "City": "Chicago", "State": "IL", "Zip": "60640-5017", "AddressLine1": "1015 W Lawrence Ave", "AddressLine2": "", "Distance": 1.1, "Latitude": 41.96895, "Longitude": -87.65539}, {"Sequence": 16, "PersonId": 317569, "AddressId": 1658074, "Specialty": "General Practice", "Photo": "findadentist.ada.org/Images/Profile/317569-Dr-Brenda-Fabisch.png", "Name": "Dr Brenda R Fabisch", "Email": "centrodentalchicago@gmail.com", "Phone": "(773) 262-5600", "Address": "6518 N Clark St Chicago, IL 60626-4002", "City": "Chicago", "State": "IL", "Zip": "60626-4002", "AddressLine1": "6518 N Clark St", "AddressLine2": "", "Distance": 1.3, "Latitude": 42.00042, "Longitude": -87.67161}, {"Sequence": 17, "PersonId": 221341, "AddressId": 3402002, "Specialty": "General Practice", "Photo": "findadentist.ada.org/Images/Profile/221341-Dr-Tanya-Melnyk.png", "Name": "Dr Tanya Melnyk", "Email": "smileworkscenter4815@gmail.com", "Phone": "(773) 728-9200", "Address": "4815 N Damen Ave Chicago, IL 60625-7825", "City": "Chicago", "State": "IL", "Zip": "60625-7825", "AddressLine1": "4815 N Damen Ave", "AddressLine2": "", "Distance": 1.6, "Latitude": 41.96933, "Longitude": -87.67875}, {"Sequence": 18, "PersonId": 247223, "AddressId": 2760662, "Specialty": "General Practice", "Photo": "findadentist.ada.org/Images/Profile/247223-Dr-Silvia-Valtcheva.png", "Name": "Dr Silvia Valtcheva", "Email": "dentist@sofia-dental.com", "Phone": "(773) 770-4766", "Address": "4413 N Clark St Fl 1 Chicago, IL 60640-5403", "City": "Chicago", "State": "IL", "Zip": "60640-5403", "AddressLine1": "4413 N Clark St Fl 1", "AddressLine2": "", "Distance": 1.7, "Latitude": 41.96207, "Longitude": -87.6658}, {"Sequence": 19, "PersonId": 200305, "AddressId": 3325819, "Specialty": "General Practice", "Photo": "findadentist.ada.org/Images/Profile/200305-Dr-Irene-Renieris.png", "Name": "Dr Irene Renieris", "Email": "thedentalmasters@gmail.com", "Phone": "(773) 588-7840", "Address": "1945 W Wilson Ave Ste 5117 Chicago, IL 60640-5258", "City": "Chicago", "State": "IL", "Zip": "60640-5258", "AddressLine1": "1945 W Wilson Ave Ste 5117", "AddressLine2": "", "Distance": 1.8, "Latitude": 41.96477, "Longitude": -87.67865}, {"Sequence": 20, "PersonId": 315651, "AddressId": 1656156, "Specialty": "General Practice", "Photo": "findadentist.ada.org/Images/Profile/315651-Dr-Ronald-Heiderman.png", "Name": "Dr Ronald A Heiderman", "Email": "rheiderman@sbcglobal.net", "Phone": "(773) 561-0455", "Address": "4806 N Hamilton Ave Chicago, IL 60625-1406", "City": "Chicago", "State": "IL", "Zip": "60625-1406", "AddressLine1": "4806 N Hamilton Ave", "AddressLine2": "", "Distance": 1.8, "Latitude": 41.969, "Longitude": -87.68303}, {"Sequence": 21, "PersonId": 317584, "AddressId": 2886336, "Specialty": "General Practice", "Photo": "findadentist.ada.org/Images/Profile/317584-Dr-Rosa-Bellido-Griffin.png", "Name": "Dr Rosa D Bellido-Griffin", "Email": "", "Phone": "(872) 208-5240", "Address": "4446 N Western Ave Chicago, IL 60625-2176", "City": "Chicago", "State": "IL", "Zip": "60625-2176", "AddressLine1": "4446 N Western Ave", "AddressLine2": "", "Distance": 1.8, "Latitude": 41.99991, "Longitude": -87.6836}, {"Sequence": 22, "PersonId": 140920, "AddressId": 3356314, "Specialty": "Oral and Maxillofacial Surgery", "Photo": "findadentist.ada.org/Images/Profile/140920-Dr-Louis-Halkias.png", "Name": "Dr Louis E Halkias", "Email": "info@osachicago.com", "Phone": "(773) 761-7171", "Address": "2440 W Peterson Ave Chicago, IL 60659-4113", "City": "Chicago", "State": "IL", "Zip": "60659-4113", "AddressLine1": "2440 W Peterson Ave", "AddressLine2": "", "Distance": 1.9, "Latitude": 41.99072, "Longitude": -87.69129}, {"Sequence": 23, "PersonId": 192584, "AddressId": 1533089, "Specialty": "Oral and Maxillofacial Surgery", "Photo": "findadentist.ada.org/Images/Profile/192584-Dr-Michael-Papadimitriou.png", "Name": "Dr Michael  Papadimitriou", "Email": "info@osachicago.com", "Phone": "(773) 761-7171", "Address": "2440 W Peterson Ave Chicago, IL 60659-4113", "City": "Chicago", "State": "IL", "Zip": "60659-4113", "AddressLine1": "2440 W Peterson Ave", "AddressLine2": "", "Distance": 1.9, "Latitude": 41.99072, "Longitude": -87.69129}, {"Sequence": 24, "PersonId": 313531, "AddressId": 1654036, "Specialty": "Oral and Maxillofacial Surgery", "Photo": "findadentist.ada.org/Images/Profile/313531-Dr-Steven-Herzog.png", "Name": "Dr Steven Herzog", "Email": "osa@osachicago.com", "Phone": "(773) 761-7171", "Address": "2440 W Peterson Ave Chicago, IL 60659-4113", "City": "Chicago", "State": "IL", "Zip": "60659-4113", "AddressLine1": "2440 W Peterson Ave", "AddressLine2": "", "Distance": 1.9, "Latitude": 41.99072, "Longitude": -87.69129}, {"Sequence": 25, "PersonId": 206725, "AddressId": 1547230, "Specialty": "General Practice", "Photo": "findadentist.ada.org/Images/Profile/206725-Dr-Damir-Mitrovic.png", "Name": "Dr Damir Mitrovic", "Email": "mitrovicdental@gmail.com", "Phone": "(773) 334-4567", "Address": "2334 W Lawrence Ave Ste 208 Chicago, IL 60625-1040", "City": "Chicago", "State": "IL", "Zip": "60625-1040", "AddressLine1": "2334 W Lawrence Ave Ste 208", "AddressLine2": "", "Distance": 2.0, "Latitude": 41.96883, "Longitude": -87.68792}, {"Sequence": 26, "PersonId": 259019, "AddressId": 2948957, "Specialty": "General Practice", "Photo": "findadentist.ada.org/Images/Profile/259019-Dr-Nidal-Obeid.png", "Name": "Dr Nidal A Obeid", "Email": "lincoln@familydentaloflincoln.com", "Phone": "(773) 561-5106", "Address": "5206 N Lincoln Ave Chicago, IL 60625-2406", "City": "Chicago", "State": "IL", "Zip": "60625-2406", "AddressLine1": "5206 N Lincoln Ave", "AddressLine2": "", "Distance": 2.0, "Latitude": 41.97613, "Longitude": -87.69238}, {"Sequence": 27, "PersonId": 266986, "AddressId": 3310292, "Specialty": "General Practice", "Photo": "findadentist.ada.org/Images/Profile/266986-Dr-Cody-Wilfinger.png", "Name": "Dr Cody L Wilfinger", "Email": "compassdentallincolnsquare@gmail.com", "Phone": "(773) 561-5747", "Address": "2334 W Lawrence Ave Ste 215 Chicago, IL 60625-1036", "City": "Chicago", "State": "IL", "Zip": "60625-1036", "AddressLine1": "2334 W Lawrence Ave Ste 215", "AddressLine2": "", "Distance": 2.0, "Latitude": 41.96883, "Longitude": -87.68792}, {"Sequence": 28, "PersonId": 315716, "AddressId": 1656221, "Specialty": "General Practice", "Photo": "findadentist.ada.org/Images/Profile/315716-Dr-Jeannie-Moskin.png", "Name": "Dr Jeannie Moskin", "Email": "moskindds@aol.com", "Phone": "(773) 271-5596", "Address": "5131 N Lincoln Ave Chicago, IL 60625-2585", "City": "Chicago", "State": "IL", "Zip": "60625-2585", "AddressLine1": "5131 N Lincoln Ave", "AddressLine2": "", "Distance": 2.0, "Latitude": 41.975, "Longitude": -87.69203}, {"Sequence": 29, "PersonId": 18857, "AddressId": 3579036, "Specialty": "Pediatric Dentistry", "Photo": "findadentist.ada.org/Images/Profile/18857-Dr-Mary-Tierney.png", "Name": "Dr Mary E Tierney", "Email": "CityKidsDentalChicago@gmail.com", "Phone": "(773) 293-2700", "Address": "4700 N Western Ave Ste 1A Chicago, IL 60625-2051", "City": "Chicago", "State": "IL", "Zip": "60625-2051", "AddressLine1": "4700 N Western Ave Ste 1A", "AddressLine2": "", "Distance": 2.1, "Latitude": 41.96705, "Longitude": -87.68931}, {"Sequence": 30, "PersonId": 217958, "AddressId": 3400858, "Specialty": "General Practice", "Photo": "findadentist.ada.org/Images/Profile/217958-Dr-Ardita-Dalipi.png", "Name": "Dr. Ardita  Dalipi", "Email": "pristinedentistry@gmail.com", "Phone": "(773) 248-8580", "Address": "840 W Irving Park Rd Ste 407 Chicago, IL 60613-3011", "City": "Chicago", "State": "IL", "Zip": "60613-3011", "AddressLine1": "840 W Irving Park Rd Ste 407", "AddressLine2": "", "Distance": 2.1, "Latitude": 41.95468, "Longitude": -87.65109}, {"Sequence": 31, "PersonId": 313290, "AddressId": 1653795, "Specialty": "General Practice", "Photo": "findadentist.ada.org/Images/Profile/313290-Dr-Jerry-Brooks.png", "Name": "Dr Jerry Brooks", "Email": "", "Phone": "(773) 769-3334", "Address": "2655 W Peterson Ave Chicago, IL 60659-4017", "City": "Chicago", "State": "IL", "Zip": "60659-4017", "AddressLine1": "2655 W Peterson Ave", "AddressLine2": "", "Distance": 2.1, "Latitude": 41.9904, "Longitude": -87.69665}, {"Sequence": 32, "PersonId": 317435, "AddressId": 1657940, "Specialty": "General Practice", "Photo": "findadentist.ada.org/Images/Profile/317435-Dr-Mary-Hanley.png", "Name": "Dr Mary M Hanley", "Email": "lincolndentalmmh@sbcglobal.net", "Phone": "(773) 271-5200", "Address": "5643 N Fairfield Ave Chicago, IL 60659-4816", "City": "Chicago", "State": "IL", "Zip": "60659-4816", "AddressLine1": "5643 N Fairfield Ave", "AddressLine2": "", "Distance": 2.2, "Latitude": 41.98434, "Longitude": -87.69769}, {"Sequence": 33, "PersonId": 317676, "AddressId": 3452960, "Specialty": "General Practice", "Photo": "findadentist.ada.org/Images/Profile/317676-Dr-James-Haritos.png", "Name": "Dr James G Haritos", "Email": "", "Phone": "(773) 271-5200", "Address": "5643 N Fairfield Ave Chicago, IL 60659", "City": "Chicago", "State": "IL", "Zip": "60659", "AddressLine1": "5643 N Fairfield Ave", "AddressLine2": "", "Distance": 2.2, "Latitude": 41.98434, "Longitude": -87.69769}, {"Sequence": 34, "PersonId": 192331, "AddressId": 3449098, "Specialty": "General Practice", "Photo": "findadentist.ada.org/Images/Profile/192331-Dr-Lisa-Kearney.png", "Name": "Dr Lisa K Kearney", "Email": "", "Phone": "(312) 432-4550", "Address": "5215 N California Ave Fl 7 Chicago, IL 60625-7014", "City": "Chicago", "State": "IL", "Zip": "60625-7014", "AddressLine1": "5215 N California Ave Fl 7", "AddressLine2": "", "Distance": 2.3, "Latitude": 41.97628, "Longitude": -87.69856}, {"Sequence": 35, "PersonId": 225474, "AddressId": 3449121, "Specialty": "General Practice", "Photo": "findadentist.ada.org/Images/Profile/225474-Dr-Miloslava-Miller.png", "Name": "Dr Miloslava M Miller", "Email": "", "Phone": "(312) 666-3494", "Address": "5215 N California Chicago, IL 60625", "City": "Chicago", "State": "IL", "Zip": "60625", "AddressLine1": "5215 N California", "AddressLine2": "7th Floor", "Distance": 2.3, "Latitude": 41.97628, "Longitude": -87.69856}, {"Sequence": 36, "PersonId": 258068, "AddressId": 3493524, "Specialty": "General Practice", "Photo": "findadentist.ada.org/Images/Profile/258068-Dr-Yevgen-Tkachuk.png", "Name": "Dr Yevgen Tkachuk", "Email": "illinoisdentalcenter@gmail.com", "Phone": "(773) 973-1100", "Address": "2806 W Devon Ave Chicago, IL 60659-1502", "City": "Chicago", "State": "IL", "Zip": "60659-1502", "AddressLine1": "2806 W Devon Ave", "AddressLine2": "", "Distance": 2.4, "Latitude": 41.99775, "Longitude": -87.70001}, {"Sequence": 37, "PersonId": 315564, "AddressId": 2913146, "Specialty": "General Practice", "Photo": "findadentist.ada.org/Images/Profile/315564-Dr-Alan-Robbins.png", "Name": "Dr. Alan S Robbins", "Email": "Info@arobbinsdds.com", "Phone": "(773) 466-4401", "Address": "3759 N Southport Ave Chicago, IL 60613-3718", "City": "Chicago", "State": "IL", "Zip": "60613-3718", "AddressLine1": "3759 N Southport Ave", "AddressLine2": "", "Distance": 2.4, "Latitude": 41.95062, "Longitude": -87.66382}, {"Sequence": 38, "PersonId": 315913, "AddressId": 3025930, "Specialty": "General Practice", "Photo": "findadentist.ada.org/Images/Profile/315913-Dr-Dorothy-Rewinski.png", "Name": "Dr Dorothy Rewinski", "Email": "contactus@thewholetooth.com", "Phone": "(773) 327-1818", "Address": "1801 W Irving Park Rd Chicago, IL 60613-2405", "City": "Chicago", "State": "IL", "Zip": "60613-2405", "AddressLine1": "1801 W Irving Park Rd", "AddressLine2": "", "Distance": 2.4, "Latitude": 41.95387, "Longitude": -87.67432}, {"Sequence": 39, "PersonId": 334569, "AddressId": 3277653, "Specialty": "General Practice", "Photo": "findadentist.ada.org/Images/Profile/334569-Dr-Erika-Franco.png", "Name": "Dr Erika Franco", "Email": "illinoisdentalcenter@gmail.com", "Phone": "(773) 973-1100", "Address": "2806 W Devon Ave Chicago, IL 60659-1502", "City": "Chicago", "State": "IL", "Zip": "60659-1502", "AddressLine1": "2806 W Devon Ave", "AddressLine2": "", "Distance": 2.4, "Latitude": 41.99757, "Longitude": -87.70002}, {"Sequence": 40, "PersonId": 125590, "AddressId": 1466095, "Specialty": "Pediatric Dentistry", "Photo": "findadentist.ada.org/Images/Profile/125590-Dr-Reena-Shah.png", "Name": "Dr Reena P Shah", "Email": "info@growingsmileschicago.com", "Phone": "(773) 472-4769", "Address": "3701 N Southport Ave Chicago, IL 60613-4360", "City": "Chicago", "State": "IL", "Zip": "60613-4360", "AddressLine1": "3701 N Southport Ave", "AddressLine2": "", "Distance": 2.5, "Latitude": 41.94904, "Longitude": -87.66368}, {"Sequence": 41, "PersonId": 203939, "AddressId": 1544444, "Specialty": "General Practice", "Photo": "findadentist.ada.org/Images/Profile/203939-Dr-Peter-Contos.png", "Name": "Dr Peter A Contos", "Email": "info@contossmilecenter.com", "Phone": "(773) 973-0531", "Address": "6428 N California Ave Chicago, IL 60645-5209", "City": "Chicago", "State": "IL", "Zip": "60645-5209", "AddressLine1": "6428 N California Ave", "AddressLine2": "", "Distance": 2.5, "Latitude": 41.99853, "Longitude": -87.69988}, {"Sequence": 42, "PersonId": 209341, "AddressId": 1549846, "Specialty": "Pediatric Dentistry", "Photo": "findadentist.ada.org/Images/Profile/209341-Dr-Kristin-Elliot.png", "Name": "Dr Kristin M Elliot", "Email": "info@growingsmileschicago.com", "Phone": "(773) 472-4769", "Address": "3701 N Southport Ave Chicago, IL 60613-3718", "City": "Chicago", "State": "IL", "Zip": "60613-3718", "AddressLine1": "3701 N Southport Ave", "AddressLine2": "", "Distance": 2.5, "Latitude": 41.94905, "Longitude": -87.6637}, {"Sequence": 43, "PersonId": 225497, "AddressId": 3449334, "Specialty": "Pediatric Dentistry", "Photo": "findadentist.ada.org/Images/Profile/225497-Dr-Ashlee-Vorachek.png", "Name": "Dr. Ashlee L Vorachek", "Email": "info@growingsmileschicago.com", "Phone": "(773) 472-4769", "Address": "3701 N Southport Ave Chicago, IL 60613", "City": "Chicago", "State": "IL", "Zip": "60613", "AddressLine1": "3701 N Southport Ave", "AddressLine2": "", "Distance": 2.5, "Latitude": 41.94905, "Longitude": -87.6637}, {"Sequence": 44, "PersonId": 232477, "AddressId": 1572982, "Specialty": "General Practice", "Photo": "findadentist.ada.org/Images/Profile/232477-Dr-Maria-Contos.png", "Name": "Dr Maria S Contos", "Email": "info@contossmilecenter.com", "Phone": "(773) 973-0531", "Address": "6428 N California Ave Chicago, IL 60645-5209", "City": "Chicago", "State": "IL", "Zip": "60645-5209", "AddressLine1": "6428 N California Ave", "AddressLine2": "", "Distance": 2.5, "Latitude": 41.99853, "Longitude": -87.69988}, {"Sequence": 45, "PersonId": 247179, "AddressId": 3145990, "Specialty": "Pediatric Dentistry", "Photo": "findadentist.ada.org/Images/Profile/247179-Dr-Michael-Rabinowitz.png", "Name": "Dr Michael P Rabinowitz", "Email": "", "Phone": "(773) 472-4769", "Address": "3701 N Southport Ave Chicago, IL 60613-4360", "City": "Chicago", "State": "IL", "Zip": "60613-4360", "AddressLine1": "3701 N Southport Ave", "AddressLine2": "", "Distance": 2.5, "Latitude": 41.94905, "Longitude": -87.6637}, {"Sequence": 46, "PersonId": 313495, "AddressId": 1654000, "Specialty": "General Practice", "Photo": "findadentist.ada.org/Images/Profile/313495-Dr-Aristides-Contos.png", "Name": "Dr. Aristides P Contos", "Email": "info@contossmilecenter.com", "Phone": "(773) 973-0531", "Address": "6428 N California Ave Chicago, IL 60645-5209", "City": "Chicago", "State": "IL", "Zip": "60645-5209", "AddressLine1": "6428 N California Ave", "AddressLine2": "", "Distance": 2.5, "Latitude": 41.99853, "Longitude": -87.69988}, {"Sequence": 47, "PersonId": 314050, "AddressId": 1654555, "Specialty": "General Practice", "Photo": "findadentist.ada.org/Images/Profile/314050-Dr-Ken-Sakamoto.png", "Name": "Dr Ken Sakamoto", "Email": "", "Phone": "(773) 871-5500", "Address": "3939 N Lincoln Ave Chicago, IL 60613-2431", "City": "Chicago", "State": "IL", "Zip": "60613-2431", "AddressLine1": "3939 N Lincoln Ave", "AddressLine2": "", "Distance": 2.5, "Latitude": 41.9535, "Longitude": -87.6779}, {"Sequence": 48, "PersonId": 316718, "AddressId": 1657223, "Specialty": "General Practice", "Photo": "findadentist.ada.org/Images/Profile/316718-Dr-Michael-Kirshenbaum.png", "Name": "Dr Michael B Kirshenbaum", "Email": "drk773@sbcglobal.net", "Phone": "(773) 465-1810", "Address": "7114 N Western Ave Chicago, IL 60645-3418", "City": "Chicago", "State": "IL", "Zip": "60645-3418", "AddressLine1": "7114 N Western Ave", "AddressLine2": "", "Distance": 2.5, "Latitude": 42.01122, "Longitude": -87.6905}, {"Sequence": 49, "PersonId": 145901, "AddressId": 3441312, "Specialty": "General Practice", "Photo": "findadentist.ada.org/Images/Profile/145901-Dr-Heather-Kitchens.png", "Name": "Dr Heather L Kitchens", "Email": "team@freshworksdental.com", "Phone": "(312) 899-6757", "Address": "3864 N Lincoln Ave Ste 1 Chicago, IL 60613-5184", "City": "Chicago", "State": "IL", "Zip": "60613-5184", "AddressLine1": "3864 N Lincoln Ave Ste 1", "AddressLine2": "", "Distance": 2.6, "Latitude": 41.95209, "Longitude": -87.67759}, {"Sequence": 50, "PersonId": 192331, "AddressId": 1532836, "Specialty": "General Practice", "Photo": "findadentist.ada.org/Images/Profile/192331-Dr-Lisa-Kearney.png", "Name": "Dr Lisa K Kearney", "Email": "", "Phone": "(312) 432-4550", "Address": "2750 W North Ave Chicago, IL 60647-5247", "City": "Chicago", "State": "IL", "Zip": "60647-5247", "AddressLine1": "2750 W North Ave", "AddressLine2": "", "Distance": 2.6, "Latitude": 42.00319, "Longitude": -87.69948}, {"Sequence": 51, "PersonId": 234299, "AddressId": 2893436, "Specialty": "Orthodontics and Dentofacial Orthopedics", "Photo": "findadentist.ada.org/Images/Profile/234299-Dr-Ketti-Boller.png", "Name": "Dr Ketti R Boller", "Email": "", "Phone": null, "Address": "3655 N Ashland Ave Chicago, IL 60613-3617", "City": "Chicago", "State": "IL", "Zip": "60613-3617", "AddressLine1": "3655 N Ashland Ave", "AddressLine2": "", "Distance": 2.6, "Latitude": 41.94841, "Longitude": -87.66881}, {"Sequence": 52, "PersonId": 250242, "AddressId": 2762214, "Specialty": "Orthodontics and Dentofacial Orthopedics", "Photo": "findadentist.ada.org/Images/Profile/250242-Dr-Kelly-Owen.png", "Name": "Dr Kelly M Owen", "Email": "", "Phone": null, "Address": "3655 N Ashland Ave Chicago, IL 60613-3617", "City": "Chicago", "State": "IL", "Zip": "60613-3617", "AddressLine1": "3655 N Ashland Ave", "AddressLine2": "", "Distance": 2.6, "Latitude": 41.94865, "Longitude": -87.66854}, {"Sequence": 53, "PersonId": 315574, "AddressId": 1656079, "Specialty": "General Practice", "Photo": "findadentist.ada.org/Images/Profile/315574-Dr-Katherine-Gerginis.png", "Name": "Dr Katherine Gerginis", "Email": "LincolnCosmeticDentistry@gmail.com", "Phone": "(773) 878-3168", "Address": "5962 N Lincoln Ave Ste 10 Chicago, IL 60659-3762", "City": "Chicago", "State": "IL", "Zip": "60659-3762", "AddressLine1": "5962 N Lincoln Ave Ste 10", "AddressLine2": null, "Distance": 2.6, "Latitude": 41.98932, "Longitude": -87.70631}, {"Sequence": 54, "PersonId": 202690, "AddressId": 3581706, "Specialty": "Endodontics", "Photo": "findadentist.ada.org/Images/Profile/202690-Dr-Mindy-Van.png", "Name": "Dr Mindy M Van", "Email": "info@lakeview-endo.com", "Phone": "(312) 818-1918", "Address": "3555 N Ashland Ave Ste 1 Chicago, IL 60657-1361", "City": "Chicago", "State": "IL", "Zip": "60657-1361", "AddressLine1": "3555 N Ashland Ave Ste 1", "AddressLine2": "", "Distance": 2.7, "Latitude": 41.94679, "Longitude": -87.66846}, {"Sequence": 55, "PersonId": 313912, "AddressId": 1654417, "Specialty": "General Practice", "Photo": "findadentist.ada.org/Images/Profile/313912-Dr-Kamlesh-Amin.png", "Name": "Dr Kamlesh G Amin", "Email": "kamindds@gmail.com", "Phone": "(773) 262-5004", "Address": "3034 W Devon Ave Ste 200 Chicago, IL 60659-1400", "City": "Chicago", "State": "IL", "Zip": "60659-1400", "AddressLine1": "3034 W Devon Ave Ste 200", "AddressLine2": "", "Distance": 2.7, "Latitude": 41.99771, "Longitude": -87.70599}, {"Sequence": 56, "PersonId": 120501, "AddressId": 1461006, "Specialty": "General Practice", "Photo": "findadentist.ada.org/Images/Profile/120501-Dr-Ashor-Elia.png", "Name": "Dr. Ashor Elia", "Email": "officeinfo@koppdental.com", "Phone": "(773) 465-2922", "Address": "3143 W Devon Ave Chicago, IL 60659-1424", "City": "Chicago", "State": "IL", "Zip": "60659-1424", "AddressLine1": "3143 W Devon Ave", "AddressLine2": "", "Distance": 2.8, "Latitude": 41.99719, "Longitude": -87.70858}, {"Sequence": 57, "PersonId": 231589, "AddressId": 2918940, "Specialty": "Periodontics", "Photo": "findadentist.ada.org/Images/Profile/231589-Dr-Simona-Katona.png", "Name": "Dr Simona L Katona", "Email": "dentist@mydentalart.com", "Phone": "(773) 588-1141", "Address": "3935 N Western Ave Unit 1S Chicago, IL 60618-3761", "City": "Chicago", "State": "IL", "Zip": "60618-3761", "AddressLine1": "3935 N Western Ave Unit 1S", "AddressLine2": "", "Distance": 2.8, "Latitude": 41.95327, "Longitude": -87.68805}, {"Sequence": 58, "PersonId": 313130, "AddressId": 1653635, "Specialty": "General Practice", "Photo": "findadentist.ada.org/Images/Profile/313130-Dr-Donald-Lason.png", "Name": "Dr Donald R Lason", "Email": "", "Phone": "(773) 761-6623", "Address": "6051 N Lincoln Ave Chicago, IL 60659-2435", "City": "Chicago", "State": "IL", "Zip": "60659-2435", "AddressLine1": "6051 N Lincoln Ave", "AddressLine2": "", "Distance": 2.8, "Latitude": 41.99144, "Longitude": -87.70873}, {"Sequence": 59, "PersonId": 313958, "AddressId": 1654463, "Specialty": "General Practice", "Photo": "findadentist.ada.org/Images/Profile/313958-Dr-Mark-Mkrdichian.png", "Name": "Dr Mark Mkrdichian", "Email": "staff@familycaredentalgroup.com", "Phone": "(773) 465-2922", "Address": "3143 W Devon Ave Chicago, IL 60659-1424", "City": "Chicago", "State": "IL", "Zip": "60659-1424", "AddressLine1": "3143 W Devon Ave", "AddressLine2": "", "Distance": 2.8, "Latitude": 41.99719, "Longitude": -87.70858}, {"Sequence": 60, "PersonId": 313982, "AddressId": 3495304, "Specialty": "General Practice", "Photo": "findadentist.ada.org/Images/Profile/313982-Dr-Mark-Sawyer.png", "Name": "Dr Mark Sawyer", "Email": "", "Phone": "(773) 761-7442", "Address": "7428 N Western Ave Chicago, IL 60645-1707", "City": "Chicago", "State": "IL", "Zip": "60645-1707", "AddressLine1": "7428 N Western Ave", "AddressLine2": "", "Distance": 2.8, "Latitude": 42.01669, "Longitude": -87.6905}, {"Sequence": 61, "PersonId": 143007, "AddressId": 2906296, "Specialty": "Prosthodontics", "Photo": "findadentist.ada.org/Images/Profile/143007-Dr-Ghassan-Abboud.png", "Name": "Dr Ghassan Abboud", "Email": "kedzie@1stfamilydental.com", "Phone": "(773) 728-0319", "Address": "4901 N Kedzie Ave Chicago, IL 60625-5009", "City": "Chicago", "State": "IL", "Zip": "60625-5009", "AddressLine1": "4901 N Kedzie Ave", "AddressLine2": "", "Distance": 2.9, "Latitude": 41.97056, "Longitude": -87.70823}, {"Sequence": 62, "PersonId": 192760, "AddressId": 1533265, "Specialty": "Pediatric Dentistry", "Photo": "findadentist.ada.org/Images/Profile/192760-Dr-Grace-Yum.png", "Name": "Dr Grace Yum", "Email": "", "Phone": "(773) 281-8100", "Address": "3500 N Lincoln Ave Chicago, IL 60657-1104", "City": "Chicago", "State": "IL", "Zip": "60657-1104", "AddressLine1": "3500 N Lincoln Ave", "AddressLine2": "", "Distance": 2.9, "Latitude": 41.94527, "Longitude": -87.67281}, {"Sequence": 63, "PersonId": 225471, "AddressId": 1565976, "Specialty": "General Practice", "Photo": "findadentist.ada.org/Images/Profile/225471-Dr-Jose-Mariscal.png", "Name": "Dr Jose M Mariscal", "Email": "contactus@insmyledental.com", "Phone": "(773) 929-4140", "Address": "3514 N Lincoln Ave Chicago, IL 60657-1104", "City": "Chicago", "State": "IL", "Zip": "60657-1104", "AddressLine1": "3514 N Lincoln Ave", "AddressLine2": "", "Distance": 2.9, "Latitude": 41.94558, "Longitude": -87.67305}, {"Sequence": 64, "PersonId": 252364, "AddressId": 2914291, "Specialty": "Orthodontics and Dentofacial Orthopedics", "Photo": "findadentist.ada.org/Images/Profile/252364-Dr-Tamara-Oweis.png", "Name": "Dr. Tamara M Oweis", "Email": "", "Phone": "(773) 509-9200", "Address": "4905 N Kedzie Ave Chicago, IL 60625-5009", "City": "Chicago", "State": "IL", "Zip": "60625-5009", "AddressLine1": "4905 N Kedzie Ave", "AddressLine2": "", "Distance": 2.9, "Latitude": 41.97057, "Longitude": -87.70803}, {"Sequence": 65, "PersonId": 262082, "AddressId": 3322612, "Specialty": "General Practice", "Photo": "findadentist.ada.org/Images/Profile/262082-Dr-Priya-Patel.png", "Name": "Dr Priya N Patel", "Email": "", "Phone": "(773) 338-7799", "Address": "2702 W Touhy Ave Chicago, IL 60645-3008", "City": "Chicago", "State": "IL", "Zip": "60645-3008", "AddressLine1": "2702 W Touhy Ave", "AddressLine2": "", "Distance": 2.9, "Latitude": 42.0123, "Longitude": -87.69772}, {"Sequence": 66, "PersonId": 272666, "AddressId": 3517943, "Specialty": "General Practice", "Photo": "findadentist.ada.org/Images/Profile/272666-Dr-Sasa-Stojanovic.png", "Name": "Dr Sasa Stojanovic", "Email": "", "Phone": "(773) 509-9200", "Address": "4901 N. Kedzie Chicago, IL 60625-5009", "City": "Chicago", "State": "IL", "Zip": "60625-5009", "AddressLine1": "4901 N. Kedzie", "AddressLine2": "", "Distance": 2.9, "Latitude": 41.97062, "Longitude": -87.70819}, {"Sequence": 67, "PersonId": 317790, "AddressId": 1658295, "Specialty": "General Practice", "Photo": "findadentist.ada.org/Images/Profile/317790-Dr-Rita-Salvi Platt.png", "Name": "Dr Rita E Salvi Platt", "Email": "smilesdds@aol.com", "Phone": "(774) 574-1234", "Address": "2005 W Addison St Chicago, IL 60618-6101", "City": "Chicago", "State": "IL", "Zip": "60618-6101", "AddressLine1": "2005 W Addison St", "AddressLine2": "", "Distance": 2.9, "Latitude": 41.94658, "Longitude": -87.67876}, {"Sequence": 68, "PersonId": 351726, "AddressId": 3477155, "Specialty": "General Practice", "Photo": "findadentist.ada.org/Images/Profile/351726-Dr-Kenny-Robles Gonzalez.png", "Name": "Dr. Kenny A Robles Gonzalez", "Email": "", "Phone": "(773) 929-4140", "Address": "3514 N Lincoln Ave Chicago, IL 60657-1104", "City": "Chicago", "State": "IL", "Zip": "60657-1104", "AddressLine1": "3514 N Lincoln Ave", "AddressLine2": "", "Distance": 2.9, "Latitude": 41.94558, "Longitude": -87.67305}, {"Sequence": 69, "PersonId": 193105, "AddressId": 1533610, "Specialty": "General Practice", "Photo": "findadentist.ada.org/Images/Profile/193105-Dr-Jessica-Emery.png", "Name": "Dr Jessica T Emery", "Email": "info@sugarfixdental.com", "Phone": "(773) 883-1818", "Address": "3346 N Paulina St Chicago, IL 60657-1038", "City": "Chicago", "State": "IL", "Zip": "60657-1038", "AddressLine1": "3346 N Paulina St", "AddressLine2": "", "Distance": 3.0, "Latitude": 41.94299, "Longitude": -87.67137}, {"Sequence": 70, "PersonId": 209310, "AddressId": 3496438, "Specialty": "General Practice", "Photo": "findadentist.ada.org/Images/Profile/209310-Dr-Asia-Beltran.png", "Name": "Dr. Asia I Beltran", "Email": "info@impressionsdentalchicago.com", "Phone": "(773) 698-6983", "Address": "3270 N Clark St Chicago, IL 60657-1602", "City": "Chicago", "State": "IL", "Zip": "60657-1602", "AddressLine1": "3270 N Clark St", "AddressLine2": "", "Distance": 3.0, "Latitude": 41.94165, "Longitude": -87.65232}, {"Sequence": 71, "PersonId": 264716, "AddressId": 3061629, "Specialty": "General Practice", "Photo": "findadentist.ada.org/Images/Profile/264716-Dr-Cristian-Pavel.png", "Name": "Dr Cristian I Pavel", "Email": "drcpavel@smilefirst.net", "Phone": "(773) 739-2800", "Address": "6122 N Lincoln Ave Chicago, IL 60659-2314", "City": "Chicago", "State": "IL", "Zip": "60659-2314", "AddressLine1": "6122 N Lincoln Ave", "AddressLine2": "", "Distance": 3.0, "Latitude": 41.99323, "Longitude": -87.71255}, {"Sequence": 72, "PersonId": 314347, "AddressId": 3360842, "Specialty": "General Practice", "Photo": "findadentist.ada.org/Images/Profile/314347-Dr-Gilbert-Parrott.png", "Name": "Dr Gilbert G Parrott", "Email": "patientservices@belmontdentalcare.com", "Phone": "(773) 549-7971", "Address": "3344 N Lincoln Ave Chicago, IL 60657-1108", "City": "Chicago", "State": "IL", "Zip": "60657-1108", "AddressLine1": "3344 N Lincoln Ave", "AddressLine2": "", "Distance": 3.0, "Latitude": 41.94257, "Longitude": -87.67091}, {"Sequence": 73, "PersonId": 314633, "AddressId": 3478993, "Specialty": "General Practice", "Photo": "findadentist.ada.org/Images/Profile/314633-Dr-Gregory-Tietzer.png", "Name": "Dr Gregory H Tietzer", "Email": "", "Phone": "(773) 463-8860", "Address": "3318 W Foster Ave Chicago, IL 60625-4813", "City": "Chicago", "State": "IL", "Zip": "60625-4813", "AddressLine1": "3318 W Foster Ave", "AddressLine2": "", "Distance": 3.0, "Latitude": 41.97587, "Longitude": -87.71195}, {"Sequence": 74, "PersonId": 316113, "AddressId": 1656618, "Specialty": "General Practice", "Photo": "findadentist.ada.org/Images/Profile/316113-Dr-Richard-Leyba.png", "Name": "Dr Richard G Leyba", "Email": "rgleyba@sbcglobal.net", "Phone": "(773) 539-0077", "Address": "3334 W Peterson Ave Chicago, IL 60659-3505", "City": "Chicago", "State": "IL", "Zip": "60659-3505", "AddressLine1": "3334 W Peterson Ave", "AddressLine2": "", "Distance": 3.0, "Latitude": 41.99057, "Longitude": -87.71308}, {"Sequence": 75, "PersonId": 317792, "AddressId": 1658297, "Specialty": "General Practice", "Photo": "findadentist.ada.org/Images/Profile/317792-Dr-Ilie-Pavel.png", "Name": "Dr Ilie P Pavel", "Email": "iliepaveldds@smilefirst.net", "Phone": "(773) 739-2800", "Address": "6122 N Lincoln Ave Chicago, IL 60659-2314", "City": "Chicago", "State": "IL", "Zip": "60659-2314", "AddressLine1": "6122 N Lincoln Ave", "AddressLine2": "", "Distance": 3.0, "Latitude": 41.99324, "Longitude": -87.71254}, {"Sequence": 76, "PersonId": 198957, "AddressId": 1539462, "Specialty": "General Practice", "Photo": "findadentist.ada.org/Images/Profile/198957-Dr-Paul-Poncza.png", "Name": "Dr Paul  Poncza", "Email": "info@smileonchicago.com", "Phone": "(773) 525-5545", "Address": "1350 W Belmont Ave Ste 1 Chicago, IL 60657-3246", "City": "Chicago", "State": "IL", "Zip": "60657-3246", "AddressLine1": "1350 W Belmont Ave Ste 1", "AddressLine2": "", "Distance": 3.1, "Latitude": 41.94, "Longitude": -87.66324}, {"Sequence": 77, "PersonId": 202250, "AddressId": 1542755, "Specialty": "General Practice", "Photo": "findadentist.ada.org/Images/Profile/202250-Dr-Larissa-Navarro.png", "Name": "Dr Larissa Navarro", "Email": "patientcare@pebblewooddental.com", "Phone": "(630) 369-6222", "Address": "1550 N Route 59 Ste 148 Naperville, IL 60563-0152", "City": "Naperville", "State": "IL", "Zip": "60563-0152", "AddressLine1": "1550 N Route 59 Ste 148", "AddressLine2": "", "Distance": 3.1, "Latitude": 41.94019, "Longitude": -87.65223}, {"Sequence": 78, "PersonId": 225493, "AddressId": 1565998, "Specialty": "General Practice", "Photo": "findadentist.ada.org/Images/Profile/225493-Dr-Larisa-Spirtovic.png", "Name": "Dr Larisa Spirtovic", "Email": "kissdentalpc@gmail.com", "Phone": "(773) 465-2600", "Address": "2925 W Touhy Ave Chicago, IL 60645-2937", "City": "Chicago", "State": "IL", "Zip": "60645-2937", "AddressLine1": "2925 W Touhy Ave", "AddressLine2": "", "Distance": 3.1, "Latitude": 42.01174, "Longitude": -87.70322}, {"Sequence": 79, "PersonId": 225570, "AddressId": 3318197, "Specialty": "General Practice", "Photo": "findadentist.ada.org/Images/Profile/225570-Dr-Bernice-Teplitsky.png", "Name": "Dr. Bernice Teplitsky", "Email": "", "Phone": "(773) 975-6666", "Address": "3256 N Ashland Ave Chicago, IL 60657-2161", "City": "Chicago", "State": "IL", "Zip": "60657-2161", "AddressLine1": "3256 N Ashland Ave", "AddressLine2": "", "Distance": 3.1, "Latitude": 41.94135, "Longitude": -87.66896}, {"Sequence": 80, "PersonId": 312538, "AddressId": 2912288, "Specialty": "Oral and Maxillofacial Surgery", "Photo": "findadentist.ada.org/Images/Profile/312538-Dr-Coleman-Spector.png", "Name": "Dr Coleman J Spector", "Email": "", "Phone": "(773) 472-5235", "Address": "1014 W Belmont Ave Chicago, IL 60657-3303", "City": "Chicago", "State": "IL", "Zip": "60657-3303", "AddressLine1": "1014 W Belmont Ave", "AddressLine2": "", "Distance": 3.1, "Latitude": 41.94007, "Longitude": -87.65479}, {"Sequence": 81, "PersonId": 317692, "AddressId": 1658197, "Specialty": "General Practice", "Photo": "findadentist.ada.org/Images/Profile/317692-Dr-Scott-Emalfarb.png", "Name": "Dr Scott A Emalfarb", "Email": "", "Phone": "(773) 472-6322", "Address": "1014 W Belmont Ave Chicago, IL 60657-3303", "City": "Chicago", "State": "IL", "Zip": "60657-3303", "AddressLine1": "1014 W Belmont Ave", "AddressLine2": "", "Distance": 3.1, "Latitude": 41.94006, "Longitude": -87.65478}, {"Sequence": 82, "PersonId": 200038, "AddressId": 1540543, "Specialty": "General Practice", "Photo": "findadentist.ada.org/Images/Profile/200038-Dr-Joshua-Ehrlich.png", "Name": "Dr Joshua  Ehrlich", "Email": "ehrlichdental@gmail.com", "Phone": "(773) 935-0300", "Address": "3118 N Sheffield Ave Ste 1N Chicago, IL 60657-9139", "City": "Chicago", "State": "IL", "Zip": "60657-9139", "AddressLine1": "3118 N Sheffield Ave Ste 1N", "AddressLine2": "", "Distance": 3.2, "Latitude": 41.93864, "Longitude": -87.65442}, {"Sequence": 83, "PersonId": 223899, "AddressId": 3404544, "Specialty": "Endodontics", "Photo": "findadentist.ada.org/Images/Profile/223899-Dr-Jonathan-Wong.png", "Name": "Dr Jonathan W Wong", "Email": "info@renovoendo.com", "Phone": "(773) 975-4230", "Address": "2125 W Roscoe Street Ste 2 Chicago, IL 60618", "City": "Chicago", "State": "IL", "Zip": "60618", "AddressLine1": "2125 W Roscoe Street Ste 2", "AddressLine2": "", "Distance": 3.2, "Latitude": 41.94304, "Longitude": -87.6819}, {"Sequence": 84, "PersonId": 225436, "AddressId": 3162856, "Specialty": "General Practice", "Photo": "findadentist.ada.org/Images/Profile/225436-Dr-Alaba-Adelakun.png", "Name": "Dr. Alaba Adelakun", "Email": "office@lakeviewchicagodental.com", "Phone": "(773) 649-5200", "Address": "1658 W Belmont Ave Ste Ce Chicago, IL 60657-3069", "City": "Chicago", "State": "IL", "Zip": "60657-3069", "AddressLine1": "1658 W Belmont Ave Ste Ce", "AddressLine2": "", "Distance": 3.2, "Latitude": 41.93987, "Longitude": -87.67089}, {"Sequence": 85, "PersonId": 232244, "AddressId": 1572749, "Specialty": "General Practice", "Photo": "findadentist.ada.org/Images/Profile/232244-Dr-Christen-Dinkha.png", "Name": "Dr Christen Dinkha", "Email": "", "Phone": "(773) 528-3384", "Address": "2155 W Roscoe St Ste 1N Chicago, IL 60618-6261", "City": "Chicago", "State": "IL", "Zip": "60618-6261", "AddressLine1": "2155 W Roscoe St Ste 1N", "AddressLine2": "", "Distance": 3.2, "Latitude": 41.94285, "Longitude": -87.68304}, {"Sequence": 86, "PersonId": 247221, "AddressId": 3036638, "Specialty": "General Practice", "Photo": "findadentist.ada.org/Images/Profile/247221-Dr-Claudia-Piccolo.png", "Name": "Dr Claudia Piccolo", "Email": "familydentalcare60657@gmail.com", "Phone": "(773) 528-0068", "Address": "1426 W Belmont Ave Chicago, IL 60657-6898", "City": "Chicago", "State": "IL", "Zip": "60657-6898", "AddressLine1": "1426 W Belmont Ave", "AddressLine2": "", "Distance": 3.2, "Latitude": 41.94002, "Longitude": -87.66486}, {"Sequence": 87, "PersonId": 313639, "AddressId": 1654144, "Specialty": "General Practice", "Photo": "findadentist.ada.org/Images/Profile/313639-Dr-Jeffrey-Kramer.png", "Name": "Dr Jeffrey A Kramer", "Email": "KramerKuhnDental@gmail.com", "Phone": "(773) 588-2100", "Address": "3525 W Peterson Ave Ste 517 Chicago, IL 60659-3317", "City": "Chicago", "State": "IL", "Zip": "60659-3317", "AddressLine1": "3525 W Peterson Ave Ste 517", "AddressLine2": "", "Distance": 3.2, "Latitude": 41.98996, "Longitude": -87.71723}, {"Sequence": 88, "PersonId": 313665, "AddressId": 1654170, "Specialty": "General Practice", "Photo": "findadentist.ada.org/Images/Profile/313665-Dr-Janet-Kuhn.png", "Name": "Dr Janet M Kuhn", "Email": "KramerKuhnDental@gmail.com", "Phone": "(773) 588-2100", "Address": "3525 W Peterson Ave Ste 517 Chicago, IL 60659-3317", "City": "Chicago", "State": "IL", "Zip": "60659-3317", "AddressLine1": "3525 W Peterson Ave Ste 517", "AddressLine2": "", "Distance": 3.2, "Latitude": 41.98996, "Longitude": -87.71723}, {"Sequence": 89, "PersonId": 313785, "AddressId": 3406962, "Specialty": "General Practice", "Photo": "findadentist.ada.org/Images/Profile/313785-Dr-Howard-Blivaiss.png", "Name": "Dr Howard L Blivaiss", "Email": "HBLIVAISSDDS@SBCGLOBAL.NET", "Phone": "(773) 509-1234", "Address": "3500 W Peterson Ave Ste 200 Chicago, IL 60659-3307", "City": "Chicago", "State": "IL", "Zip": "60659-3307", "AddressLine1": "3500 W Peterson Ave Ste 200", "AddressLine2": "", "Distance": 3.2, "Latitude": 41.99054, "Longitude": -87.71681}, {"Sequence": 90, "PersonId": 313806, "AddressId": 2974728, "Specialty": "General Practice", "Photo": "findadentist.ada.org/Images/Profile/313806-Dr-Katherine-Lauterbach.png", "Name": "Dr Katherine Lauterbach", "Email": "", "Phone": "(773) 472-1200", "Address": "1642 W Belmont Ave Chicago, IL 60657-3018", "City": "Chicago", "State": "IL", "Zip": "60657-3018", "AddressLine1": "1642 W Belmont Ave", "AddressLine2": "", "Distance": 3.2, "Latitude": 41.93994, "Longitude": -87.67043}, {"Sequence": 91, "PersonId": 315783, "AddressId": 1656288, "Specialty": "General Practice", "Photo": "findadentist.ada.org/Images/Profile/315783-Dr-Sang-Woo.png", "Name": "Dr Sang U Woo", "Email": "smiledentistinfo@gmail.com", "Phone": "(773) 539-1003", "Address": "3403 W Lawrence Ave Ste 202 Chicago, IL 60625-5162", "City": "Chicago", "State": "IL", "Zip": "60625-5162", "AddressLine1": "3403 W Lawrence Ave Ste 202", "AddressLine2": "", "Distance": 3.2, "Latitude": 41.96828, "Longitude": -87.7137}, {"Sequence": 92, "PersonId": 315785, "AddressId": 1656290, "Specialty": "General Practice", "Photo": "findadentist.ada.org/Images/Profile/315785-Dr-Susan-Torma.png", "Name": "Dr Susan R Torma", "Email": "", "Phone": "(773) 472-1200", "Address": "1642 W Belmont Ave Chicago, IL 60657-3018", "City": "Chicago", "State": "IL", "Zip": "60657-3018", "AddressLine1": "1642 W Belmont Ave", "AddressLine2": "", "Distance": 3.2, "Latitude": 41.93994, "Longitude": -87.67043}, {"Sequence": 93, "PersonId": 313576, "AddressId": 2911369, "Specialty": "General Practice", "Photo": "findadentist.ada.org/Images/Profile/313576-Dr-Michael-Gordon.png", "Name": "Dr Michael E Gordon", "Email": "", "Phone": "(847) 491-0880", "Address": "635 Chicago Ave Evanston, IL 60202-2365", "City": "Evanston", "State": "IL", "Zip": "60202-2365", "AddressLine1": "635 Chicago Ave", "AddressLine2": "", "Distance": 3.3, "Latitude": 42.0301, "Longitude": -87.67797}, {"Sequence": 94, "PersonId": 326154, "AddressId": 1666659, "Specialty": "General Practice", "Photo": "findadentist.ada.org/Images/Profile/326154-Dr-Scott-Overholser.png", "Name": "Dr Scott W Overholser", "Email": "info@lakeviewdentalarts.com", "Phone": "(773) 270-5000", "Address": "3115 N Broadway St Chicago, IL 60657-4522", "City": "Chicago", "State": "IL", "Zip": "60657-4522", "AddressLine1": "3115 N Broadway St", "AddressLine2": "", "Distance": 3.3, "Latitude": 41.9381, "Longitude": -87.64403}, {"Sequence": 95, "PersonId": 138744, "AddressId": 2716128, "Specialty": "General Practice", "Photo": "findadentist.ada.org/Images/Profile/138744-Dr-Kenneth-Kromash.png", "Name": "Dr Kenneth S Kromash", "Email": "", "Phone": "(773) 871-4964", "Address": "811 W Wellington Ave Chicago, IL 60657-5123", "City": "Chicago", "State": "IL", "Zip": "60657-5123", "AddressLine1": "811 W Wellington Ave", "AddressLine2": "", "Distance": 3.4, "Latitude": 41.93613, "Longitude": -87.64963}, {"Sequence": 96, "PersonId": 313999, "AddressId": 3289033, "Specialty": "General Practice", "Photo": "findadentist.ada.org/Images/Profile/313999-Dr-Robert-Neems.png", "Name": "Dr Robert L Neems", "Email": "info@sfdchicago.com", "Phone": "(630) 379-4747", "Address": "821 Michigan Ave Apt 1N Evanston, IL 60202-4436", "City": "Evanston", "State": "IL", "Zip": "60202-4436", "AddressLine1": "821 Michigan Ave Apt 1N", "AddressLine2": "Unit 1N", "Distance": 3.4, "Latitude": 42.03283, "Longitude": -87.67203}, {"Sequence": 97, "PersonId": 317312, "AddressId": 1657817, "Specialty": "Endodontics", "Photo": "findadentist.ada.org/Images/Profile/317312-Dr-Ronald-Zelikow.png", "Name": "Dr Ronald Zelikow", "Email": "contactus@ronaldzelikowdds.com", "Phone": "(773) 348-3309", "Address": "2057 W Belmont Ave Chicago, IL 60618-6411", "City": "Chicago", "State": "IL", "Zip": "60618-6411", "AddressLine1": "2057 W Belmont Ave", "AddressLine2": "", "Distance": 3.4, "Latitude": 41.93939, "Longitude": -87.68049}, {"Sequence": 98, "PersonId": 379104, "AddressId": 3440781, "Specialty": "General Practice", "Photo": "findadentist.ada.org/Images/Profile/379104-Dr-Matthew-Nye.png", "Name": "Dr. Matthew J Nye", "Email": "matthew.nye@advocatehealth.com", "Phone": "(989) 712-0106", "Address": "811 W Wellington Ave Chicago, IL 60657-5123", "City": "Chicago", "State": "IL", "Zip": "60657-5123", "AddressLine1": "811 W Wellington Ave", "AddressLine2": "", "Distance": 3.4, "Latitude": 41.93616, "Longitude": -87.6496}, {"Sequence": 99, "PersonId": 234036, "AddressId": 1574541, "Specialty": "General Practice", "Photo": "findadentist.ada.org/Images/Profile/234036-Dr-Behzad-Sanei.png", "Name": "Dr. Behzad Sanei", "Email": "", "Phone": "(773) 252-0033", "Address": "2308 W Belmont Ave Chicago, IL 60618-6423", "City": "Chicago", "State": "IL", "Zip": "60618-6423", "AddressLine1": "2308 W Belmont Ave", "AddressLine2": "", "Distance": 3.5, "Latitude": 41.93973, "Longitude": -87.68608}, {"Sequence": 100, "PersonId": 259019, "AddressId": 3454403, "Specialty": "General Practice", "Photo": "findadentist.ada.org/Images/Profile/259019-Dr-Nidal-Obeid.png", "Name": "Dr Nidal A Obeid", "Email": "lincoln@familydentaloflincoln.com", "Phone": "(773) 327-6500", "Address": "3332 N Western Ave Chicago, IL 60618-6213", "City": "Chicago", "State": "IL", "Zip": "60618-6213", "AddressLine1": "3332 N Western Ave", "AddressLine2": "", "Distance": 3.5, "Latitude": 41.94162, "Longitude": -87.68972}]