[{"Sequence": 1, "PersonId": 317395, "AddressId": 1657900, "Specialty": "General Practice", "Photo": "findadentist.ada.org/Images/Profile/317395-Dr-Joseph-Unger.png", "Name": "Dr Joseph G Unger", "Email": "", "Phone": "(773) 582-8129", "Address": "4424 W 63rd St Chicago, IL 60629-5531", "City": "Chicago", "State": "IL", "Zip": "60629-5531", "AddressLine1": "4424 W 63rd St", "AddressLine2": "", "Distance": 1.2, "Latitude": 41.7788, "Longitude": -87.73356}, {"Sequence": 2, "PersonId": 204047, "AddressId": 1544552, "Specialty": "General Practice", "Photo": "findadentist.ada.org/Images/Profile/204047-Dr-Joellen-Schneider.png", "Name": "Dr Joellen R Schneider", "Email": "", "Phone": "(773) 585-5176", "Address": "4020 W 59th St Chicago, IL 60629-4512", "City": "Chicago", "State": "IL", "Zip": "60629-4512", "AddressLine1": "4020 W 59th St", "AddressLine2": "", "Distance": 1.1, "Latitude": 41.78615, "Longitude": -87.72443}, {"Sequence": 3, "PersonId": 376033, "AddressId": 3448889, "Specialty": "General Practice", "Photo": "findadentist.ada.org/Images/Profile/376033-Dr-Angela-Suh.png", "Name": "Dr. Angela Suh", "Email": "pdcpulaski@gmail.com", "Phone": "(773) 312-5178", "Address": "6930 S Pulaski Chicago, IL 60629", "City": "Chicago", "State": "IL", "Zip": "60629", "AddressLine1": "6930 S Pulaski", "AddressLine2": "", "Distance": 0.7, "Latitude": 41.76682, "Longitude": -87.72292}, {"Sequence": 4, "PersonId": 216890, "AddressId": 3448890, "Specialty": "General Practice", "Photo": "findadentist.ada.org/Images/Profile/216890-Dr-Jennifer-Lee.png", "Name": "Dr Jennifer S Lee", "Email": "pdcpulaski@gmail.com", "Phone": "(773) 312-5178", "Address": "6930 S Pulaski Chicago, IL 60629", "City": "Chicago", "State": "IL", "Zip": "60629", "AddressLine1": "6930 S Pulaski", "AddressLine2": "", "Distance": 0.7, "Latitude": 41.76682, "Longitude": -87.72292}, {"Sequence": 5, "PersonId": 317163, "AddressId": 1657668, "Specialty": "Periodontics", "Photo": "findadentist.ada.org/Images/Profile/ADA.png", "Name": "Dr Loyola M Gleason", "Email": "Lmgleason1@gmail.com", "Phone": "(773) 776-5905", "Address": "5945 S Pulaski Rd Ste 10 Chicago, IL 60629-4550", "City": "Chicago", "State": "IL", "Zip": "60629-4550", "AddressLine1": "5945 S Pulaski Rd Ste 10", "AddressLine2": "", "Distance": 1.0, "Latitude": 41.78465, "Longitude": -87.72256}, {"Sequence": 6, "PersonId": 317125, "AddressId": 3507578, "Specialty": "Endodontics", "Photo": "findadentist.ada.org/Images/Profile/ADA.png", "Name": "Dr Richard A Pasiewicz", "Email": "rapasiewicz@gmail.com", "Phone": "(773) 776-5905", "Address": "5945 S Pulaski Rd Ste 10 Chicago, IL 60629-4550", "City": "Chicago", "State": "IL", "Zip": "60629-4550", "AddressLine1": "5945 S Pulaski Rd Ste 10", "AddressLine2": "", "Distance": 1.0, "Latitude": 41.78465, "Longitude": -87.72255}, {"Sequence": 7, "PersonId": 120442, "AddressId": 1460947, "Specialty": "General Practice", "Photo": "findadentist.ada.org/Images/Profile/ADA.png", "Name": "Dr Frank J Gasior", "Email": "", "Phone": "(773) 581-4627", "Address": "6820 S Pulaski Rd Chicago, IL 60629-4121", "City": "Chicago", "State": "IL", "Zip": "60629-4121", "AddressLine1": "6820 S Pulaski Rd", "AddressLine2": "", "Distance": 0.6, "Latitude": 41.76881, "Longitude": -87.72277}, {"Sequence": 8, "PersonId": 317743, "AddressId": 1658248, "Specialty": "General Practice", "Photo": "findadentist.ada.org/Images/Profile/ADA.png", "Name": "Dr Stanley J Kapelanski", "Email": "", "Phone": "(773) 585-8286", "Address": "5736 S Pulaski Rd Chicago, IL 60629-4437", "City": "Chicago", "State": "IL", "Zip": "60629-4437", "AddressLine1": "5736 S Pulaski Rd", "AddressLine2": "", "Distance": 1.2, "Latitude": 41.78846, "Longitude": -87.7234}, {"Sequence": 9, "PersonId": 313755, "AddressId": 1654260, "Specialty": "General Practice", "Photo": "findadentist.ada.org/Images/Profile/ADA.png", "Name": "Dr Douglas E Jensen", "Email": "", "Phone": "(773) 735-4434", "Address": "5540 S Pulaski Rd Chicago, IL 60629-4418", "City": "Chicago", "State": "IL", "Zip": "60629-4418", "AddressLine1": "5540 S Pulaski Rd", "AddressLine2": "", "Distance": 1.4, "Latitude": 41.79196, "Longitude": -87.72351}]