[{"Sequence": 1, "PersonId": 30370, "AddressId": 1370875, "Specialty": "General Practice", "Photo": "findadentist.ada.org/Images/Profile/30370-Dr-Fariba-Kalantari.png", "Name": "Dr Fariba Kalantari", "Email": "famous@hollywooddentalcare.com", "Phone": "(323) 461-4676", "Address": "6464 W Sunset Blvd Ste 1080 Los Angeles, CA 90028-8020", "City": "Los Angeles", "State": "CA", "Zip": "90028-8020", "AddressLine1": "6464 W Sunset Blvd Ste 1080", "AddressLine2": "", "Distance": 0.2, "Latitude": 34.09763, "Longitude": -118.3313}, {"Sequence": 2, "PersonId": 142015, "AddressId": 1482520, "Specialty": "General Practice", "Photo": "findadentist.ada.org/Images/Profile/142015-Dr-Arnold-Rifman.png", "Name": "Dr. Arnold Rifman", "Email": "", "Phone": "(323) 466-2937", "Address": "6234 Fountain Ave Los Angeles, CA 90028-8214", "City": "Los Angeles", "State": "CA", "Zip": "90028-8214", "AddressLine1": "6234 Fountain Ave", "AddressLine2": "", "Distance": 0.3, "Latitude": 34.09402, "Longitude": -118.32556}, {"Sequence": 3, "PersonId": 280218, "AddressId": 1620723, "Specialty": "General Practice", "Photo": "findadentist.ada.org/Images/Profile/280218-Dr-Francisco-Ilem.png", "Name": "Dr Francisco L Ilem", "Email": "", "Phone": "(323) 464-0489", "Address": "1253 Vine St Ste 18 Los Angeles, CA 90038-1662", "City": "Los Angeles", "State": "CA", "Zip": "90038-1662", "AddressLine1": "1253 Vine St Ste 18", "AddressLine2": "", "Distance": 0.3, "Latitude": 34.09401, "Longitude": -118.32759}, {"Sequence": 4, "PersonId": 216322, "AddressId": 1556827, "Specialty": "General Practice", "Photo": "findadentist.ada.org/Images/Profile/216322-Dr-Millie-Chung.png", "Name": "Dr. Millie Chung", "Email": "milliechung23@yahoo.com", "Phone": "(718) 383-1160", "Address": "5535 Hollywood Blvd Los Angeles, CA 90028-6807", "City": "Los Angeles", "State": "CA", "Zip": "90028-6807", "AddressLine1": "5535 Hollywood Blvd", "AddressLine2": "", "Distance": 1.0, "Latitude": 34.10197, "Longitude": -118.31053}, {"Sequence": 5, "PersonId": 188120, "AddressId": 2715900, "Specialty": "General Practice", "Photo": "findadentist.ada.org/Images/Profile/188120-Dr-Yosi-Behroozan.png", "Name": "Dr. Yosi P Behroozan", "Email": "", "Phone": "(323) 463-7252", "Address": "5255 W Sunset Blvd Los Angeles, CA 90027-5716", "City": "Los Angeles", "State": "CA", "Zip": "90027-5716", "AddressLine1": "5255 W Sunset Blvd", "AddressLine2": "", "Distance": 1.3, "Latitude": 34.09832, "Longitude": -118.30479}, {"Sequence": 6, "PersonId": 280444, "AddressId": 1620949, "Specialty": "General Practice", "Photo": "findadentist.ada.org/Images/Profile/280444-Dr-Arthur A.-Kezian.png", "Name": "Dr. Arthur A. Kezian DDS", "Email": "", "Phone": "(323) 467-2777", "Address": "443 N Larchmont Blvd Los Angeles, CA 90004-3073", "City": "Los Angeles", "State": "CA", "Zip": "90004-3073", "AddressLine1": "443 N Larchmont Blvd", "AddressLine2": "", "Distance": 1.3, "Latitude": 34.07879, "Longitude": -118.32398}, {"Sequence": 7, "PersonId": 133865, "AddressId": 2690789, "Specialty": "Periodontics", "Photo": "findadentist.ada.org/Images/Profile/133865-Dr-Sam-Markzar.png", "Name": "Dr. Sam S Markzar", "Email": "", "Phone": null, "Address": "321 N Larchmont Blvd Ste 721 Los Angeles, CA 90004-6407", "City": "Los Angeles", "State": "CA", "Zip": "90004-6407", "AddressLine1": "321 N Larchmont Blvd Ste 721", "AddressLine2": "", "Distance": 1.4, "Latitude": 34.07701, "Longitude": -118.32395}, {"Sequence": 8, "PersonId": 133127, "AddressId": 1473632, "Specialty": "Oral and Maxillofacial Surgery", "Photo": "findadentist.ada.org/Images/Profile/133127-Dr-Kevin-Lew.png", "Name": "Dr. Kevin E Lew", "Email": "INFO@KEVINLEWDDSMD.COM", "Phone": "(323) 465-6451", "Address": "321 N Larchmont Blvd Ste 617 Los Angeles, CA 90004-6406", "City": "Los Angeles", "State": "CA", "Zip": "90004-6406", "AddressLine1": "321 N Larchmont Blvd Ste 617", "AddressLine2": "", "Distance": 1.4, "Latitude": 34.07701, "Longitude": -118.32395}, {"Sequence": 9, "PersonId": 197911, "AddressId": 1538416, "Specialty": "Orthodontics and Dentofacial Orthopedics", "Photo": "findadentist.ada.org/Images/Profile/197911-Dr-Luis-Martines.png", "Name": "Dr. Luis E Martines", "Email": "", "Phone": "(323) 465-7100", "Address": "321 N Larchmont Blvd Ste 405 Los Angeles, CA 90004-6404", "City": "Los Angeles", "State": "CA", "Zip": "90004-6404", "AddressLine1": "321 N Larchmont Blvd Ste 405", "AddressLine2": "", "Distance": 1.4, "Latitude": 34.07701, "Longitude": -118.32395}, {"Sequence": 10, "PersonId": 241460, "AddressId": 3160610, "Specialty": "General Practice", "Photo": "findadentist.ada.org/Images/Profile/241460-Dr-Gloria-Geller.png", "Name": "Dr. Gloria G Geller", "Email": "info@gellerdentistry.com", "Phone": "(323) 467-1472", "Address": "402 N Larchmont Blvd Los Angeles, CA 90004-3014", "City": "Los Angeles", "State": "CA", "Zip": "90004-3014", "AddressLine1": "402 N Larchmont Blvd", "AddressLine2": "", "Distance": 1.4, "Latitude": 34.0777, "Longitude": -118.32334}, {"Sequence": 11, "PersonId": 279866, "AddressId": 1620371, "Specialty": "General Practice", "Photo": "findadentist.ada.org/Images/Profile/279866-Dr-Shervin-Louie.png", "Name": "Dr Shervin M Louie", "Email": "", "Phone": "(323) 461-9353", "Address": "321 N Larchmont Blvd Ste 1010 Los Angeles, CA 90004-6410", "City": "Los Angeles", "State": "CA", "Zip": "90004-6410", "AddressLine1": "321 N Larchmont Blvd Ste 1010", "AddressLine2": "", "Distance": 1.4, "Latitude": 34.07701, "Longitude": -118.32395}, {"Sequence": 12, "PersonId": 280260, "AddressId": 3565198, "Specialty": "General Practice", "Photo": "findadentist.ada.org/Images/Profile/280260-Dr-Virginia-Castelo.png", "Name": "Dr Virginia C Castelo", "Email": "", "Phone": "(323) 666-3852", "Address": "5250 Santa Monica Blvd Ste 211 Los Angeles, CA 90029-1254", "City": "Los Angeles", "State": "CA", "Zip": "90029-1254", "AddressLine1": "5250 Santa Monica Blvd Ste 211", "AddressLine2": "", "Distance": 1.4, "Latitude": 34.09056, "Longitude": -118.30494}, {"Sequence": 13, "PersonId": 290283, "AddressId": 3411381, "Specialty": "General Practice", "Photo": "findadentist.ada.org/Images/Profile/290283-Dr-Marcelo-Moncada.png", "Name": "Dr Marcelo G Moncada", "Email": "", "Phone": "(323) 663-7897", "Address": "5250 Santa Monica Blvd Ste 304 Los Angeles, CA 90029-1255", "City": "Los Angeles", "State": "CA", "Zip": "90029-1255", "AddressLine1": "5250 Santa Monica Blvd Ste 304", "AddressLine2": "", "Distance": 1.4, "Latitude": 34.09056, "Longitude": -118.30494}, {"Sequence": 14, "PersonId": 279697, "AddressId": 1620202, "Specialty": "General Practice", "Photo": "findadentist.ada.org/Images/Profile/279697-Dr-Timothy-Gogan.png", "Name": "Dr Timothy C Gogan", "Email": "larchmonttim@yahoo.com", "Phone": "(323) 469-6269", "Address": "321 N Larchmont Blvd Ste 714 Los Angeles, CA 90004-6407", "City": "Los Angeles", "State": "CA", "Zip": "90004-6407", "AddressLine1": "321 N Larchmont Blvd Ste 714", "AddressLine2": null, "Distance": 1.5, "Latitude": 34.07687, "Longitude": -118.32401}, {"Sequence": 15, "PersonId": 279739, "AddressId": 3571156, "Specialty": "General Practice", "Photo": "findadentist.ada.org/Images/Profile/279739-Dr-Sylva-Bezian D.D.S..png", "Name": "Dr Sylva T Bezian D.D.S.", "Email": "", "Phone": "(323) 957-5100", "Address": "321 N Larchmont Bl., Ste. 517 Los Angeles, CA 90004-3049", "City": "Los Angeles", "State": "CA", "Zip": "90004-3049", "AddressLine1": "321 N Larchmont Bl., Ste. 517", "AddressLine2": "", "Distance": 1.5, "Latitude": 34.07687, "Longitude": -118.32401}, {"Sequence": 16, "PersonId": 280199, "AddressId": 1620704, "Specialty": "General Practice", "Photo": "findadentist.ada.org/Images/Profile/280199-Dr-Haroutune-Ajdaharian.png", "Name": "Dr Haroutune Ajdaharian", "Email": "", "Phone": "(323) 665-5423", "Address": "5101 Santa Monica Blvd Ste 15 Los Angeles, CA 90029-2481", "City": "Los Angeles", "State": "CA", "Zip": "90029-2481", "AddressLine1": "5101 Santa Monica Blvd Ste 15", "AddressLine2": "", "Distance": 1.6, "Latitude": 34.09117, "Longitude": -118.30089}, {"Sequence": 17, "PersonId": 191074, "AddressId": 3477058, "Specialty": "General Practice", "Photo": "findadentist.ada.org/Images/Profile/191074-Dr-George-Lim.png", "Name": "Dr. George D Lim", "Email": "culverdentist@georgelimdental.com", "Phone": "(323) 953-0505", "Address": "1551 N Vermont Ave Los Angeles, CA 90027-5330", "City": "Los Angeles", "State": "CA", "Zip": "90027-5330", "AddressLine1": "1551 N Vermont Ave", "AddressLine2": "", "Distance": 2.0, "Latitude": 34.09987, "Longitude": -118.29257}, {"Sequence": 18, "PersonId": 233197, "AddressId": 1573702, "Specialty": "General Practice", "Photo": "findadentist.ada.org/Images/Profile/233197-Dr-Jonathan-Arias.png", "Name": "Dr. Jonathan Arias", "Email": "", "Phone": "(310) 470-7220", "Address": "1901 Solar Dr Ste 175 West Hollywood, CA 90069", "City": "West Hollywood", "State": "CA", "Zip": "90069", "AddressLine1": "1901 Solar Dr Ste 175", "AddressLine2": "", "Distance": 2.0, "Latitude": 34.11379, "Longitude": -118.35648}, {"Sequence": 19, "PersonId": 249367, "AddressId": 3477111, "Specialty": "General Practice", "Photo": "findadentist.ada.org/Images/Profile/249367-Dr-Ramon-Balane.png", "Name": "Dr. Ramon C Balane", "Email": "culverdentist@georgelimdental.com", "Phone": "(323) 953-0505", "Address": "1551 N Vermont Ave Los Angeles, CA 90027-5330", "City": "Los Angeles", "State": "CA", "Zip": "90027-5330", "AddressLine1": "1551 N Vermont Ave", "AddressLine2": "", "Distance": 2.0, "Latitude": 34.0999, "Longitude": -118.29263}, {"Sequence": 20, "PersonId": 343814, "AddressId": 3477078, "Specialty": "General Practice", "Photo": "findadentist.ada.org/Images/Profile/343814-Dr-Shanna-Lim.png", "Name": "Dr. Shanna Lim", "Email": "culverdentist@georgelimdental.com", "Phone": "(323) 953-0505", "Address": "1551 N Vermont Ave Los Angeles, CA 90027-5330", "City": "Los Angeles", "State": "CA", "Zip": "90027-5330", "AddressLine1": "1551 N Vermont Ave", "AddressLine2": "", "Distance": 2.0, "Latitude": 34.09987, "Longitude": -118.29257}, {"Sequence": 21, "PersonId": 168858, "AddressId": 1509363, "Specialty": "General Practice", "Photo": "findadentist.ada.org/Images/Profile/168858-Dr-Alina-Oganyan.png", "Name": "Dr. Alina Oganyan", "Email": "", "Phone": "(323) 644-3366", "Address": "1727 N Vermont Ave Ste 109 Los Angeles, CA 90027-4343", "City": "Los Angeles", "State": "CA", "Zip": "90027-4343", "AddressLine1": "1727 N Vermont Ave Ste 109", "AddressLine2": "", "Distance": 2.1, "Latitude": 34.10255, "Longitude": -118.2922}, {"Sequence": 22, "PersonId": 207820, "AddressId": 1548325, "Specialty": "General Practice", "Photo": "findadentist.ada.org/Images/Profile/207820-Dr-Marissa-Lagusay Templo.png", "Name": "Dr. Marissa Lagusay Templo", "Email": "DrLagusay@gmail.com", "Phone": "(213) 384-5902", "Address": "3940 1/2 Beverly Blvd Los Angeles, CA 90004-3434", "City": "Los Angeles", "State": "CA", "Zip": "90004-3434", "AddressLine1": "3940 1/2 Beverly Blvd", "AddressLine2": "", "Distance": 2.2, "Latitude": 34.07647, "Longitude": -118.29987}, {"Sequence": 23, "PersonId": 206376, "AddressId": 2761155, "Specialty": "General Practice", "Photo": "findadentist.ada.org/Images/Profile/206376-Dr-Jessica-Tsai.png", "Name": "Dr. Jessica I Tsai", "Email": "", "Phone": "(213) 385-8242", "Address": "258 S Oxford Ave Ste 101 Los Angeles, CA 90004-5172", "City": "Los Angeles", "State": "CA", "Zip": "90004-5172", "AddressLine1": "258 S Oxford Ave Ste 101", "AddressLine2": "", "Distance": 2.3, "Latitude": 34.06944, "Longitude": -118.3074}, {"Sequence": 24, "PersonId": 206376, "AddressId": 2761155, "Specialty": "General Practice", "Photo": "findadentist.ada.org/Images/Profile/206376-Dr-Jessica-Tsai.png", "Name": "Dr. Jessica I Tsai", "Email": "", "Phone": "(949) 786-1383", "Address": "258 S Oxford Ave Ste 101 Los Angeles, CA 90004-5172", "City": "Los Angeles", "State": "CA", "Zip": "90004-5172", "AddressLine1": "258 S Oxford Ave Ste 101", "AddressLine2": "", "Distance": 2.3, "Latitude": 34.06944, "Longitude": -118.3074}, {"Sequence": 25, "PersonId": 217854, "AddressId": 3422547, "Specialty": "General Practice", "Photo": "findadentist.ada.org/Images/Profile/217854-Dr-George-Hanna.png", "Name": "Dr. George J Hanna", "Email": "notoothleftbehind@gmail.com", "Phone": "(323) 660-8088", "Address": "1655 Hillhurst Ave Ste 101 Los Angeles, CA 90027-5577", "City": "Los Angeles", "State": "CA", "Zip": "90027-5577", "AddressLine1": "1655 Hillhurst Ave Ste 101", "AddressLine2": "", "Distance": 2.3, "Latitude": 34.10096, "Longitude": -118.28766}, {"Sequence": 26, "PersonId": 280543, "AddressId": 2770338, "Specialty": "General Practice", "Photo": "findadentist.ada.org/Images/Profile/280543-Dr-Scott Y-Kim.png", "Name": "Dr Scott Y J Kim", "Email": "beverlydentalgroup@gmail.com", "Phone": "(213) 387-5570", "Address": "4220 W 3rd St Ste 101 Los Angeles, CA 90020-3450", "City": "Los Angeles", "State": "CA", "Zip": "90020-3450", "AddressLine1": "4220 W 3rd St Ste 101", "AddressLine2": "", "Distance": 2.3, "Latitude": 34.06875, "Longitude": -118.30625}, {"Sequence": 27, "PersonId": 207706, "AddressId": 1548211, "Specialty": "General Practice", "Photo": "findadentist.ada.org/Images/Profile/207706-Dr-Rudell-Jacinto.png", "Name": "Dr. Rudell G Jacinto", "Email": "", "Phone": null, "Address": "5001 Wilshire Blvd Ste 212 Los Angeles, CA 90036-6104", "City": "Los Angeles", "State": "CA", "Zip": "90036-6104", "AddressLine1": "5001 Wilshire Blvd Ste 212", "AddressLine2": null, "Distance": 2.5, "Latitude": 34.06253, "Longitude": -118.33915}, {"Sequence": 28, "PersonId": 242929, "AddressId": 3479283, "Specialty": "Pediatric Dentistry", "Photo": "findadentist.ada.org/Images/Profile/242929-Dr-Daniel-Klein.png", "Name": "Dr. Daniel M Klein", "Email": "info@signaturesmilesaz.com", "Phone": "(323) 471-4250", "Address": "5001 Wilshire Blvd Ste 209 Los Angeles, CA 90036-6104", "City": "Los Angeles", "State": "CA", "Zip": "90036-6104", "AddressLine1": "5001 Wilshire Blvd Ste 209", "AddressLine2": "", "Distance": 2.5, "Latitude": 34.06253, "Longitude": -118.33915}, {"Sequence": 29, "PersonId": 127668, "AddressId": 3406756, "Specialty": "General Practice", "Photo": "findadentist.ada.org/Images/Profile/127668-Dr-Martin-Allaire.png", "Name": "Dr. Martin P Allaire", "Email": "Office@AllaireDentalCare.com", "Phone": "(323) 988-8021", "Address": "5757 Wilshire Blvd Ste 360 Los Angeles, CA 90036-3683", "City": "Los Angeles", "State": "CA", "Zip": "90036-3683", "AddressLine1": "5757 Wilshire Blvd Ste 360", "AddressLine2": "", "Distance": 2.6, "Latitude": 34.06648, "Longitude": -118.35204}, {"Sequence": 30, "PersonId": 194890, "AddressId": 1535395, "Specialty": "Dental Public Health", "Photo": "findadentist.ada.org/Images/Profile/194890-Dr-Abraham-Nobel.png", "Name": "Abraham Nobel", "Email": "nobel.dds@gmail.com", "Phone": "(213) 386-7173", "Address": "3851 W 6th St Los Angeles, CA 90020-3937", "City": "Los Angeles", "State": "CA", "Zip": "90020-3937", "AddressLine1": "3851 W 6th St", "AddressLine2": "", "Distance": 2.6, "Latitude": 34.06369, "Longitude": -118.30689}, {"Sequence": 31, "PersonId": 191074, "AddressId": 3477061, "Specialty": "General Practice", "Photo": "findadentist.ada.org/Images/Profile/191074-Dr-George-Lim.png", "Name": "Dr. George D Lim", "Email": "culverdentist@georgelimdental.com", "Phone": "(323) 951-0814", "Address": "401 S Fairfax Ave Los Angeles, CA 90036-3133", "City": "Los Angeles", "State": "CA", "Zip": "90036-3133", "AddressLine1": "401 S Fairfax Ave", "AddressLine2": "", "Distance": 2.7, "Latitude": 34.06981, "Longitude": -118.36164}, {"Sequence": 32, "PersonId": 233965, "AddressId": 2743477, "Specialty": "General Practice", "Photo": "findadentist.ada.org/Images/Profile/233965-Dr-Fred-Chun.png", "Name": "Dr. Fred Chun", "Email": "info@hapybear.com", "Phone": null, "Address": "3807 Wilshire Blvd Ste 801 Los Angeles, CA 90010-3111", "City": "Los Angeles", "State": "CA", "Zip": "90010-3111", "AddressLine1": "3807 Wilshire Blvd Ste 801", "AddressLine2": "", "Distance": 2.7, "Latitude": 34.06202, "Longitude": -118.30946}, {"Sequence": 33, "PersonId": 249367, "AddressId": 3477117, "Specialty": "General Practice", "Photo": "findadentist.ada.org/Images/Profile/249367-Dr-Ramon-Balane.png", "Name": "Dr. Ramon C Balane", "Email": "culverdentist@georgelimdental.com", "Phone": "(323) 951-0814", "Address": "401 S Fairfax Ave Los Angeles, CA 90036-3133", "City": "Los Angeles", "State": "CA", "Zip": "90036-3133", "AddressLine1": "401 S Fairfax Ave", "AddressLine2": "", "Distance": 2.7, "Latitude": 34.06974, "Longitude": -118.36172}, {"Sequence": 34, "PersonId": 279776, "AddressId": 1620281, "Specialty": "General Practice", "Photo": "findadentist.ada.org/Images/Profile/279776-Dr-Gregory-Kaplan.png", "Name": "Dr Gregory D Kaplan", "Email": "wilshiredental@aol.com", "Phone": "(213) 386-3336", "Address": "3932 Wilshire Blvd Ste 100 Los Angeles, CA 90010-3307", "City": "Los Angeles", "State": "CA", "Zip": "90010-3307", "AddressLine1": "3932 Wilshire Blvd Ste 100", "AddressLine2": "", "Distance": 2.7, "Latitude": 34.06135, "Longitude": -118.31239}, {"Sequence": 35, "PersonId": 280355, "AddressId": 1620860, "Specialty": "General Practice", "Photo": "findadentist.ada.org/Images/Profile/280355-Dr-Terri-Rogers.png", "Name": "Dr Terri L Rogers", "Email": "", "Phone": "(213) 386-3336", "Address": "3932 Wilshire Blvd Ste 100 Los Angeles, CA 90010-3307", "City": "Los Angeles", "State": "CA", "Zip": "90010-3307", "AddressLine1": "3932 Wilshire Blvd Ste 100", "AddressLine2": "", "Distance": 2.7, "Latitude": 34.06133, "Longitude": -118.31236}, {"Sequence": 36, "PersonId": 286200, "AddressId": 2760891, "Specialty": "General Practice", "Photo": "findadentist.ada.org/Images/Profile/286200-Dr-Hak-Cheon-Kim.png", "Name": "Dr Hak-Cheon Kim", "Email": "", "Phone": "(323) 930-4600", "Address": "5455 Wilshire Blvd Ste 850 Los Angeles, CA 90036-4234", "City": "Los Angeles", "State": "CA", "Zip": "90036-4234", "AddressLine1": "5455 Wilshire Blvd Ste 850", "AddressLine2": "", "Distance": 2.7, "Latitude": 34.0627, "Longitude": -118.34754}, {"Sequence": 37, "PersonId": 343814, "AddressId": 3477081, "Specialty": "General Practice", "Photo": "findadentist.ada.org/Images/Profile/343814-Dr-Shanna-Lim.png", "Name": "Dr. Shanna Lim", "Email": "culverdentist@georgelimdental.com", "Phone": "(323) 951-0814", "Address": "401 S Fairfax Ave Los Angeles, CA 90036-3133", "City": "Los Angeles", "State": "CA", "Zip": "90036-3133", "AddressLine1": "401 S Fairfax Ave", "AddressLine2": "", "Distance": 2.7, "Latitude": 34.06981, "Longitude": -118.36164}, {"Sequence": 38, "PersonId": 160563, "AddressId": 1501068, "Specialty": "General Practice", "Photo": "findadentist.ada.org/Images/Profile/160563-Dr-Anthony-Milanez.png", "Name": "Dr. Anthony J Milanez", "Email": "", "Phone": "(323) 931-9019", "Address": "5757 Wilshire Blvd Ste 350 Los Angeles, CA 90036-3600", "City": "Los Angeles", "State": "CA", "Zip": "90036-3600", "AddressLine1": "5757 Wilshire Blvd Ste 350", "AddressLine2": null, "Distance": 2.8, "Latitude": 34.06271, "Longitude": -118.35391}, {"Sequence": 39, "PersonId": 193969, "AddressId": 1534474, "Specialty": "General Practice", "Photo": "findadentist.ada.org/Images/Profile/193969-Dr-Min-Do.png", "Name": "Dr. Min C Do", "Email": "", "Phone": "(213) 384-2121", "Address": "3663 W 6th St Ste 303 Los Angeles, CA 90020-3050", "City": "Los Angeles", "State": "CA", "Zip": "90020-3050", "AddressLine1": "3663 W 6th St Ste 303", "AddressLine2": "", "Distance": 2.8, "Latitude": 34.06383, "Longitude": -118.302}, {"Sequence": 40, "PersonId": 194015, "AddressId": 1534520, "Specialty": "Endodontics", "Photo": "findadentist.ada.org/Images/Profile/194015-Dr-Mindo-Lee.png", "Name": "Dr. Mindo Lee", "Email": "smile@pacifichighlandsdentistry.com", "Phone": "(213) 388-3636", "Address": "3663 W 6th St Ste 204 Los Angeles, CA 90020-3048", "City": "Los Angeles", "State": "CA", "Zip": "90020-3048", "AddressLine1": "3663 W 6th St Ste 204", "AddressLine2": "", "Distance": 2.8, "Latitude": 34.0638, "Longitude": -118.302}, {"Sequence": 41, "PersonId": 211963, "AddressId": 2759345, "Specialty": "Orthodontics and Dentofacial Orthopedics", "Photo": "findadentist.ada.org/Images/Profile/211963-Dr-Doil-Kim.png", "Name": "Dr. Doil Kim", "Email": "info@enhancedentist.com", "Phone": "(213) 383-2080", "Address": "3663 W 6th St Ste 207 Los Angeles, CA 90020-3048", "City": "Los Angeles", "State": "CA", "Zip": "90020-3048", "AddressLine1": "3663 W 6th St Ste 207", "AddressLine2": "", "Distance": 2.8, "Latitude": 34.0638, "Longitude": -118.302}, {"Sequence": 42, "PersonId": 212919, "AddressId": 1553424, "Specialty": "Pediatric Dentistry", "Photo": "findadentist.ada.org/Images/Profile/212919-Dr-Helen-Do.png", "Name": "Dr. Helen H Do", "Email": "", "Phone": "(213) 384-2121", "Address": "3663 W 6th St Ste 303 Los Angeles, CA 90020-3050", "City": "Los Angeles", "State": "CA", "Zip": "90020-3050", "AddressLine1": "3663 W 6th St Ste 303", "AddressLine2": "", "Distance": 2.8, "Latitude": 34.0638, "Longitude": -118.302}, {"Sequence": 43, "PersonId": 222015, "AddressId": 1562520, "Specialty": "Orthodontics and Dentofacial Orthopedics", "Photo": "findadentist.ada.org/Images/Profile/222015-Dr-Donald-Kwon.png", "Name": "Dr. Donald T Kwon", "Email": "office@kwonorthodontics.com", "Phone": "(818) 749-8880", "Address": "3700 Wilshire Blvd Ste 400 Los Angeles, CA 90010-2905", "City": "Los Angeles", "State": "CA", "Zip": "90010-2905", "AddressLine1": "3700 Wilshire Blvd Ste 400", "AddressLine2": "", "Distance": 2.8, "Latitude": 34.06055, "Longitude": -118.30723}, {"Sequence": 44, "PersonId": 265042, "AddressId": 1605547, "Specialty": "General Practice", "Photo": "findadentist.ada.org/Images/Profile/265042-Dr-Mitchell-Levitt.png", "Name": "Dr. Mitchell Levitt", "Email": "INFO@MitchellLevittDDS.COM", "Phone": "(323) 934-9588", "Address": "5757 Wilshire Blvd Ste 559 Los Angeles, CA 90036-3683", "City": "Los Angeles", "State": "CA", "Zip": "90036-3683", "AddressLine1": "5757 Wilshire Blvd Ste 559", "AddressLine2": "", "Distance": 2.8, "Latitude": 34.06271, "Longitude": -118.35391}, {"Sequence": 45, "PersonId": 279731, "AddressId": 1620236, "Specialty": "Orthodontics and Dentofacial Orthopedics", "Photo": "findadentist.ada.org/Images/Profile/279731-Dr-Joong-Kwon.png", "Name": "Dr Joong G Kwon", "Email": "kwonortho@yahoo.com", "Phone": "(213) 739-8678", "Address": "3700 Wilshire Blvd Ste 400 Los Angeles, CA 90010-2905", "City": "Los Angeles", "State": "CA", "Zip": "90010-2905", "AddressLine1": "3700 Wilshire Blvd Ste 400", "AddressLine2": "", "Distance": 2.8, "Latitude": 34.06055, "Longitude": -118.30723}, {"Sequence": 46, "PersonId": 280425, "AddressId": 1620930, "Specialty": "General Practice", "Photo": "findadentist.ada.org/Images/Profile/280425-Dr-Robert-Jelicich.png", "Name": "Dr Robert L Jelicich", "Email": "rjelicichdds@yahoo.com", "Phone": "(323) 930-2386", "Address": "5670 Wilshire Blvd Ste 1710 Los Angeles, CA 90036-5645", "City": "Los Angeles", "State": "CA", "Zip": "90036-5645", "AddressLine1": "5670 Wilshire Blvd Ste 1710", "AddressLine2": null, "Distance": 2.8, "Latitude": 34.06201, "Longitude": -118.35216}, {"Sequence": 47, "PersonId": 280469, "AddressId": 1620974, "Specialty": "Endodontics", "Photo": "findadentist.ada.org/Images/Profile/280469-Dr-Phillip-Min.png", "Name": "Dr Phillip S Min", "Email": "psmendo@yahoo.com", "Phone": "(213) 383-6363", "Address": "3660 Wilshire Blvd Ste 748 Los Angeles, CA 90010-2763", "City": "Los Angeles", "State": "CA", "Zip": "90010-2763", "AddressLine1": "3660 Wilshire Blvd Ste 748", "AddressLine2": null, "Distance": 2.8, "Latitude": 34.06121, "Longitude": -118.30501}, {"Sequence": 48, "PersonId": 291825, "AddressId": 2727059, "Specialty": "Orthodontics and Dentofacial Orthopedics", "Photo": "findadentist.ada.org/Images/Profile/291825-Dr-Scott-Moon.png", "Name": "Dr Scott D Moon", "Email": "", "Phone": "(213) 384-2500", "Address": "3663 W 6th St Ste 207 Los Angeles, CA 90020-3048", "City": "Los Angeles", "State": "CA", "Zip": "90020-3048", "AddressLine1": "3663 W 6th St Ste 207", "AddressLine2": "", "Distance": 2.8, "Latitude": 34.0638, "Longitude": -118.302}, {"Sequence": 49, "PersonId": 279878, "AddressId": 2770307, "Specialty": "General Practice", "Photo": "findadentist.ada.org/Images/Profile/279878-Dr-Kristy-Bae.png", "Name": "Dr Kristy H Bae", "Email": "msla@emiraclesmile.com", "Phone": "(323) 932-7020", "Address": "5850 Wilshire Blvd Los Angeles, CA 90036-4522", "City": "Los Angeles", "State": "CA", "Zip": "90036-4522", "AddressLine1": "5850 Wilshire Blvd", "AddressLine2": "", "Distance": 2.9, "Latitude": 34.06221, "Longitude": -118.35615}, {"Sequence": 50, "PersonId": 280282, "AddressId": 1620787, "Specialty": "General Practice", "Photo": "findadentist.ada.org/Images/Profile/280282-Dr-Valery-Sweeny.png", "Name": "Dr Valery Sweeny", "Email": "info@valerysweenydds.com", "Phone": "(323) 669-0339", "Address": "3706 W Sunset Blvd Los Angeles, CA 90026-1528", "City": "Los Angeles", "State": "CA", "Zip": "90026-1528", "AddressLine1": "3706 W Sunset Blvd", "AddressLine2": "", "Distance": 2.9, "Latitude": 34.09038, "Longitude": -118.27825}, {"Sequence": 51, "PersonId": 288667, "AddressId": 3474114, "Specialty": "General Practice", "Photo": "findadentist.ada.org/Images/Profile/288667-Dr-Johnny-Kim.png", "Name": "Dr Johnny Kim", "Email": "", "Phone": "(323) 934-2804", "Address": "936 Crenshaw Blvd Ste 101 Los Angeles, CA 90019-1948", "City": "Los Angeles", "State": "CA", "Zip": "90019-1948", "AddressLine1": "936 Crenshaw Blvd Ste 101", "AddressLine2": "", "Distance": 2.9, "Latitude": 34.05517, "Longitude": -118.32236}, {"Sequence": 52, "PersonId": 149293, "AddressId": 2743989, "Specialty": "Periodontics", "Photo": "findadentist.ada.org/Images/Profile/149293-Dr-Pilseong-Kim.png", "Name": "Dr. Pilseong Kim", "Email": "", "Phone": "(213) 383-5151", "Address": "3440 Wilshire Blvd Ste 515 Los Angeles, CA 90010-2129", "City": "Los Angeles", "State": "CA", "Zip": "90010-2129", "AddressLine1": "3440 Wilshire Blvd Ste 515", "AddressLine2": "", "Distance": 3.0, "Latitude": 34.06115, "Longitude": -118.29909}, {"Sequence": 53, "PersonId": 193116, "AddressId": 2771140, "Specialty": "General Practice", "Photo": "findadentist.ada.org/Images/Profile/193116-Dr-Tricia-Feist.png", "Name": "Dr. Tricia S Feist", "Email": "info@smbaydental.com", "Phone": "(323) 330-1608", "Address": "8405 Beverly Blvd Los Angeles, CA 90048-3401", "City": "Los Angeles", "State": "CA", "Zip": "90048-3401", "AddressLine1": "8405 Beverly Blvd", "AddressLine2": "", "Distance": 3.0, "Latitude": 34.07635, "Longitude": -118.37341}, {"Sequence": 54, "PersonId": 205058, "AddressId": 1545563, "Specialty": "Endodontics", "Photo": "findadentist.ada.org/Images/Profile/205058-Dr-Jinhyuk-Lee.png", "Name": "Dr. Jinhyuk Lee", "Email": "office@purityendo.com", "Phone": "(213) 365-0200", "Address": "3460 Wilshire Blvd Ste 1007 Los Angeles, CA 90010-2232", "City": "Los Angeles", "State": "CA", "Zip": "90010-2232", "AddressLine1": "3460 Wilshire Blvd Ste 1007", "AddressLine2": null, "Distance": 3.0, "Latitude": 34.06131, "Longitude": -118.30004}, {"Sequence": 55, "PersonId": 213245, "AddressId": 1553750, "Specialty": "Orthodontics and Dentofacial Orthopedics", "Photo": "findadentist.ada.org/Images/Profile/213245-Dr-Audrey-Yoon.png", "Name": "Dr. Audrey S Yoon", "Email": "jungdds@gmail.com", "Phone": "(213) 383-3460", "Address": "3460 Wilshire Blvd Ste 104 Los Angeles, CA 90010-2221", "City": "Los Angeles", "State": "CA", "Zip": "90010-2221", "AddressLine1": "3460 Wilshire Blvd Ste 104", "AddressLine2": "", "Distance": 3.0, "Latitude": 34.06131, "Longitude": -118.30004}, {"Sequence": 56, "PersonId": 279630, "AddressId": 1620135, "Specialty": "General Practice", "Photo": "findadentist.ada.org/Images/Profile/279630-Dr-Mark-Laska.png", "Name": "Dr Mark S Laska", "Email": "info@midwilshiredenistry.com", "Phone": "(213) 386-3348", "Address": "3460 Wilshire Blvd Ste 210 Los Angeles, CA 90010-2226", "City": "Los Angeles", "State": "CA", "Zip": "90010-2226", "AddressLine1": "3460 Wilshire Blvd Ste 210", "AddressLine2": null, "Distance": 3.0, "Latitude": 34.06131, "Longitude": -118.30004}, {"Sequence": 57, "PersonId": 236666, "AddressId": 1577171, "Specialty": "General Practice", "Photo": "findadentist.ada.org/Images/Profile/236666-Dr-Jose Alexie-Aguil.png", "Name": "Dr. Jose Alexie Aguil", "Email": "info@exquisitedentistryla.com", "Phone": "(323) 272-2388", "Address": "6227 Wilshire Blvd Los Angeles, CA 90048-5103", "City": "Los Angeles", "State": "CA", "Zip": "90048-5103", "AddressLine1": "6227 Wilshire Blvd", "AddressLine2": "", "Distance": 3.1, "Latitude": 34.06357, "Longitude": -118.36421}, {"Sequence": 58, "PersonId": 145755, "AddressId": 2743951, "Specialty": "Endodontics", "Photo": "findadentist.ada.org/Images/Profile/145755-Dr-Samantha-Besser.png", "Name": "Dr. Samantha R Besser", "Email": "personaldentaloffice@gmail.com", "Phone": "(323) 933-4444", "Address": "6222 Wilshire Blvd Ste 103 Los Angeles, CA 90048-5100", "City": "Los Angeles", "State": "CA", "Zip": "90048-5100", "AddressLine1": "6222 Wilshire Blvd Ste 103", "AddressLine2": "", "Distance": 3.2, "Latitude": 34.06294, "Longitude": -118.36429}, {"Sequence": 59, "PersonId": 150790, "AddressId": 1491295, "Specialty": "General Practice", "Photo": "findadentist.ada.org/Images/Profile/150790-Dr-Rosita-Rayhan.png", "Name": "Dr. Rosita Rayhan", "Email": "rayhanmarvizi@yahoo.com", "Phone": "(323) 931-3881", "Address": "6200 Wilshire Blvd Ste 1110 Los Angeles, CA 90048-5812", "City": "Los Angeles", "State": "CA", "Zip": "90048-5812", "AddressLine1": "6200 Wilshire Blvd Ste 1110", "AddressLine2": "", "Distance": 3.2, "Latitude": 34.06285, "Longitude": -118.36367}, {"Sequence": 60, "PersonId": 187118, "AddressId": 1527623, "Specialty": "General Practice", "Photo": "findadentist.ada.org/Images/Profile/187118-Dr-Mark-Treystman.png", "Name": "Dr. Mark S Treystman", "Email": "newcenturydentalgroup@aol.com", "Phone": "(323) 653-5484", "Address": "6333 Wilshire Blvd Ste 207 Los Angeles, CA 90048-5724", "City": "Los Angeles", "State": "CA", "Zip": "90048-5724", "AddressLine1": "6333 Wilshire Blvd Ste 207", "AddressLine2": "", "Distance": 3.2, "Latitude": 34.06385, "Longitude": -118.36638}, {"Sequence": 61, "PersonId": 204139, "AddressId": 1544644, "Specialty": "General Practice", "Photo": "findadentist.ada.org/Images/Profile/204139-Dr-Mehrshad-Shelyan.png", "Name": "Dr. Mehrshad Shelyan", "Email": "smile@forever-smile.com", "Phone": "(323) 634-7004", "Address": "6200 Wilshire Blvd Ste 1604 Los Angeles, CA 90048-5817", "City": "Los Angeles", "State": "CA", "Zip": "90048-5817", "AddressLine1": "6200 Wilshire Blvd Ste 1604", "AddressLine2": null, "Distance": 3.2, "Latitude": 34.06285, "Longitude": -118.36367}, {"Sequence": 62, "PersonId": 214082, "AddressId": 2721516, "Specialty": "General Practice", "Photo": "findadentist.ada.org/Images/Profile/214082-Dr-Sarkis-Damargi.png", "Name": "Dr. Sarkis A Damargi", "Email": "", "Phone": null, "Address": "2650 Griffith Park Blvd Los Angeles, CA 90039-2520", "City": "Los Angeles", "State": "CA", "Zip": "90039-2520", "AddressLine1": "2650 Griffith Park Blvd", "AddressLine2": "Attn Dr Matulian", "Distance": 3.2, "Latitude": 34.10644, "Longitude": -118.27185}, {"Sequence": 63, "PersonId": 218019, "AddressId": 1558524, "Specialty": "General Practice", "Photo": "findadentist.ada.org/Images/Profile/218019-Dr-Katerina-Kleinova.png", "Name": "Dr. Katerina Kleinova", "Email": "DRKLEINOVA@GMAIL.COM", "Phone": "(323) 653-6672", "Address": "6333 Wilshire Blvd Ste 300 Los Angeles, CA 90048-5723", "City": "Los Angeles", "State": "CA", "Zip": "90048-5723", "AddressLine1": "6333 Wilshire Blvd Ste 300", "AddressLine2": "", "Distance": 3.2, "Latitude": 34.06383, "Longitude": -118.36641}, {"Sequence": 64, "PersonId": 222023, "AddressId": 2751168, "Specialty": "General Practice", "Photo": "findadentist.ada.org/Images/Profile/222023-Dr-Donna-Lieu.png", "Name": "Dr. Donna N Lieu", "Email": "donnalieu@gmail.com", "Phone": "(323) 933-9349", "Address": "6200 Wilshire Blvd Los Angeles, CA 90048-5812", "City": "Los Angeles", "State": "CA", "Zip": "90048-5812", "AddressLine1": "6200 Wilshire Blvd", "AddressLine2": "Suite 1109", "Distance": 3.2, "Latitude": 34.06285, "Longitude": -118.36367}, {"Sequence": 65, "PersonId": 230198, "AddressId": 2738209, "Specialty": "General Practice", "Photo": "findadentist.ada.org/Images/Profile/230198-Dr-Leon-Kiraj.png", "Name": "Dr. Leon Kiraj", "Email": "leonkiraj@gmail.com", "Phone": null, "Address": "6333 Wilshire Blvd Ste 505 Los Angeles, CA 90048-5721", "City": "Los Angeles", "State": "CA", "Zip": "90048-5721", "AddressLine1": "6333 Wilshire Blvd Ste 505", "AddressLine2": "", "Distance": 3.2, "Latitude": 34.06383, "Longitude": -118.36641}, {"Sequence": 66, "PersonId": 243094, "AddressId": 3501397, "Specialty": "General Practice", "Photo": "findadentist.ada.org/Images/Profile/243094-Dr-Sherwin-Matian.png", "Name": "Dr. Sherwin Matian", "Email": "", "Phone": "(310) 504-3180", "Address": "8747 Santa Monica Blvd West Hollywood, CA 90069-4507", "City": "West Hollywood", "State": "CA", "Zip": "90069-4507", "AddressLine1": "8747 Santa Monica Blvd", "AddressLine2": "", "Distance": 3.2, "Latitude": 34.08709, "Longitude": -118.3813}, {"Sequence": 67, "PersonId": 260944, "AddressId": 1601449, "Specialty": "General Practice", "Photo": "findadentist.ada.org/Images/Profile/260944-Dr-Kyoung-Kwak.png", "Name": "Dr. Kyoung W Kwak", "Email": "", "Phone": "(323) 731-0707", "Address": "981 S Western Ave. Los Angeles, CA 90006-1080", "City": "Los Angeles", "State": "CA", "Zip": "90006-1080", "AddressLine1": "981 S Western Ave.", "AddressLine2": "Suite 200A", "Distance": 3.2, "Latitude": 34.05323, "Longitude": -118.30941}, {"Sequence": 68, "PersonId": 279695, "AddressId": 2770299, "Specialty": "General Practice", "Photo": "findadentist.ada.org/Images/Profile/279695-Dr-Alan-Joseph.png", "Name": "Dr. Alan S Joseph", "Email": "asjdds@gmail.com", "Phone": "(323) 938-3523", "Address": "6200 Wilshire Blvd Ste 809 Los Angeles, CA 90048-5809", "City": "Los Angeles", "State": "CA", "Zip": "90048-5809", "AddressLine1": "6200 Wilshire Blvd Ste 809", "AddressLine2": "", "Distance": 3.2, "Latitude": 34.06285, "Longitude": -118.36367}, {"Sequence": 69, "PersonId": 279750, "AddressId": 1620255, "Specialty": "General Practice", "Photo": "findadentist.ada.org/Images/Profile/279750-Dr-Daniel-Tamura.png", "Name": "Dr Daniel H Tamura", "Email": "drtamura@danieltamuradds.com", "Phone": "(323) 937-0197", "Address": "6200 Wilshire Blvd Ste 1209 Los Angeles, CA 90048-5813", "City": "Los Angeles", "State": "CA", "Zip": "90048-5813", "AddressLine1": "6200 Wilshire Blvd Ste 1209", "AddressLine2": "", "Distance": 3.2, "Latitude": 34.06285, "Longitude": -118.36367}, {"Sequence": 70, "PersonId": 280505, "AddressId": 1621010, "Specialty": "General Practice", "Photo": "findadentist.ada.org/Images/Profile/280505-Dr-Morel-Fidler.png", "Name": "Dr Morel Fidler", "Email": "", "Phone": "(323) 935-1882", "Address": "6222 Wilshire Blvd Ste 304 Los Angeles, CA 90048-5193", "City": "Los Angeles", "State": "CA", "Zip": "90048-5193", "AddressLine1": "6222 Wilshire Blvd Ste 304", "AddressLine2": "", "Distance": 3.2, "Latitude": 34.06294, "Longitude": -118.36429}, {"Sequence": 71, "PersonId": 280524, "AddressId": 1621029, "Specialty": "General Practice", "Photo": "findadentist.ada.org/Images/Profile/280524-Dr-Joseph-Marvizi.png", "Name": "Dr Joseph M Marvizi", "Email": "Jmarvizidds@yahoo.com", "Phone": "(661) 831-9024", "Address": "6200 Wilshire Blvd Ste 1110 Los Angeles, CA 90048-5812", "City": "Los Angeles", "State": "CA", "Zip": "90048-5812", "AddressLine1": "6200 Wilshire Blvd Ste 1110", "AddressLine2": "", "Distance": 3.2, "Latitude": 34.06297, "Longitude": -118.3636}, {"Sequence": 72, "PersonId": 280557, "AddressId": 3557818, "Specialty": "General Practice", "Photo": "findadentist.ada.org/Images/Profile/280557-Dr-Baruch-Twersky.png", "Name": "Dr. Baruch Twersky", "Email": "", "Phone": "(323) 336-8478", "Address": "6200 Wilshire Blvd Ste 1609 Los Angeles, CA 90048-5817", "City": "Los Angeles", "State": "CA", "Zip": "90048-5817", "AddressLine1": "6200 Wilshire Blvd Ste 1609", "AddressLine2": "", "Distance": 3.2, "Latitude": 34.06291, "Longitude": -118.36359}, {"Sequence": 73, "PersonId": 151143, "AddressId": 1491648, "Specialty": "General Practice", "Photo": "findadentist.ada.org/Images/Profile/151143-Dr-Katayoun-Omrani.png", "Name": "Dr. Katayoun Omrani", "Email": "", "Phone": "(310) 423-9600", "Address": "444 S San Vicente Blvd Ste 1101 Los Angeles, CA 90048-4170", "City": "Los Angeles", "State": "CA", "Zip": "90048-4170", "AddressLine1": "444 S San Vicente Blvd Ste 1101", "AddressLine2": "", "Distance": 3.3, "Latitude": 34.06985, "Longitude": -118.37527}, {"Sequence": 74, "PersonId": 150840, "AddressId": 3479160, "Specialty": "Orthodontics and Dentofacial Orthopedics", "Photo": "findadentist.ada.org/Images/Profile/150840-Dr-Holly-Moon.png", "Name": "Dr. Holly J Moon", "Email": "", "Phone": "(213) 384-2500", "Address": "520 S Virgil Ave Ste 306 Los Angeles, CA 90020-1441", "City": "Los Angeles", "State": "CA", "Zip": "90020-1441", "AddressLine1": "520 S Virgil Ave Ste 306", "AddressLine2": "", "Distance": 3.3, "Latitude": 34.06449, "Longitude": -118.28668}, {"Sequence": 75, "PersonId": 133683, "AddressId": 1474188, "Specialty": "General Practice", "Photo": "findadentist.ada.org/Images/Profile/133683-Dr-Young-Choi.png", "Name": "Dr. Young H Choi", "Email": "drchoidental@yahoo.com", "Phone": "(213) 384-2828", "Address": "3201 W Olympic Blvd Los Angeles, CA 90006-2316", "City": "Los Angeles", "State": "CA", "Zip": "90006-2316", "AddressLine1": "3201 W Olympic Blvd", "AddressLine2": "", "Distance": 3.3, "Latitude": 34.05286, "Longitude": -118.3065}, {"Sequence": 76, "PersonId": 249714, "AddressId": 3096034, "Specialty": "General Practice", "Photo": "findadentist.ada.org/Images/Profile/249714-Dr-Joshua-Ghiam.png", "Name": "Dr. Joshua A Ghiam", "Email": "info@lasmiles.com", "Phone": "(323) 651-0933", "Address": "6360 Wilshire Blvd Ste 512 Los Angeles, CA 90048-5601", "City": "Los Angeles", "State": "CA", "Zip": "90048-5601", "AddressLine1": "6360 Wilshire Blvd Ste 512", "AddressLine2": "", "Distance": 3.3, "Latitude": 34.06343, "Longitude": -118.36773}, {"Sequence": 77, "PersonId": 279803, "AddressId": 1620308, "Specialty": "General Practice", "Photo": "findadentist.ada.org/Images/Profile/279803-Dr-Justin-Hwang.png", "Name": "Dr Justin D Hwang", "Email": "towndental@yahoo.com", "Phone": "(323) 732-5500", "Address": "3352 W Olympic Blvd Los Angeles, CA 90019-2320", "City": "Los Angeles", "State": "CA", "Zip": "90019-2320", "AddressLine1": "3352 W Olympic Blvd", "AddressLine2": null, "Distance": 3.3, "Latitude": 34.05249, "Longitude": -118.31083}, {"Sequence": 78, "PersonId": 280307, "AddressId": 1620812, "Specialty": "Oral and Maxillofacial Surgery", "Photo": "findadentist.ada.org/Images/Profile/280307-Dr-Shahriar-Daneshgar.png", "Name": "Dr Shahriar Daneshgar", "Email": "", "Phone": "(323) 653-9440", "Address": "6360 Wilshire Blvd  Ste 403 Los Angeles, CA 90048-5606", "City": "Los Angeles", "State": "CA", "Zip": "90048-5606", "AddressLine1": "6360 Wilshire Blvd  Ste 403", "AddressLine2": "", "Distance": 3.3, "Latitude": 34.06343, "Longitude": -118.36773}, {"Sequence": 79, "PersonId": 280523, "AddressId": 2910508, "Specialty": "General Practice", "Photo": "findadentist.ada.org/Images/Profile/280523-Dr-Jonathan-Engel.png", "Name": "Dr Jonathan Engel", "Email": "PAINLESS1@SBCGLOBAL.NET", "Phone": "(323) 934-3341", "Address": "5901 W Olympic Blvd Ste 205 Los Angeles, CA 90036-4663", "City": "Los Angeles", "State": "CA", "Zip": "90036-4663", "AddressLine1": "5901 W Olympic Blvd Ste 205", "AddressLine2": "", "Distance": 3.3, "Latitude": 34.05791, "Longitude": -118.35994}, {"Sequence": 80, "PersonId": 288680, "AddressId": 1629185, "Specialty": "Oral and Maxillofacial Surgery", "Photo": "findadentist.ada.org/Images/Profile/288680-Dr-Henry-Lo.png", "Name": "Dr Henry H Lo", "Email": "info@northridgedentalgroup.com", "Phone": "(323) 653-9440", "Address": "6360 Wilshire Blvd Ste 403 Los Angeles, CA 90048-5606", "City": "Los Angeles", "State": "CA", "Zip": "90048-5606", "AddressLine1": "6360 Wilshire Blvd Ste 403", "AddressLine2": "", "Distance": 3.3, "Latitude": 34.06343, "Longitude": -118.36773}, {"Sequence": 81, "PersonId": 125533, "AddressId": 1466038, "Specialty": "General Practice", "Photo": "findadentist.ada.org/Images/Profile/125533-Dr-Daniel-Pinar.png", "Name": "Dr. Daniel T Pinar", "Email": "wehodental@gmail.com", "Phone": "(310) 659-1000", "Address": "8733 Beverly Blvd Ste 202 West Hollywood, CA 90048-1844", "City": "West Hollywood", "State": "CA", "Zip": "90048-1844", "AddressLine1": "8733 Beverly Blvd Ste 202", "AddressLine2": "", "Distance": 3.4, "Latitude": 34.07712, "Longitude": -118.38158}, {"Sequence": 82, "PersonId": 194047, "AddressId": 1534552, "Specialty": "General Practice", "Photo": "findadentist.ada.org/Images/Profile/194047-Dr-Jennifer-Park-Cruz.png", "Name": "Dr. Jennifer R Park-Cruz", "Email": "", "Phone": "(213) 385-0053", "Address": "2975 Wilshire Blvd Ste 400 Los Angeles, CA 90010-1132", "City": "Los Angeles", "State": "CA", "Zip": "90010-1132", "AddressLine1": "2975 Wilshire Blvd Ste 400", "AddressLine2": "", "Distance": 3.4, "Latitude": 34.06237, "Longitude": -118.28662}, {"Sequence": 83, "PersonId": 279557, "AddressId": 1620062, "Specialty": "General Practice", "Photo": "findadentist.ada.org/Images/Profile/279557-Dr-Robert-Gerber.png", "Name": "Dr Robert B Gerber", "Email": "rbgdds@aol.com", "Phone": "(310) 652-0450", "Address": "8631 W 3rd St Ste 730E Los Angeles, CA 90048-5911", "City": "Los Angeles", "State": "CA", "Zip": "90048-5911", "AddressLine1": "8631 W 3rd St Ste 730E", "AddressLine2": "", "Distance": 3.4, "Latitude": 34.07395, "Longitude": -118.3805}, {"Sequence": 84, "PersonId": 279737, "AddressId": 1620242, "Specialty": "General Practice", "Photo": "findadentist.ada.org/Images/Profile/279737-Dr-Arthur-Schlachtman.png", "Name": "Dr. Arthur Schlachtman", "Email": "", "Phone": "(310) 659-0522", "Address": "8635 W 3rd St Ste 250W Los Angeles, CA 90048-6151", "City": "Los Angeles", "State": "CA", "Zip": "90048-6151", "AddressLine1": "8635 W 3rd St Ste 250W", "AddressLine2": "", "Distance": 3.4, "Latitude": 34.07404, "Longitude": -118.38074}, {"Sequence": 85, "PersonId": 279793, "AddressId": 1620298, "Specialty": "General Practice", "Photo": "findadentist.ada.org/Images/Profile/279793-Dr-danny-shiri.png", "Name": "Dr danny shiri", "Email": "dannyshiridds1@gmail.com", "Phone": "(323) 935-9102", "Address": "6310 San Vicente Blvd Ste 295 Los Angeles, CA 90048-5454", "City": "Los Angeles", "State": "CA", "Zip": "90048-5454", "AddressLine1": "6310 San Vicente Blvd Ste 295", "AddressLine2": "", "Distance": 3.4, "Latitude": 34.06128, "Longitude": -118.36742}, {"Sequence": 86, "PersonId": 280517, "AddressId": 1621022, "Specialty": "General Practice", "Photo": "findadentist.ada.org/Images/Profile/280517-Dr-Sherman-Zieve.png", "Name": "Dr Sherman Zieve", "Email": "drshermanzieve@gmail.com", "Phone": "(310) 652-1446", "Address": "8631 W 3rd St Ste 1010E Los Angeles, CA 90048-5913", "City": "Los Angeles", "State": "CA", "Zip": "90048-5913", "AddressLine1": "8631 W 3rd St Ste 1010E", "AddressLine2": "Cedars-Sinai Medical Towers", "Distance": 3.4, "Latitude": 34.07404, "Longitude": -118.38069}, {"Sequence": 87, "PersonId": 187395, "AddressId": 3056768, "Specialty": "General Practice", "Photo": "findadentist.ada.org/Images/Profile/187395-Dr-David-Abri.png", "Name": "Dr. David Abri", "Email": "info@abridental.com", "Phone": "(310) 002-0032", "Address": "50 N La Cienega Blvd Ste 217 Beverly Hills, CA 90211-2246", "City": "Beverly Hills", "State": "CA", "Zip": "90211-2246", "AddressLine1": "50 N La Cienega Blvd Ste 217", "AddressLine2": "", "Distance": 3.5, "Latitude": 34.06694, "Longitude": -118.37592}, {"Sequence": 88, "PersonId": 198400, "AddressId": 1538905, "Specialty": "Oral and Maxillofacial Surgery", "Photo": "findadentist.ada.org/Images/Profile/198400-Dr-Parvaz-Mizrahi.png", "Name": "Dr. Parvaz F Mizrahi", "Email": "beverlyhillsoralsurgeon@gmail.com", "Phone": "(310) 652-6491", "Address": "99 N La Cienega Blvd Ste 308 Beverly Hills, CA 90211-2286", "City": "Beverly Hills", "State": "CA", "Zip": "90211-2286", "AddressLine1": "99 N La Cienega Blvd Ste 308", "AddressLine2": "", "Distance": 3.5, "Latitude": 34.06745, "Longitude": -118.37656}, {"Sequence": 89, "PersonId": 215876, "AddressId": 3530196, "Specialty": "Pediatric Dentistry", "Photo": "findadentist.ada.org/Images/Profile/215876-Dr-Jessica-Manske.png", "Name": "Dr. Jessica L Manske", "Email": "info@melodydentistry.com", "Phone": "(424) 322-4780", "Address": "8640 W 3rd St Los Angeles, CA 90048-3384", "City": "Los Angeles", "State": "CA", "Zip": "90048-3384", "AddressLine1": "8640 W 3rd St", "AddressLine2": "Suite 202", "Distance": 3.5, "Latitude": 34.0734, "Longitude": -118.38139}, {"Sequence": 90, "PersonId": 280189, "AddressId": 1620694, "Specialty": "General Practice", "Photo": "findadentist.ada.org/Images/Profile/280189-Dr-Manojkumar-Amin.png", "Name": "Dr Manojkumar Amin", "Email": "", "Phone": "(213) 484-1845", "Address": "2613 W Sunset Blvd Los Angeles, CA 90026-3905", "City": "Los Angeles", "State": "CA", "Zip": "90026-3905", "AddressLine1": "2613 W Sunset Blvd", "AddressLine2": "", "Distance": 3.5, "Latitude": 34.08029, "Longitude": -118.26997}, {"Sequence": 91, "PersonId": 133865, "AddressId": 1474370, "Specialty": "Periodontics", "Photo": "findadentist.ada.org/Images/Profile/133865-Dr-Sam-Markzar.png", "Name": "Dr. Sam S Markzar", "Email": "", "Phone": "(310) 360-7570", "Address": "8500 Wilshire Blvd Ste 819 Beverly Hills, CA 90211-3106", "City": "Beverly Hills", "State": "CA", "Zip": "90211-3106", "AddressLine1": "8500 Wilshire Blvd Ste 819", "AddressLine2": "", "Distance": 3.6, "Latitude": 34.06492, "Longitude": -118.37674}, {"Sequence": 92, "PersonId": 142858, "AddressId": 1483363, "Specialty": "General Practice", "Photo": "findadentist.ada.org/Images/Profile/142858-Dr-Lilia-Agadganian.png", "Name": "Dr. Lilia Agadganian", "Email": "", "Phone": "(310) 652-8877", "Address": "8500 Wilshire Blvd Ste 601 Beverly Hills, CA 90211-3120", "City": "Beverly Hills", "State": "CA", "Zip": "90211-3120", "AddressLine1": "8500 Wilshire Blvd Ste 601", "AddressLine2": "", "Distance": 3.6, "Latitude": 34.0649, "Longitude": -118.37661}, {"Sequence": 93, "PersonId": 218768, "AddressId": 1559273, "Specialty": "Periodontics", "Photo": "findadentist.ada.org/Images/Profile/218768-Dr-Shervin-Molayem.png", "Name": "Dr. Shervin Molayem", "Email": "smile@moorparkdentalgroup.com", "Phone": "(81871) 716-0297", "Address": "8549 Wilshire Blvd Ste 943 Beverly Hills, CA 90211-3104", "City": "Beverly Hills", "State": "CA", "Zip": "90211-3104", "AddressLine1": "8549 Wilshire Blvd Ste 943", "AddressLine2": "", "Distance": 3.6, "Latitude": 34.06591, "Longitude": -118.37777}, {"Sequence": 94, "PersonId": 224281, "AddressId": 2772431, "Specialty": "General Practice", "Photo": "findadentist.ada.org/Images/Profile/224281-Dr-Bruce-Vafa.png", "Name": "Dr. Bruce Vafa", "Email": "drvafa@smileangels.com", "Phone": "(310) 201-9001", "Address": "8500 Wilshire Blvd Ste 709 Beverly Hills, CA 90211-3105", "City": "Beverly Hills", "State": "CA", "Zip": "90211-3105", "AddressLine1": "8500 Wilshire Blvd Ste 709", "AddressLine2": "", "Distance": 3.6, "Latitude": 34.0649, "Longitude": -118.37661}, {"Sequence": 95, "PersonId": 249701, "AddressId": 3406090, "Specialty": "Orthodontics and Dentofacial Orthopedics", "Photo": "findadentist.ada.org/Images/Profile/249701-Dr-Tali-Elfersi.png", "Name": "Dr. Tali Elfersi", "Email": "info@elfersiortho.com", "Phone": "(323) 761-0731", "Address": "8500 Wilshire Blvd Ste 818 Beverly Hills, CA 90211-3106", "City": "Beverly Hills", "State": "CA", "Zip": "90211-3106", "AddressLine1": "8500 Wilshire Blvd Ste 818", "AddressLine2": "", "Distance": 3.6, "Latitude": 34.0649, "Longitude": -118.37661}, {"Sequence": 96, "PersonId": 279024, "AddressId": 2770280, "Specialty": "General Practice", "Photo": "findadentist.ada.org/Images/Profile/279024-Dr-Cheri-Lewis.png", "Name": "Dr Cheri Lewis", "Email": "stephanie@cherilewisdds.com", "Phone": "(310) 659-5480", "Address": "8500 Wilshire Blvd Ste 805 Beverly Hills, CA 90211-3106", "City": "Beverly Hills", "State": "CA", "Zip": "90211-3106", "AddressLine1": "8500 Wilshire Blvd Ste 805", "AddressLine2": "", "Distance": 3.6, "Latitude": 34.0649, "Longitude": -118.37661}, {"Sequence": 97, "PersonId": 279805, "AddressId": 1620310, "Specialty": "Orthodontics and Dentofacial Orthopedics", "Photo": "findadentist.ada.org/Images/Profile/279805-Dr-Behrooz-Zinati.png", "Name": "Dr. B. David Zinati", "Email": "dzinati@zinati.com", "Phone": "(310) 652-2010", "Address": "8500 Wilshire Blvd Ste 818 Beverly Hills, CA 90211-3106", "City": "Beverly Hills", "State": "CA", "Zip": "90211-3106", "AddressLine1": "8500 Wilshire Blvd Ste 818", "AddressLine2": "", "Distance": 3.6, "Latitude": 34.0649, "Longitude": -118.37661}, {"Sequence": 98, "PersonId": 279941, "AddressId": 1620446, "Specialty": "General Practice", "Photo": "findadentist.ada.org/Images/Profile/279941-Dr-Howard-Richmond.png", "Name": "Dr Howard C Richmond", "Email": "", "Phone": "(310) 657-9377", "Address": "8500 Wilshire Blvd Ste 610 Beverly Hills, CA 90211-3120", "City": "Beverly Hills", "State": "CA", "Zip": "90211-3120", "AddressLine1": "8500 Wilshire Blvd Ste 610", "AddressLine2": null, "Distance": 3.6, "Latitude": 34.0649, "Longitude": -118.37661}, {"Sequence": 99, "PersonId": 280445, "AddressId": 1620950, "Specialty": "Periodontics", "Photo": "findadentist.ada.org/Images/Profile/280445-Dr-David-Anson.png", "Name": "Dr David Anson", "Email": "Renae@davidanson.com", "Phone": "(310) 657-0999", "Address": "8500 Wilshire Blvd Ste 800 Beverly Hills, CA 90211-3106", "City": "Beverly Hills", "State": "CA", "Zip": "90211-3106", "AddressLine1": "8500 Wilshire Blvd Ste 800", "AddressLine2": null, "Distance": 3.6, "Latitude": 34.0649, "Longitude": -118.37661}, {"Sequence": 100, "PersonId": 280563, "AddressId": 2770339, "Specialty": "General Practice", "Photo": "findadentist.ada.org/Images/Profile/280563-Dr-Sadie-Mestman.png", "Name": "Dr Sadie S Mestman", "Email": "", "Phone": "(310) 659-1005", "Address": "8500 Wilshire Blvd Ste 827 Beverly Hills, CA 90211-3106", "City": "Beverly Hills", "State": "CA", "Zip": "90211-3106", "AddressLine1": "8500 Wilshire Blvd Ste 827", "AddressLine2": "", "Distance": 3.6, "Latitude": 34.0649, "Longitude": -118.37661}]