[{"Sequence": 1, "PersonId": 205431, "AddressId": 3426301, "Specialty": "General Practice", "Photo": "findadentist.ada.org/Images/Profile/205431-Dr-Amy-Rowland.png", "Name": "Dr. Amy F Rowland", "Email": "rowlanddental@tcmax.net", "Phone": "(573) 686-5030", "Address": "1611 North Westwood Blvd Poplar Bluff, MO 63901-3317", "City": "Poplar Bluff", "State": "MO", "Zip": "63901-3317", "AddressLine1": "1611 North Westwood Blvd", "AddressLine2": "", "Distance": 9.1, "Latitude": 36.7731, "Longitude": -90.41977}, {"Sequence": 2, "PersonId": 152933, "AddressId": 2691102, "Specialty": "Oral and Maxillofacial Surgery", "Photo": "findadentist.ada.org/Images/Profile/152933-Dr-Randal-Begley.png", "Name": "Dr. Randal L Begley", "Email": "", "Phone": "(573) 785-8471", "Address": "936 Ida St Poplar Bluff, MO 63901-4210", "City": "Poplar Bluff", "State": "MO", "Zip": "63901-4210", "AddressLine1": "936 Ida St", "AddressLine2": "", "Distance": 9.0, "Latitude": 36.76587, "Longitude": -90.41061}, {"Sequence": 3, "PersonId": 27027, "AddressId": 2689875, "Specialty": "Oral and Maxillofacial Surgery", "Photo": "findadentist.ada.org/Images/Profile/27027-Dr-John-Sheets.png", "Name": "Dr John L Sheets", "Email": "cfoms@hotmail.com", "Phone": "(573) 785-8471", "Address": "936 Ida St Poplar Bluff, MO 63901-4210", "City": "Poplar Bluff", "State": "MO", "Zip": "63901-4210", "AddressLine1": "936 Ida St", "AddressLine2": "", "Distance": 9.0, "Latitude": 36.76587, "Longitude": -90.41061}, {"Sequence": 4, "PersonId": 26992, "AddressId": 3057229, "Specialty": "General Practice", "Photo": "findadentist.ada.org/Images/Profile/26992-Dr-George-Blaich.png", "Name": "Dr George F Blaich, Jr.", "Email": "dentalartsgroup@gmail.com", "Phone": "(573) 785-0111", "Address": "2700 Kanell Blvd Poplar Bluff, MO 63901-3041", "City": "Poplar Bluff", "State": "MO", "Zip": "63901-3041", "AddressLine1": "2700 Kanell Blvd", "AddressLine2": "", "Distance": 10.0, "Latitude": 36.76604, "Longitude": -90.43327}, {"Sequence": 5, "PersonId": 27041, "AddressId": 1367546, "Specialty": "Orthodontics and Dentofacial Orthopedics", "Photo": "findadentist.ada.org/Images/Profile/27041-Dr-John-Fox.png", "Name": "Dr John N Fox", "Email": "braces@foxgrin.net", "Phone": "(573) 785-1466", "Address": "1300 N Westwood Blvd Ste B Poplar Bluff, MO 63901-3314", "City": "Poplar Bluff", "State": "MO", "Zip": "63901-3314", "AddressLine1": "1300 N Westwood Blvd Ste B", "AddressLine2": "", "Distance": 9.1, "Latitude": 36.76943, "Longitude": -90.41636}, {"Sequence": 6, "PersonId": 27054, "AddressId": 1367559, "Specialty": "General Practice", "Photo": "findadentist.ada.org/Images/Profile/27054-Dr-Michael-Price.png", "Name": "Dr Michael B Price", "Email": "poplarbluff@mydentalmail.com", "Phone": "(573) 785-5100", "Address": "1602 W Harper St Poplar Bluff, MO 63901-4119", "City": "Poplar Bluff", "State": "MO", "Zip": "63901-4119", "AddressLine1": "1602 W Harper St", "AddressLine2": "", "Distance": 9.1, "Latitude": 36.76658, "Longitude": -90.41489}, {"Sequence": 7, "PersonId": 220216, "AddressId": 2803979, "Specialty": "Pediatric Dentistry", "Photo": "findadentist.ada.org/Images/Profile/220216-Dr-Reeca-Daves.png", "Name": "Dr. Reeca D Daves", "Email": "", "Phone": "(573) 785-7700", "Address": "4348 Highway Pp Poplar Bluff, MO 63901-1552", "City": "Poplar Bluff", "State": "MO", "Zip": "63901-1552", "AddressLine1": "4348 Highway Pp", "AddressLine2": "", "Distance": 11.5, "Latitude": 36.76817, "Longitude": -90.46596}, {"Sequence": 8, "PersonId": 159441, "AddressId": 1499946, "Specialty": "General Practice", "Photo": "findadentist.ada.org/Images/Profile/159441-Dr-Robert-Rowland.png", "Name": "Dr. Robert F Rowland", "Email": "rob.rowlanddental@yahoo.com", "Phone": "(573) 776-7633", "Address": "1611 N Westwood Blvd Poplar Bluff, MO 63901-3317", "City": "Poplar Bluff", "State": "MO", "Zip": "63901-3317", "AddressLine1": "1611 N Westwood Blvd", "AddressLine2": "", "Distance": 9.1, "Latitude": 36.7731, "Longitude": -90.41977}, {"Sequence": 9, "PersonId": 209425, "AddressId": 1549930, "Specialty": "Orthodontics and Dentofacial Orthopedics", "Photo": "findadentist.ada.org/Images/Profile/209425-Dr-Courtney-Atkinson.png", "Name": "Dr. Courtney M Atkinson", "Email": "", "Phone": "(573) 776-1355", "Address": "2951 Kanell Blvd Poplar Bluff, MO 63901-4008", "City": "Poplar Bluff", "State": "MO", "Zip": "63901-4008", "AddressLine1": "2951 Kanell Blvd", "AddressLine2": "", "Distance": 10.1, "Latitude": 36.76689, "Longitude": -90.43669}, {"Sequence": 10, "PersonId": 242638, "AddressId": 1583143, "Specialty": "General Practice", "Photo": "findadentist.ada.org/Images/Profile/242638-Dr-Nathan-Seyer.png", "Name": "Dr. Nathan T Seyer", "Email": "bigsmile@onemiledds.com", "Phone": "(573) 624-8236", "Address": "1 Corporate Dr Dexter, MO 63841-9138", "City": "Dexter", "State": "MO", "Zip": "63841-9138", "AddressLine1": "1 Corporate Dr", "AddressLine2": "", "Distance": 17.5, "Latitude": 36.80168, "Longitude": -89.96878}, {"Sequence": 11, "PersonId": 26995, "AddressId": 1367500, "Specialty": "General Practice", "Photo": "findadentist.ada.org/Images/Profile/26995-Dr-John-Blaich.png", "Name": "Dr John R Blaich", "Email": "", "Phone": "(573) 785-0111", "Address": "2700 Kanell Blvd Poplar Bluff, MO 63901-3041", "City": "Poplar Bluff", "State": "MO", "Zip": "63901-3041", "AddressLine1": "2700 Kanell Blvd", "AddressLine2": "", "Distance": 10.0, "Latitude": 36.76604, "Longitude": -90.43327}, {"Sequence": 12, "PersonId": 26961, "AddressId": 1367466, "Specialty": "General Practice", "Photo": "findadentist.ada.org/Images/Profile/ADA.png", "Name": "Dr Bob J Ormsby", "Email": "", "Phone": "(573) 785-5343", "Address": "600 Vine Street Poplar Bluff, MO 63901-5039", "City": "Poplar Bluff", "State": "MO", "Zip": "63901-5039", "AddressLine1": "600 Vine Street", "AddressLine2": "", "Distance": 8.8, "Latitude": 36.75695, "Longitude": -90.39719}, {"Sequence": 13, "PersonId": 27071, "AddressId": 1367576, "Specialty": "General Practice", "Photo": "findadentist.ada.org/Images/Profile/ADA.png", "Name": "Dr Daniel Jackson", "Email": "djdds@mycitycable.com", "Phone": "(573) 785-6434", "Address": "821 W Pine St Poplar Bluff, MO 63901-4956", "City": "Poplar Bluff", "State": "MO", "Zip": "63901-4956", "AddressLine1": "821 W Pine St", "AddressLine2": "", "Distance": 8.9, "Latitude": 36.75864, "Longitude": -90.40095}, {"Sequence": 14, "PersonId": 27432, "AddressId": 2972531, "Specialty": "General Practice", "Photo": "findadentist.ada.org/Images/Profile/ADA.png", "Name": "Dr Michael L Beasley", "Email": "", "Phone": "(573) 778-4630", "Address": "1500 N Westwood Blvd Poplar Bluff, MO 63901-3318", "City": "Poplar Bluff", "State": "MO", "Zip": "63901-3318", "AddressLine1": "1500 N Westwood Blvd", "AddressLine2": "", "Distance": 9.1, "Latitude": 36.77172, "Longitude": -90.4175}, {"Sequence": 15, "PersonId": 27073, "AddressId": 1367578, "Specialty": "General Practice", "Photo": "findadentist.ada.org/Images/Profile/ADA.png", "Name": "Dr Randal L Hillis", "Email": "", "Phone": "(573) 785-6699", "Address": "1600 W Harper St Poplar Bluff, MO 63901-4119", "City": "Poplar Bluff", "State": "MO", "Zip": "63901-4119", "AddressLine1": "1600 W Harper St", "AddressLine2": "", "Distance": 9.2, "Latitude": 36.76625, "Longitude": -90.41498}, {"Sequence": 16, "PersonId": 250097, "AddressId": 2789215, "Specialty": "General Practice", "Photo": "findadentist.ada.org/Images/Profile/ADA.png", "Name": "Dr. Jared H Beaird", "Email": "", "Phone": "(573) 778-0200", "Address": "4358 Highway PP Poplar Bluff, MO 63901-1552", "City": "Poplar Bluff", "State": "MO", "Zip": "63901-1552", "AddressLine1": "4358 Highway PP", "AddressLine2": "", "Distance": 11.5, "Latitude": 36.76827, "Longitude": -90.46603}, {"Sequence": 17, "PersonId": 26966, "AddressId": 1367471, "Specialty": "General Practice", "Photo": "findadentist.ada.org/Images/Profile/ADA.png", "Name": "Dr Kevin W Mitchell", "Email": "dmdds@sbcglobal.net", "Phone": "(573) 624-8005", "Address": "851 W Grant St Dexter, MO 63841-2430", "City": "Dexter", "State": "MO", "Zip": "63841-2430", "AddressLine1": "851 W Grant St", "AddressLine2": "", "Distance": 17.5, "Latitude": 36.78901, "Longitude": -89.97035}, {"Sequence": 18, "PersonId": 315751, "AddressId": 3463835, "Specialty": "General Practice", "Photo": "findadentist.ada.org/Images/Profile/ADA.png", "Name": "Dr Margaret R McMillan", "Email": "", "Phone": "(573) 778-3042", "Address": "1407 N Westwood Blvd Poplar Bluff, MO 63901-3315", "City": "Poplar Bluff", "State": "MO", "Zip": "63901-3315", "AddressLine1": "1407 N Westwood Blvd", "AddressLine2": "", "Distance": 9.1, "Latitude": 36.77022, "Longitude": -90.41713}]