[{"Sequence": 1, "PersonId": 189181, "AddressId": 1529686, "Specialty": "Orthodontics and Dentofacial Orthopedics", "Photo": "findadentist.ada.org/Images/Profile/189181-Dr-Douglas-Jensen.png", "Name": "Dr. Douglas E Jensen", "Email": "", "Phone": "(214) 842-8106", "Address": "3595 S Custer Rd Ste 200 McKinney, TX 75070-6554", "City": "McKinney", "State": "TX", "Zip": "75070-6554", "AddressLine1": "3595 S Custer Rd Ste 200", "AddressLine2": "", "Distance": 2.3, "Latitude": 33.16816, "Longitude": -96.73217}, {"Sequence": 2, "PersonId": 91100, "AddressId": 1431605, "Specialty": "Orthodontics and Dentofacial Orthopedics", "Photo": "findadentist.ada.org/Images/Profile/91100-Dr-John-Wise.png", "Name": "Dr John B Wise", "Email": "", "Phone": "(972) 562-2228", "Address": "3109 S Custer Rd Ste 100 McKinney, TX 75070-7171", "City": "McKinney", "State": "TX", "Zip": "75070-7171", "AddressLine1": "3109 S Custer Rd Ste 100", "AddressLine2": null, "Distance": 2.1, "Latitude": 33.17154, "Longitude": -96.73161}, {"Sequence": 3, "PersonId": 89100, "AddressId": 3158281, "Specialty": "Pediatric Dentistry", "Photo": "findadentist.ada.org/Images/Profile/89100-Dr-Terry-Scott.png", "Name": "Dr Terry J Scott", "Email": "", "Phone": "(972) 540-5858", "Address": "7700 Eldorado Pkwy Ste 200 McKinney, TX 75070-5737", "City": "McKinney", "State": "TX", "Zip": "75070-5737", "AddressLine1": "7700 Eldorado Pkwy Ste 200", "AddressLine2": "", "Distance": 1.4, "Latitude": 33.17482, "Longitude": -96.71847}, {"Sequence": 4, "PersonId": 140278, "AddressId": 1480783, "Specialty": "General Practice", "Photo": "findadentist.ada.org/Images/Profile/140278-Dr-Brenda-Reber.png", "Name": "Dr. Brenda E Reber", "Email": "reberdental@sbcglobal.net", "Phone": "(972) 369-0700", "Address": "175 Ridge Rd Ste 100 McKinney, TX 75070-5103", "City": "McKinney", "State": "TX", "Zip": "75070-5103", "AddressLine1": "175 Ridge Rd Ste 100", "AddressLine2": "", "Distance": 1.2, "Latitude": 33.19781, "Longitude": -96.69701}, {"Sequence": 5, "PersonId": 188713, "AddressId": 1529218, "Specialty": "General Practice", "Photo": "findadentist.ada.org/Images/Profile/188713-Dr-Cynthia-McMann.png", "Name": "Dr. Cynthia R McMann", "Email": "", "Phone": "(972) 547-0554", "Address": "6633 Eldorado Pkwy Ste 100 McKinney, TX 75070-6185", "City": "McKinney", "State": "TX", "Zip": "75070-6185", "AddressLine1": "6633 Eldorado Pkwy Ste 100", "AddressLine2": "", "Distance": 0.6, "Latitude": 33.1736, "Longitude": -96.70359}, {"Sequence": 6, "PersonId": 261090, "AddressId": 3569556, "Specialty": "General Practice", "Photo": "findadentist.ada.org/Images/Profile/261090-Dr-Bryce-Gates.png", "Name": "Dr. Bryce Gates", "Email": "", "Phone": "(469) 907-1041", "Address": "6351 S Custer Rd McKinney, TX 75070-3465", "City": "McKinney", "State": "TX", "Zip": "75070-3465", "AddressLine1": "6351 S Custer Rd", "AddressLine2": "", "Distance": 3.6, "Latitude": 33.13875, "Longitude": -96.73265}, {"Sequence": 7, "PersonId": 91124, "AddressId": 3311214, "Specialty": "Orthodontics and Dentofacial Orthopedics", "Photo": "findadentist.ada.org/Images/Profile/91124-Dr-Stephanie-Crise.png", "Name": "Dr Stephanie Crise", "Email": "smilesmarketing@hotmail.com", "Phone": "(972) 529-9700", "Address": "175 Ridge Rd Ste 500 McKinney, TX 75070-5107", "City": "McKinney", "State": "TX", "Zip": "75070-5107", "AddressLine1": "175 Ridge Rd Ste 500", "AddressLine2": "", "Distance": 1.2, "Latitude": 33.19781, "Longitude": -96.69701}, {"Sequence": 8, "PersonId": 204192, "AddressId": 2737426, "Specialty": "Orthodontics and Dentofacial Orthopedics", "Photo": "findadentist.ada.org/Images/Profile/204192-Dr-Daniel-Gehani.png", "Name": "Dr. Daniel C Gehani", "Email": "", "Phone": "(972) 547-4443", "Address": "4271 Highlands Dr McKinney, TX 75070-7418", "City": "McKinney", "State": "TX", "Zip": "75070-7418", "AddressLine1": "4271 Highlands Dr", "AddressLine2": "", "Distance": 1.8, "Latitude": 33.16651, "Longitude": -96.66949}, {"Sequence": 9, "PersonId": 246795, "AddressId": 2804196, "Specialty": "General Practice", "Photo": "findadentist.ada.org/Images/Profile/246795-Dr-Karuna-Peravali.png", "Name": "Dr. Karuna Peravali", "Email": "admin@whitelotusdental.com", "Phone": "(469) 262-2111", "Address": "3109 S Custer Rd Ste 300 McKinney, TX 75070-7171", "City": "McKinney", "State": "TX", "Zip": "75070-7171", "AddressLine1": "3109 S Custer Rd Ste 300", "AddressLine2": "", "Distance": 2.1, "Latitude": 33.17154, "Longitude": -96.73161}, {"Sequence": 10, "PersonId": 111163, "AddressId": 1451668, "Specialty": "Orthodontics and Dentofacial Orthopedics", "Photo": "findadentist.ada.org/Images/Profile/111163-Dr-Katie-Julien.png", "Name": "Dr. Katie C Julien", "Email": "staff@simply-smiles.net", "Phone": "(972) 547-0002", "Address": "8400 Stacy Rd Ste 400 McKinney, TX 75070-2144", "City": "McKinney", "State": "TX", "Zip": "75070-2144", "AddressLine1": "8400 Stacy Rd Ste 400", "AddressLine2": "", "Distance": 2.4, "Latitude": 33.1526, "Longitude": -96.7227}, {"Sequence": 11, "PersonId": 236705, "AddressId": 1577210, "Specialty": "General Practice", "Photo": "findadentist.ada.org/Images/Profile/236705-Dr-Yao-Liu.png", "Name": "Dr. Yao Liu", "Email": "", "Phone": "(214) 592-9090", "Address": "1800 S Independence Pkwy Ste 100 McKinney, TX 75070-3470", "City": "McKinney", "State": "TX", "Zip": "75070-3470", "AddressLine1": "1800 S Independence Pkwy Ste 100", "AddressLine2": "", "Distance": 3.2, "Latitude": 33.18713, "Longitude": -96.75108}, {"Sequence": 12, "PersonId": 91126, "AddressId": 3311215, "Specialty": "General Practice", "Photo": "findadentist.ada.org/Images/Profile/91126-Dr-James-Norwood.png", "Name": "Dr James K Norwood", "Email": "", "Phone": "(972) 547-6577", "Address": "2960 Eldorado Pkwy Ste 10 McKinney, TX 75070-7500", "City": "McKinney", "State": "TX", "Zip": "75070-7500", "AddressLine1": "2960 Eldorado Pkwy Ste 10", "AddressLine2": "", "Distance": 2.0, "Latitude": 33.16896, "Longitude": -96.66393}, {"Sequence": 13, "PersonId": 250293, "AddressId": 3575109, "Specialty": "General Practice", "Photo": "findadentist.ada.org/Images/Profile/250293-Dr-Jamie-Sieng.png", "Name": "Dr. Jamie S Sieng", "Email": "info@jsfamilydental.com", "Phone": "(214) 548-5400", "Address": "7785 Eldorado Pkwy Ste 300 McKinney, TX 75070-5615", "City": "McKinney", "State": "TX", "Zip": "75070-5615", "AddressLine1": "7785 Eldorado Pkwy Ste 300", "AddressLine2": "", "Distance": 1.4, "Latitude": 33.17372, "Longitude": -96.71859}, {"Sequence": 14, "PersonId": 189157, "AddressId": 3283870, "Specialty": "Pediatric Dentistry", "Photo": "findadentist.ada.org/Images/Profile/189157-Dr-Timothy-Brister.png", "Name": "Dr. Timothy M Brister", "Email": "", "Phone": "(972) 542-6662", "Address": "3595 S Custer Rd Ste 100 McKinney, TX 75070-6554", "City": "McKinney", "State": "TX", "Zip": "75070-6554", "AddressLine1": "3595 S Custer Rd Ste 100", "AddressLine2": "", "Distance": 2.3, "Latitude": 33.16816, "Longitude": -96.73217}, {"Sequence": 15, "PersonId": 226654, "AddressId": 1567159, "Specialty": "General Practice", "Photo": "findadentist.ada.org/Images/Profile/226654-Dr-Eileen-Chen-Mizuuchi.png", "Name": "Dr. Eileen L Chen-Mizuuchi", "Email": "info@illumedental.com", "Phone": "(469) 301-1255", "Address": "5000 Collin McKinney Pkwy Ste 130 McKinney, TX 75070", "City": "McKinney", "State": "TX", "Zip": "75070", "AddressLine1": "5000 Collin McKinney Pkwy Ste 130", "AddressLine2": "", "Distance": 2.2, "Latitude": 33.15017, "Longitude": -96.68141}, {"Sequence": 16, "PersonId": 115732, "AddressId": 3481767, "Specialty": "General Practice", "Photo": "findadentist.ada.org/Images/Profile/115732-Dr-Catherine Yu-Lan-Yang.png", "Name": "Dr. Catherine Yu-Lan Yang", "Email": "McKRanchFD@gmail.com", "Phone": "(972) 548-1688", "Address": "3950 S Ridge Rd Ste 500 McKinney, TX 75070-9600", "City": "McKinney", "State": "TX", "Zip": "75070-9600", "AddressLine1": "3950 S Ridge Rd Ste 500", "AddressLine2": "", "Distance": 1.4, "Latitude": 33.16035, "Longitude": -96.69497}, {"Sequence": 17, "PersonId": 258140, "AddressId": 2920000, "Specialty": "General Practice", "Photo": "findadentist.ada.org/Images/Profile/258140-Dr-Ross-Jackson.png", "Name": "Dr. Ross T Jackson", "Email": "", "Phone": "(972) 542-1212", "Address": "3575 Lakota Trl Ste 100 McKinney, TX 75070-5900", "City": "McKinney", "State": "TX", "Zip": "75070-5900", "AddressLine1": "3575 Lakota Trl Ste 100", "AddressLine2": "", "Distance": 2.2, "Latitude": 33.168, "Longitude": -96.73046}, {"Sequence": 18, "PersonId": 343246, "AddressId": 3322070, "Specialty": "General Practice", "Photo": "findadentist.ada.org/Images/Profile/343246-Dr-Ibrahim-Houari.png", "Name": "Dr. Ibrahim Houari", "Email": "", "Phone": "(972) 532-3635", "Address": "5131 S Custer Rd Ste 105 McKinney, TX 75070-3160", "City": "McKinney", "State": "TX", "Zip": "75070-3160", "AddressLine1": "5131 S Custer Rd Ste 105", "AddressLine2": "", "Distance": 2.4, "Latitude": 33.16298, "Longitude": -96.73287}, {"Sequence": 19, "PersonId": 257597, "AddressId": 2991608, "Specialty": "General Practice", "Photo": "findadentist.ada.org/Images/Profile/ADA.png", "Name": "Dr. Kristi A Karrington", "Email": "", "Phone": "(214) 618-5600", "Address": "120 S Central Expy Ste 101 McKinney, TX 75070-3753", "City": "McKinney", "State": "TX", "Zip": "75070-3753", "AddressLine1": "120 S Central Expy Ste 101", "AddressLine2": "", "Distance": 3.4, "Latitude": 33.19793, "Longitude": -96.64051}, {"Sequence": 20, "PersonId": 257598, "AddressId": 2946834, "Specialty": "General Practice", "Photo": "findadentist.ada.org/Images/Profile/ADA.png", "Name": "Dr. Lacy Patterson", "Email": "vrochelle@wacofac.org", "Phone": "(214) 618-5600", "Address": "120 S Central Expy Ste 101 McKinney, TX 75070-3753", "City": "McKinney", "State": "TX", "Zip": "75070-3753", "AddressLine1": "120 S Central Expy Ste 101", "AddressLine2": "", "Distance": 3.4, "Latitude": 33.19793, "Longitude": -96.64047}, {"Sequence": 21, "PersonId": 243432, "AddressId": 1583937, "Specialty": "General Practice", "Photo": "findadentist.ada.org/Images/Profile/ADA.png", "Name": "Dr. Lakshmi D Yaddanapudi", "Email": "", "Phone": null, "Address": "3851 S Stonebridge Dr Ste 100 McKinney, TX 75070-6163", "City": "McKinney", "State": "TX", "Zip": "75070-6163", "AddressLine1": "3851 S Stonebridge Dr Ste 100", "AddressLine2": "", "Distance": 2.1, "Latitude": 33.16832, "Longitude": -96.72976}, {"Sequence": 22, "PersonId": 237257, "AddressId": 1577762, "Specialty": "General Practice", "Photo": "findadentist.ada.org/Images/Profile/ADA.png", "Name": "Dr. Svetlana Usherenko", "Email": "", "Phone": "(972) 542-4141", "Address": "4550 Eldorado Pkwy Ste 107 McKinney, TX 75070-2507", "City": "McKinney", "State": "TX", "Zip": "75070-2507", "AddressLine1": "4550 Eldorado Pkwy Ste 107", "AddressLine2": "", "Distance": 1.2, "Latitude": 33.17299, "Longitude": -96.67703}, {"Sequence": 23, "PersonId": 3477, "AddressId": 3429276, "Specialty": "Periodontics", "Photo": "findadentist.ada.org/Images/Profile/ADA.png", "Name": "Dr Melissa B Dean", "Email": "", "Phone": "(214) 991-1737", "Address": "1720 N Central Expy Ste 130 McKinney, TX 75070-3100", "City": "McKinney", "State": "TX", "Zip": "75070-3100", "AddressLine1": "1720 N Central Expy Ste 130", "AddressLine2": "", "Distance": 4.3, "Latitude": 33.21445, "Longitude": -96.63484}]