[{"Sequence": 1, "PersonId": 234888, "AddressId": 1575393, "Specialty": "General Practice", "Photo": "findadentist.ada.org/Images/Profile/234888-Dr-Amber-Weems.png", "Name": "Dr. Amber M Weems", "Email": "", "Phone": "(214) 398-1234", "Address": "8222 Bruton Rd Dallas, TX 75217-1902", "City": "Dallas", "State": "TX", "Zip": "75217-1902", "AddressLine1": "8222 Bruton Rd", "AddressLine2": "", "Distance": 2.7, "Latitude": 32.74858, "Longitude": -96.6797}, {"Sequence": 2, "PersonId": 236081, "AddressId": 2762212, "Specialty": "Pediatric Dentistry", "Photo": "findadentist.ada.org/Images/Profile/236081-Dr-Justin-Chan.png", "Name": "Dr. Justin N Chan", "Email": "", "Phone": "(214) 420-4400", "Address": "10325 Lake June Rd Ste 500 Dallas, TX 75217-5304", "City": "Dallas", "State": "TX", "Zip": "75217-5304", "AddressLine1": "10325 Lake June Rd Ste 500", "AddressLine2": "", "Distance": 2.4, "Latitude": 32.73533, "Longitude": -96.64662}, {"Sequence": 3, "PersonId": 115534, "AddressId": 3575157, "Specialty": "Endodontics", "Photo": "findadentist.ada.org/Images/Profile/115534-Dr-Rita-Ne.png", "Name": "Dr. Rita F Ne", "Email": "rcd@happy2th.net", "Phone": "(214) 307-5674", "Address": "9202 Elam Rd Dallas, TX 75217-4151", "City": "Dallas", "State": "TX", "Zip": "75217-4151", "AddressLine1": "9202 Elam Rd", "AddressLine2": "", "Distance": 0.9, "Latitude": 32.71801, "Longitude": -96.66255}, {"Sequence": 4, "PersonId": 88259, "AddressId": 1428764, "Specialty": "General Practice", "Photo": "findadentist.ada.org/Images/Profile/ADA.png", "Name": "Dr. Richard M Linden, Jr", "Email": "", "Phone": "(214) 398-1568", "Address": "8324 Lake June Rd Dallas, TX 75217-2135", "City": "Dallas", "State": "TX", "Zip": "75217-2135", "AddressLine1": "8324 Lake June Rd", "AddressLine2": "", "Distance": 1.7, "Latitude": 32.73395, "Longitude": -96.67759}, {"Sequence": 5, "PersonId": 41387, "AddressId": 1381892, "Specialty": "General Practice", "Photo": "findadentist.ada.org/Images/Profile/ADA.png", "Name": "Dr Eva M Watkis-Bynoe", "Email": "", "Phone": "(214) 398-1234", "Address": "8228 Bruton Rd Dallas, TX 75217-1902", "City": "Dallas", "State": "TX", "Zip": "75217-1902", "AddressLine1": "8228 Bruton Rd", "AddressLine2": "", "Distance": 2.7, "Latitude": 32.74827, "Longitude": -96.67949}]