[{"Sequence": 1, "PersonId": 151299, "AddressId": 1491804, "Specialty": "General Practice", "Photo": "findadentist.ada.org/Images/Profile/151299-Dr-Lisa-Clark.png", "Name": "Dr. Lisa Clark", "Email": "", "Phone": "(214) 793-9358", "Address": "101 E 9th St Bonham, TX 75418-3703", "City": "Bonham", "State": "TX", "Zip": "75418-3703", "AddressLine1": "101 E 9th St", "AddressLine2": "", "Distance": 15.3, "Latitude": 33.58191, "Longitude": -96.17888}, {"Sequence": 2, "PersonId": 151701, "AddressId": 1492206, "Specialty": "General Practice", "Photo": "findadentist.ada.org/Images/Profile/151701-Dr-Peter-Clark.png", "Name": "Dr. Peter A Clark", "Email": "bonhamdmd@cable1.net", "Phone": "(903) 583-8023", "Address": "101 E 9th St Bonham, TX 75418-3703", "City": "Bonham", "State": "TX", "Zip": "75418-3703", "AddressLine1": "101 E 9th St", "AddressLine2": "", "Distance": 15.3, "Latitude": 33.58191, "Longitude": -96.17888}, {"Sequence": 3, "PersonId": 91059, "AddressId": 1431564, "Specialty": "General Practice", "Photo": "findadentist.ada.org/Images/Profile/91059-Dr-Jerry-Hopson.png", "Name": "Dr Jerry J Hopson", "Email": "dochop@verizon.net", "Phone": "(903) 583-5715", "Address": "220 W Sam Rayburn Dr Bonham, TX 75418-4326", "City": "Bonham", "State": "TX", "Zip": "75418-4326", "AddressLine1": "220 W Sam Rayburn Dr", "AddressLine2": "", "Distance": 15.5, "Latitude": 33.57739, "Longitude": -96.1813}]