[{"Sequence": 1, "PersonId": 252862, "AddressId": 2809528, "Specialty": "Periodontics", "Photo": "findadentist.ada.org/Images/Profile/252862-Dr-Wesam-Salha.png", "Name": "Dr. Wesam Salha", "Email": "info@galleriaperio.com", "Phone": "(713) 784-6065", "Address": "5858 Westheimer Rd Ste 820 Houston, TX 77057-5648", "City": "Houston", "State": "TX", "Zip": "77057-5648", "AddressLine1": "5858 Westheimer Rd Ste 820", "AddressLine2": "", "Distance": 1.0, "Latitude": 29.73925, "Longitude": -95.48353}, {"Sequence": 2, "PersonId": 93727, "AddressId": 2756160, "Specialty": "General Practice", "Photo": "findadentist.ada.org/Images/Profile/93727-Dr-Sharon-Garner.png", "Name": "Dr Sharon J Garner", "Email": "sharonjgarnerdds@gmail.com", "Phone": "(713) 789-4300", "Address": "6150 Richmond Ave Ste 218 Houston, TX 77057-6206", "City": "Houston", "State": "TX", "Zip": "77057-6206", "AddressLine1": "6150 Richmond Ave Ste 218", "AddressLine2": "", "Distance": 1.3, "Latitude": 29.73223, "Longitude": -95.48837}, {"Sequence": 3, "PersonId": 93255, "AddressId": 1433760, "Specialty": "General Practice", "Photo": "findadentist.ada.org/Images/Profile/93255-Dr-James-Hinson.png", "Name": "Dr James P Hinson", "Email": "", "Phone": "(713) 952-6266", "Address": "5851 San Felipe St Ste 750 Houston, TX 77057-8014", "City": "Houston", "State": "TX", "Zip": "77057-8014", "AddressLine1": "5851 San Felipe St Ste 750", "AddressLine2": "", "Distance": 0.6, "Latitude": 29.74958, "Longitude": -95.48306}, {"Sequence": 4, "PersonId": 92733, "AddressId": 3311562, "Specialty": "General Practice", "Photo": "findadentist.ada.org/Images/Profile/92733-Dr-Sam-Davis.png", "Name": "Dr Sam S Davis", "Email": "", "Phone": "(713) 781-2800", "Address": "1220 Augusta Dr Ste 200 Houston, TX 77057-2270", "City": "Houston", "State": "TX", "Zip": "77057-2270", "AddressLine1": "1220 Augusta Dr Ste 200", "AddressLine2": "", "Distance": 0.7, "Latitude": 29.75467, "Longitude": -95.48311}, {"Sequence": 5, "PersonId": 91904, "AddressId": 1432409, "Specialty": "Prosthodontics", "Photo": "findadentist.ada.org/Images/Profile/91904-Dr-Frank-Greider.png", "Name": "Dr Frank C Greider", "Email": "office@getgreiderized.com", "Phone": "(713) 789-0015", "Address": "510 Bering Dr Ste 440 Houston, TX 77057-1459", "City": "Houston", "State": "TX", "Zip": "77057-1459", "AddressLine1": "510 Bering Dr Ste 440", "AddressLine2": "", "Distance": 1.2, "Latitude": 29.76402, "Longitude": -95.48112}, {"Sequence": 6, "PersonId": 242937, "AddressId": 3098488, "Specialty": "General Practice", "Photo": "findadentist.ada.org/Images/Profile/242937-Dr-Nelson-Lawnin.png", "Name": "Dr. Nelson R Lawnin", "Email": "office@tanglewood-dds.com", "Phone": "(713) 784-2952", "Address": "1800 Bering Dr Ste 650 Houston, TX 77057-3170", "City": "Houston", "State": "TX", "Zip": "77057-3170", "AddressLine1": "1800 Bering Dr Ste 650", "AddressLine2": "", "Distance": 0.8, "Latitude": 29.7482, "Longitude": -95.48013}, {"Sequence": 7, "PersonId": 92951, "AddressId": 1433456, "Specialty": "General Practice", "Photo": "findadentist.ada.org/Images/Profile/92951-Dr-Jeffrey-Lewis.png", "Name": "Dr Jeffrey A Lewis", "Email": "", "Phone": "(713) 781-1733", "Address": "6060 Richmond Ave Ste 340 Houston, TX 77057-6205", "City": "Houston", "State": "TX", "Zip": "77057-6205", "AddressLine1": "6060 Richmond Ave Ste 340", "AddressLine2": "", "Distance": 1.3, "Latitude": 29.73237, "Longitude": -95.48674}, {"Sequence": 8, "PersonId": 60342, "AddressId": 3583739, "Specialty": "General Practice", "Photo": "findadentist.ada.org/Images/Profile/60342-Dr-Thomas-Hedge.png", "Name": "Dr Thomas Hedge", "Email": "officeadmin@drfrazar.com", "Phone": "(713) 782-4174", "Address": "800 Bering Dr Ste 340 Houston, TX 77057-2131", "City": "Houston", "State": "TX", "Zip": "77057-2131", "AddressLine1": "800 Bering Dr Ste 340", "AddressLine2": "", "Distance": 0.9, "Latitude": 29.75787, "Longitude": -95.48065}, {"Sequence": 9, "PersonId": 93783, "AddressId": 3310948, "Specialty": "General Practice", "Photo": "findadentist.ada.org/Images/Profile/93783-Dr-James-Herbst.png", "Name": "Dr James R Herbst, Jr.", "Email": "practice@jamesherbstdds.com", "Phone": "(713) 266-2265", "Address": "2401 Fountain View Dr Ste 106 Houston, TX 77057-4819", "City": "Houston", "State": "TX", "Zip": "77057-4819", "AddressLine1": "2401 Fountain View Dr Ste 106", "AddressLine2": "", "Distance": 0.8, "Latitude": 29.74161, "Longitude": -95.48456}, {"Sequence": 10, "PersonId": 252579, "AddressId": 2819924, "Specialty": "General Practice", "Photo": "findadentist.ada.org/Images/Profile/ADA.png", "Name": "Dr. Matthew A Guerre", "Email": "", "Phone": "(713) 781-2800", "Address": "1220 Augusta Dr Ste 200 Houston, TX 77057-2270", "City": "Houston", "State": "TX", "Zip": "77057-2270", "AddressLine1": "1220 Augusta Dr Ste 200", "AddressLine2": "", "Distance": 0.7, "Latitude": 29.75467, "Longitude": -95.48311}, {"Sequence": 11, "PersonId": 240540, "AddressId": 1581045, "Specialty": "General Practice", "Photo": "findadentist.ada.org/Images/Profile/ADA.png", "Name": "Dr. Jeff J Tollett", "Email": "", "Phone": "(713) 622-3240", "Address": "1011 Augusta Dr Ste 100 Houston, TX 77057-2035", "City": "Houston", "State": "TX", "Zip": "77057-2035", "AddressLine1": "1011 Augusta Dr Ste 100", "AddressLine2": "", "Distance": 0.8, "Latitude": 29.75755, "Longitude": -95.48214}, {"Sequence": 12, "PersonId": 92460, "AddressId": 3383682, "Specialty": "General Practice", "Photo": "findadentist.ada.org/Images/Profile/ADA.png", "Name": "Dr Donald C Ruthven, Jr.", "Email": "heidi@drruthven.com", "Phone": "(713) 622-6068", "Address": "5701 Woodway Dr Ste 250 Houston, TX 77057-1589", "City": "Houston", "State": "TX", "Zip": "77057-1589", "AddressLine1": "5701 Woodway Dr Ste 250", "AddressLine2": "", "Distance": 1.3, "Latitude": 29.76341, "Longitude": -95.47832}, {"Sequence": 13, "PersonId": 93393, "AddressId": 1433898, "Specialty": "General Practice", "Photo": "findadentist.ada.org/Images/Profile/ADA.png", "Name": "Dr. Roger A. Kaestner", "Email": "", "Phone": "(713) 783-4591", "Address": "5605 Winsome Ln Houston, TX 77057-5729", "City": "Houston", "State": "TX", "Zip": "77057-5729", "AddressLine1": "5605 Winsome Ln", "AddressLine2": "", "Distance": 1.5, "Latitude": 29.73499, "Longitude": -95.47701}, {"Sequence": 14, "PersonId": 91834, "AddressId": 3289676, "Specialty": "General Practice", "Photo": "findadentist.ada.org/Images/Profile/ADA.png", "Name": "Dr Richard H Haines", "Email": "", "Phone": "(282) 242-3333", "Address": "1800 Bering Dr Ste 650 Houston, TX 77057-3170", "City": "Houston", "State": "TX", "Zip": "77057-3170", "AddressLine1": "1800 Bering Dr Ste 650", "AddressLine2": "", "Distance": 0.8, "Latitude": 29.74825, "Longitude": -95.48034}, {"Sequence": 15, "PersonId": 91911, "AddressId": 1432416, "Specialty": "General Practice", "Photo": "findadentist.ada.org/Images/Profile/ADA.png", "Name": "Dr Ronald D Hickerson", "Email": "", "Phone": "(713) 782-3123", "Address": "5701 Woodway Dr Ste 250 Houston, TX 77057-1589", "City": "Houston", "State": "TX", "Zip": "77057-1589", "AddressLine1": "5701 Woodway Dr Ste 250", "AddressLine2": "", "Distance": 1.3, "Latitude": 29.76341, "Longitude": -95.47832}, {"Sequence": 16, "PersonId": 91916, "AddressId": 2758117, "Specialty": "Periodontics", "Photo": "findadentist.ada.org/Images/Profile/ADA.png", "Name": "Dr Lawrence A Friedman", "Email": "", "Phone": "(713) 266-0366", "Address": "3838 Hillcroft St Ste 308 Houston, TX 77057-7722", "City": "Houston", "State": "TX", "Zip": "77057-7722", "AddressLine1": "3838 Hillcroft St Ste 308", "AddressLine2": "", "Distance": 1.8, "Latitude": 29.72525, "Longitude": -95.50162}]