[{"Sequence": 1, "PersonId": 93162, "AddressId": 1433667, "Specialty": "General Practice", "Photo": "findadentist.ada.org/Images/Profile/93162-Dr-Gregory-Linney.png", "Name": "Gregory A Linney", "Email": "Office@drlinney.com", "Phone": "(281) 980-1733", "Address": "4660 Sweetwater Blvd Ste 230 Sugar Land, TX 77479-3167", "City": "Sugar Land", "State": "TX", "Zip": "77479-3167", "AddressLine1": "4660 Sweetwater Blvd Ste 230", "AddressLine2": "", "Distance": 1.5, "Latitude": 29.58312, "Longitude": -95.63013}, {"Sequence": 2, "PersonId": 92955, "AddressId": 1433460, "Specialty": "Orthodontics and Dentofacial Orthopedics", "Photo": "findadentist.ada.org/Images/Profile/92955-Dr-Dennis-Halford.png", "Name": "Dr Dennis E Halford", "Email": "", "Phone": "(281) 980-8351", "Address": "4503 Sweetwater Blvd Sugar Land, TX 77479-3010", "City": "Sugar Land", "State": "TX", "Zip": "77479-3010", "AddressLine1": "4503 Sweetwater Blvd", "AddressLine2": "", "Distance": 1.4, "Latitude": 29.58064, "Longitude": -95.63126}, {"Sequence": 3, "PersonId": 93438, "AddressId": 3163859, "Specialty": "General Practice", "Photo": "findadentist.ada.org/Images/Profile/93438-Dr-Timothy-Cashion.png", "Name": "Dr Timothy J Cashion  DDS", "Email": "mydentist@candcdental.com", "Phone": "(281) 242-0241", "Address": "17003 Southwest Fwy Ste 100 Sugar Land, TX 77479-3480", "City": "Sugar Land", "State": "TX", "Zip": "77479-3480", "AddressLine1": "17003 Southwest Fwy Ste 100", "AddressLine2": "", "Distance": 3.0, "Latitude": 29.60973, "Longitude": -95.60868}, {"Sequence": 4, "PersonId": 93655, "AddressId": 3359653, "Specialty": "Prosthodontics", "Photo": "findadentist.ada.org/Images/Profile/93655-Dr-Matthew-Gemp.png", "Name": "Dr Matthew D Gemp", "Email": "info@drmatthewgemp.com", "Phone": "(281) 491-4426", "Address": "3501 Town Center Blvd S Sugar Land, TX 77479-1285", "City": "Sugar Land", "State": "TX", "Zip": "77479-1285", "AddressLine1": "3501 Town Center Blvd S", "AddressLine2": "", "Distance": 1.7, "Latitude": 29.58766, "Longitude": -95.62957}, {"Sequence": 5, "PersonId": 93059, "AddressId": 1433564, "Specialty": "General Practice", "Photo": "findadentist.ada.org/Images/Profile/93059-Dr-Bruce-Greenway.png", "Name": "Dr Bruce C Greenway", "Email": "info@brucegreenwaydds.com", "Phone": "(281) 980-1150", "Address": "4507 Sweetwater Blvd Sugar Land, TX 77479-3010", "City": "Sugar Land", "State": "TX", "Zip": "77479-3010", "AddressLine1": "4507 Sweetwater Blvd", "AddressLine2": "", "Distance": 1.4, "Latitude": 29.58096, "Longitude": -95.63124}, {"Sequence": 6, "PersonId": 93809, "AddressId": 1434314, "Specialty": "Periodontics", "Photo": "findadentist.ada.org/Images/Profile/93809-Dr-Stephen-Watson.png", "Name": "Dr Stephen C Watson Jr DDS", "Email": "info@drwatson.cc", "Phone": "(281) 491-5655", "Address": "4724 Sweetwater Blvd Ste 101 Sugar Land, TX 77479-3150", "City": "Sugar Land", "State": "TX", "Zip": "77479-3150", "AddressLine1": "4724 Sweetwater Blvd Ste 101", "AddressLine2": "", "Distance": 1.6, "Latitude": 29.5851, "Longitude": -95.63004}, {"Sequence": 7, "PersonId": 92013, "AddressId": 1432518, "Specialty": "Orthodontics and Dentofacial Orthopedics", "Photo": "findadentist.ada.org/Images/Profile/92013-Dr-Fred-Garrett.png", "Name": "Dr Fred A Garrett", "Email": "", "Phone": "(281) 980-3900", "Address": "4645 Sweetwater Blvd Ste 100 Sugar Land, TX 77479-3016", "City": "Sugar Land", "State": "TX", "Zip": "77479-3016", "AddressLine1": "4645 Sweetwater Blvd Ste 100", "AddressLine2": "", "Distance": 1.5, "Latitude": 29.58247, "Longitude": -95.63201}, {"Sequence": 8, "PersonId": 150432, "AddressId": 1490937, "Specialty": "Endodontics", "Photo": "findadentist.ada.org/Images/Profile/150432-Dr-Kevin-Izu.png", "Name": "Dr. Kevin H Izu", "Email": "", "Phone": "(281) 494-9033", "Address": "3501 Town Center Blvd S Sugar Land, TX 77479-1285", "City": "Sugar Land", "State": "TX", "Zip": "77479-1285", "AddressLine1": "3501 Town Center Blvd S", "AddressLine2": "", "Distance": 1.7, "Latitude": 29.58694, "Longitude": -95.62896}, {"Sequence": 9, "PersonId": 91787, "AddressId": 3500744, "Specialty": "General Practice", "Photo": "findadentist.ada.org/Images/Profile/91787-Dr-Stephen-Lukin.png", "Name": "Dr Stephen P Lukin", "Email": "info@lukinfamilydentistry.com", "Phone": "(281) 265-9000", "Address": "7417 Branford Pl Ste 100 Sugar Land, TX 77479-4999", "City": "Sugar Land", "State": "TX", "Zip": "77479-4999", "AddressLine1": "7417 Branford Pl Ste 100", "AddressLine2": "", "Distance": 2.5, "Latitude": 29.5885, "Longitude": -95.64756}, {"Sequence": 10, "PersonId": 92670, "AddressId": 1433175, "Specialty": "Orthodontics and Dentofacial Orthopedics", "Photo": "findadentist.ada.org/Images/Profile/92670-Dr-Glen-Petrick.png", "Name": "Dr Glen F Petrick", "Email": "", "Phone": "(281) 313-8890", "Address": "4724 Sweetwater Blvd Ste 103 Sugar Land, TX 77479-3150", "City": "Sugar Land", "State": "TX", "Zip": "77479-3150", "AddressLine1": "4724 Sweetwater Blvd Ste 103", "AddressLine2": "", "Distance": 1.6, "Latitude": 29.5851, "Longitude": -95.63004}, {"Sequence": 11, "PersonId": 91760, "AddressId": 2997046, "Specialty": "Periodontics", "Photo": "findadentist.ada.org/Images/Profile/91760-Dr-Bret-Dyer.png", "Name": "Dr Bret L Dyer", "Email": "drbretdyer@gmail.com", "Phone": "(281) 980-2344", "Address": "4645 Sweetwater Blvd Ste 800 Sugar Land, TX 77479-3129", "City": "Sugar Land", "State": "TX", "Zip": "77479-3129", "AddressLine1": "4645 Sweetwater Blvd Ste 800", "AddressLine2": "", "Distance": 1.5, "Latitude": 29.58236, "Longitude": -95.63138}, {"Sequence": 12, "PersonId": 161196, "AddressId": 1501701, "Specialty": "Oral and Maxillofacial Surgery", "Photo": "findadentist.ada.org/Images/Profile/161196-Dr-William-Jordan.png", "Name": "Dr. William V Jordan", "Email": "", "Phone": "(281) 242-2848", "Address": "3501 Town Center Blvd S Sugar Land, TX 77479-1285", "City": "Sugar Land", "State": "TX", "Zip": "77479-1285", "AddressLine1": "3501 Town Center Blvd S", "AddressLine2": "", "Distance": 1.7, "Latitude": 29.58767, "Longitude": -95.62958}, {"Sequence": 13, "PersonId": 276154, "AddressId": 1616659, "Specialty": "Prosthodontics", "Photo": "findadentist.ada.org/Images/Profile/276154-Dr-Stuart-Rimes.png", "Name": "Dr Stuart O Rimes", "Email": "dr.rimes@comcast.net", "Phone": "(281) 313-1565", "Address": "15958 City Walk Ste 230 Sugar Land, TX 77479-6584", "City": "Sugar Land", "State": "TX", "Zip": "77479-6584", "AddressLine1": "15958 City Walk Ste 230", "AddressLine2": null, "Distance": 2.2, "Latitude": 29.59696, "Longitude": -95.62146}, {"Sequence": 14, "PersonId": 208084, "AddressId": 1548589, "Specialty": "Endodontics", "Photo": "findadentist.ada.org/Images/Profile/208084-Dr-Monica-Chamorro.png", "Name": "Dr. Monica M Chamorro", "Email": "", "Phone": "(713) 234-7800", "Address": "16545 Southwest Fwy Ste 270 Sugar Land, TX 77479-3601", "City": "Sugar Land", "State": "TX", "Zip": "77479-3601", "AddressLine1": "16545 Southwest Fwy Ste 270", "AddressLine2": "", "Distance": 1.9, "Latitude": 29.59105, "Longitude": -95.62847}, {"Sequence": 15, "PersonId": 91715, "AddressId": 1432220, "Specialty": "Orthodontics and Dentofacial Orthopedics", "Photo": "findadentist.ada.org/Images/Profile/91715-Dr-Richard-Boyd.png", "Name": "Dr Richard W Boyd, Jr.", "Email": "info@lonestarbrases.com", "Phone": "(281) 980-3900", "Address": "4645 Sweetwater Blvd Ste 100 Sugar Land, TX 77479-3016", "City": "Sugar Land", "State": "TX", "Zip": "77479-3016", "AddressLine1": "4645 Sweetwater Blvd Ste 100", "AddressLine2": "", "Distance": 1.5, "Latitude": 29.58247, "Longitude": -95.63201}, {"Sequence": 16, "PersonId": 189743, "AddressId": 1530248, "Specialty": "General Practice", "Photo": "findadentist.ada.org/Images/Profile/189743-Dr-Gretchen-Jetton.png", "Name": "Dr. Gretchen M Jetton", "Email": "info@sugarlandkidsteeth.com", "Phone": "(281) 232-7556", "Address": "17320 W Grand Pkwy S Ste D Sugar Land, TX 77479-2667", "City": "Sugar Land", "State": "TX", "Zip": "77479-2667", "AddressLine1": "17320 W Grand Pkwy S Ste D", "AddressLine2": "", "Distance": 4.2, "Latitude": 29.57425, "Longitude": -95.68339}, {"Sequence": 17, "PersonId": 233645, "AddressId": 2801251, "Specialty": "General Practice", "Photo": "findadentist.ada.org/Images/Profile/233645-Dr-Jieun-Chiu.png", "Name": "Dr. Jieun Chiu", "Email": "", "Phone": "(281) 424-0241", "Address": "17003 Southwest Fwy Ste 100 Sugar Land, TX 77479-3480", "City": "Sugar Land", "State": "TX", "Zip": "77479-3480", "AddressLine1": "17003 Southwest Fwy Ste 100", "AddressLine2": "", "Distance": 2.2, "Latitude": 29.58544, "Longitude": -95.64359}, {"Sequence": 18, "PersonId": 93461, "AddressId": 1433966, "Specialty": "General Practice", "Photo": "findadentist.ada.org/Images/Profile/93461-Dr-Teresa-Cody.png", "Name": "Dr Teresa A Cody", "Email": "", "Phone": "(281) 242-0241", "Address": "17003 Southwest Fwy Ste 100 Sugar Land, TX 77479-3480", "City": "Sugar Land", "State": "TX", "Zip": "77479-3480", "AddressLine1": "17003 Southwest Fwy Ste 100", "AddressLine2": "", "Distance": 1.9, "Latitude": 29.58746, "Longitude": -95.63565}, {"Sequence": 19, "PersonId": 93095, "AddressId": 1433600, "Specialty": "General Practice", "Photo": "findadentist.ada.org/Images/Profile/ADA.png", "Name": "Dr Ronald K Rich", "Email": "", "Phone": "(281) 980-2537", "Address": "4507 Sweetwater Blvd Sugar Land, TX 77479-3010", "City": "Sugar Land", "State": "TX", "Zip": "77479-3010", "AddressLine1": "4507 Sweetwater Blvd", "AddressLine2": "", "Distance": 1.4, "Latitude": 29.58097, "Longitude": -95.63124}, {"Sequence": 20, "PersonId": 93547, "AddressId": 1434052, "Specialty": "General Practice", "Photo": "findadentist.ada.org/Images/Profile/ADA.png", "Name": "Dr. Akbar A Ebrahimian", "Email": "akbar.ebrahimian@gmail.com", "Phone": "(281) 277-8787", "Address": "5814 New Territory Blvd Sugar Land, TX 77479-5948", "City": "Sugar Land", "State": "TX", "Zip": "77479-5948", "AddressLine1": "5814 New Territory Blvd", "AddressLine2": "", "Distance": 4.1, "Latitude": 29.5905, "Longitude": -95.67616}, {"Sequence": 21, "PersonId": 92796, "AddressId": 1433301, "Specialty": "General Practice", "Photo": "findadentist.ada.org/Images/Profile/ADA.png", "Name": "Duncan G. Foulds, DDS", "Email": "", "Phone": "(281) 265-6565", "Address": "4655 Sweetwater Blvd Ste 500 Sugar Land, TX 77479-3127", "City": "Sugar Land", "State": "TX", "Zip": "77479-3127", "AddressLine1": "4655 Sweetwater Blvd Ste 500", "AddressLine2": "", "Distance": 1.6, "Latitude": 29.58259, "Longitude": -95.63223}, {"Sequence": 22, "PersonId": 93814, "AddressId": 1434319, "Specialty": "General Practice", "Photo": "findadentist.ada.org/Images/Profile/ADA.png", "Name": "Dr Samuel E Cress", "Email": "", "Phone": "(281) 565-4100", "Address": "4545 Sweetwater Blvd Sugar Land, TX 77479-3010", "City": "Sugar Land", "State": "TX", "Zip": "77479-3010", "AddressLine1": "4545 Sweetwater Blvd", "AddressLine2": "", "Distance": 1.5, "Latitude": 29.58158, "Longitude": -95.63121}, {"Sequence": 23, "PersonId": 93135, "AddressId": 3317457, "Specialty": "General Practice", "Photo": "findadentist.ada.org/Images/Profile/ADA.png", "Name": "Dr Byron H Cole", "Email": "gpdsugarland@gmail.com", "Phone": "(281) 565-8822", "Address": "4907 Sandhill Dr Ste C Sugar Land, TX 77479-5352", "City": "Sugar Land", "State": "TX", "Zip": "77479-5352", "AddressLine1": "4907 Sandhill Dr Ste C", "AddressLine2": "", "Distance": 4.7, "Latitude": 29.59986, "Longitude": -95.68183}, {"Sequence": 24, "PersonId": 206071, "AddressId": 1546576, "Specialty": "General Practice", "Photo": "findadentist.ada.org/Images/Profile/ADA.png", "Name": "Dr. Holly D Doffing", "Email": "hollydoffingdds@winstream.net", "Phone": "(281) 491-9177", "Address": "4724 Sweetwater Blvd Ste 106 Sugar Land, TX 77479-3150", "City": "Sugar Land", "State": "TX", "Zip": "77479-3150", "AddressLine1": "4724 Sweetwater Blvd Ste 106", "AddressLine2": null, "Distance": 1.6, "Latitude": 29.5851, "Longitude": -95.63004}, {"Sequence": 25, "PersonId": 93276, "AddressId": 2795314, "Specialty": "General Practice", "Photo": "findadentist.ada.org/Images/Profile/ADA.png", "Name": "Dr Thomas E Swonke", "Email": "", "Phone": "(281) 565-0808", "Address": "4724 Sweetwater Blvd Sugar Land, TX 77479-3149", "City": "Sugar Land", "State": "TX", "Zip": "77479-3149", "AddressLine1": "4724 Sweetwater Blvd", "AddressLine2": "", "Distance": 1.6, "Latitude": 29.5851, "Longitude": -95.63004}]