[{"Sequence": 1, "PersonId": 87391, "AddressId": 2760433, "Specialty": "General Practice", "Photo": "findadentist.ada.org/Images/Profile/ADA.png", "Name": "Dr Lewis F Varvel, III", "Email": "", "Phone": "(979) 279-3312", "Address": "1004 Hackberry St Hearne, TX 77859-3074", "City": "Hearne", "State": "TX", "Zip": "77859-3074", "AddressLine1": "1004 Hackberry St", "AddressLine2": "", "Distance": 1.2, "Latitude": 30.87167, "Longitude": -96.59801}, {"Sequence": 2, "PersonId": 260858, "AddressId": 2798990, "Specialty": "General Practice", "Photo": "findadentist.ada.org/Images/Profile/ADA.png", "Name": "Dr. Abdulaziz Dudeen", "Email": "", "Phone": "(979) 778-6010", "Address": "1601 N Texas Ave Ste 150 Bryan, TX 77803-1857", "City": "Bryan", "State": "TX", "Zip": "77803-1857", "AddressLine1": "1601 N Texas Ave Ste 150", "AddressLine2": "", "Distance": 19.3, "Latitude": 30.68973, "Longitude": -96.37136}, {"Sequence": 3, "PersonId": 96226, "AddressId": 3140037, "Specialty": "General Practice", "Photo": "findadentist.ada.org/Images/Profile/ADA.png", "Name": "Dr William J Baxter", "Email": "WJBAXTERDDS@GMAIL.COM", "Phone": "(979) 828-1505", "Address": "206 N Calvert St Franklin, TX 77856-5991", "City": "Franklin", "State": "TX", "Zip": "77856-5991", "AddressLine1": "206 N Calvert St", "AddressLine2": "", "Distance": 11.5, "Latitude": 31.02572, "Longitude": -96.48926}]