[{"Sequence": 1, "PersonId": 200521, "AddressId": 3165307, "Specialty": "General Practice", "Photo": "findadentist.ada.org/Images/Profile/200521-Dr-Donnese-Fritsche.png", "Name": "Dr. Donnese Fritsche", "Email": "info@victoriatxdentist.com", "Phone": "(361) 573-7722", "Address": "110 Professional Park Dr Victoria, TX 77904-2351", "City": "Victoria", "State": "TX", "Zip": "77904-2351", "AddressLine1": "110 Professional Park Dr", "AddressLine2": "", "Distance": 12.4, "Latitude": 28.84138, "Longitude": -96.98653}, {"Sequence": 2, "PersonId": 91520, "AddressId": 3162245, "Specialty": "General Practice", "Photo": "findadentist.ada.org/Images/Profile/91520-Dr-Mark-Spivey.png", "Name": "Dr Mark H Spivey", "Email": "", "Phone": "(361) 572-3055", "Address": "108 Professional Park Dr Victoria, TX 77904-2351", "City": "Victoria", "State": "TX", "Zip": "77904-2351", "AddressLine1": "108 Professional Park Dr", "AddressLine2": "", "Distance": 12.4, "Latitude": 28.84114, "Longitude": -96.98626}, {"Sequence": 3, "PersonId": 161401, "AddressId": 1501906, "Specialty": "Periodontics", "Photo": "findadentist.ada.org/Images/Profile/161401-Dr-Rick-Heard.png", "Name": "Dr. Rick H Heard, III", "Email": "gulfcoastperio@gmail.com", "Phone": "(361) 573-1014", "Address": "5606 N Navarro St Ste 304 Victoria, TX 77904-1770", "City": "Victoria", "State": "TX", "Zip": "77904-1770", "AddressLine1": "5606 N Navarro St Ste 304", "AddressLine2": "", "Distance": 12.2, "Latitude": 28.84769, "Longitude": -96.9979}, {"Sequence": 4, "PersonId": 91490, "AddressId": 1431995, "Specialty": "General Practice", "Photo": "findadentist.ada.org/Images/Profile/91490-Dr-Daniel-Garza.png", "Name": "Dr Daniel N Garza", "Email": "gdc_06@sbcglobal.net", "Phone": "(361) 645-2381", "Address": "317 S Market St Goliad, TX 77963-4167", "City": "Goliad", "State": "TX", "Zip": "77963-4167", "AddressLine1": "317 S Market St", "AddressLine2": "", "Distance": 15.9, "Latitude": 28.66568, "Longitude": -97.39131}, {"Sequence": 5, "PersonId": 91496, "AddressId": 1432001, "Specialty": "Orthodontics and Dentofacial Orthopedics", "Photo": "findadentist.ada.org/Images/Profile/91496-Dr-Robert-Westbrook.png", "Name": "Dr. Robert R Westbrook, Jr.", "Email": "dr-westbrook@victoriabraces.com", "Phone": "(361) 578-0326", "Address": "203 Kerh Blvd Victoria, TX 77904-1218", "City": "Victoria", "State": "TX", "Zip": "77904-1218", "AddressLine1": "203 Kerh Blvd", "AddressLine2": "", "Distance": 11.5, "Latitude": 28.85303, "Longitude": -97.02331}, {"Sequence": 6, "PersonId": 150135, "AddressId": 1490640, "Specialty": "General Practice", "Photo": "findadentist.ada.org/Images/Profile/150135-Dr-James-Omecinski.png", "Name": "Dr. James B Omecinski, Jr", "Email": "", "Phone": "(361) 573-4701", "Address": "306 E Airline Rd Victoria, TX 77901-3964", "City": "Victoria", "State": "TX", "Zip": "77901-3964", "AddressLine1": "306 E Airline Rd", "AddressLine2": "", "Distance": 10.7, "Latitude": 28.82059, "Longitude": -97.00278}, {"Sequence": 7, "PersonId": 344081, "AddressId": 3412575, "Specialty": "General Practice", "Photo": "findadentist.ada.org/Images/Profile/344081-Dr-K.-Nicely.png", "Name": "Dr. K. Drew Nicely", "Email": "nicely.cares@gmail.com", "Phone": "(361) 645-2381", "Address": "317 S Market St Goliad, TX 77963-4167", "City": "Goliad", "State": "TX", "Zip": "77963-4167", "AddressLine1": "317 S Market St", "AddressLine2": "", "Distance": 15.9, "Latitude": 28.66551, "Longitude": -97.39106}, {"Sequence": 8, "PersonId": 91432, "AddressId": 3311159, "Specialty": "Oral and Maxillofacial Surgery", "Photo": "findadentist.ada.org/Images/Profile/91432-Dr-Thomas-Carter.png", "Name": "Dr Thomas B Carter", "Email": "", "Phone": "(361) 578-0247", "Address": "111 Professional Park Dr Victoria, TX 77904-2351", "City": "Victoria", "State": "TX", "Zip": "77904-2351", "AddressLine1": "111 Professional Park Dr", "AddressLine2": "", "Distance": 12.4, "Latitude": 28.84119, "Longitude": -96.9872}, {"Sequence": 9, "PersonId": 261094, "AddressId": 3066859, "Specialty": "General Practice", "Photo": "findadentist.ada.org/Images/Profile/261094-Dr-Grant-Heller.png", "Name": "Dr. Grant Heller", "Email": "victoriatxdental@gmail.com", "Phone": "(361) 575-0327", "Address": "112 Professional Park Dr Victoria, TX 77904-2351", "City": "Victoria", "State": "TX", "Zip": "77904-2351", "AddressLine1": "112 Professional Park Dr", "AddressLine2": "", "Distance": 12.4, "Latitude": 28.84156, "Longitude": -96.98676}, {"Sequence": 10, "PersonId": 91521, "AddressId": 1432026, "Specialty": "General Practice", "Photo": "findadentist.ada.org/Images/Profile/91521-Dr-Houston-Sterne.png", "Name": "Dr Houston P Sterne", "Email": "hsternedds1@gmail.com", "Phone": "(361) 576-0593", "Address": "2506 E Mockingbird Ln Victoria, TX 77904-2443", "City": "Victoria", "State": "TX", "Zip": "77904-2443", "AddressLine1": "2506 E Mockingbird Ln", "AddressLine2": "", "Distance": 12.6, "Latitude": 28.84213, "Longitude": -96.98337}, {"Sequence": 11, "PersonId": 240466, "AddressId": 2820668, "Specialty": "General Practice", "Photo": "findadentist.ada.org/Images/Profile/240466-Dr-Allyson-Bauch-Friedrich.png", "Name": "Dr. Allyson K Bauch-Friedrich", "Email": "drallyson.f@gmail.com", "Phone": "(361) 576-0777", "Address": "1702 E Airline Rd Victoria, TX 77901-4250", "City": "Victoria", "State": "TX", "Zip": "77901-4250", "AddressLine1": "1702 E Airline Rd", "AddressLine2": "", "Distance": 11.5, "Latitude": 28.82151, "Longitude": -96.98778}, {"Sequence": 12, "PersonId": 91440, "AddressId": 3311160, "Specialty": "General Practice", "Photo": "findadentist.ada.org/Images/Profile/91440-Dr-Robert-Lee.png", "Name": "Dr Robert E Lee, III", "Email": "drbudlee@suddenlink.net", "Phone": "(361) 578-2785", "Address": "106 Professional Park Dr Victoria, TX 77904-2351", "City": "Victoria", "State": "TX", "Zip": "77904-2351", "AddressLine1": "106 Professional Park Dr", "AddressLine2": "", "Distance": 12.4, "Latitude": 28.84095, "Longitude": -96.98603}, {"Sequence": 13, "PersonId": 192834, "AddressId": 3165308, "Specialty": "General Practice", "Photo": "findadentist.ada.org/Images/Profile/192834-Dr-J-Rainey.png", "Name": "Dr. J T Rainey, Jr.", "Email": "info@victoriatxdentist.com", "Phone": "(361) 573-7722", "Address": "110 Professional Park Dr Victoria, TX 77904-2351", "City": "Victoria", "State": "TX", "Zip": "77904-2351", "AddressLine1": "110 Professional Park Dr", "AddressLine2": "", "Distance": 12.4, "Latitude": 28.84138, "Longitude": -96.98653}, {"Sequence": 14, "PersonId": 272177, "AddressId": 3153957, "Specialty": "Pediatric Dentistry", "Photo": "findadentist.ada.org/Images/Profile/272177-Dr-Erin-Saucier.png", "Name": "Dr. Erin L Saucier", "Email": "drsaucier@hillcountrypdo.com", "Phone": "(361) 578-8800", "Address": "101 Professional Park Dr Victoria, TX 77904-2351", "City": "Victoria", "State": "TX", "Zip": "77904-2351", "AddressLine1": "101 Professional Park Dr", "AddressLine2": "", "Distance": 12.4, "Latitude": 28.84015, "Longitude": -96.98612}, {"Sequence": 15, "PersonId": 351166, "AddressId": 3421780, "Specialty": "General Practice", "Photo": "findadentist.ada.org/Images/Profile/351166-Dr-Brittany-Stafford.png", "Name": "Dr Brittany E Stafford", "Email": "", "Phone": "(361) 578-5205", "Address": "105 Professional Park Dr Victoria, TX 77904-2351", "City": "Victoria", "State": "TX", "Zip": "77904-2351", "AddressLine1": "105 Professional Park Dr", "AddressLine2": "", "Distance": 12.4, "Latitude": 28.84051, "Longitude": -96.98653}, {"Sequence": 16, "PersonId": 161361, "AddressId": 3052109, "Specialty": "General Practice", "Photo": "findadentist.ada.org/Images/Profile/161361-Dr-Rachel-Heard.png", "Name": "Dr. Rachel C Heard", "Email": "victoriafamilydentistry1@gmail.com", "Phone": "(361) 575-5079", "Address": "107 Professional Park Dr Victoria, TX 77904-2351", "City": "Victoria", "State": "TX", "Zip": "77904-2351", "AddressLine1": "107 Professional Park Dr", "AddressLine2": "", "Distance": 12.4, "Latitude": 28.84076, "Longitude": -96.98681}, {"Sequence": 17, "PersonId": 91491, "AddressId": 3498228, "Specialty": "Pediatric Dentistry", "Photo": "findadentist.ada.org/Images/Profile/91491-Dr-William-Shuttlesworth.png", "Name": "Dr William Shuttlesworth", "Email": "kiddds@rocketmail.com", "Phone": "(361) 578-9031", "Address": "4301 Retama Cir Victoria, TX 77901-2768", "City": "Victoria", "State": "TX", "Zip": "77901-2768", "AddressLine1": "4301 Retama Cir", "AddressLine2": "", "Distance": 11.8, "Latitude": 28.83322, "Longitude": -96.99225}, {"Sequence": 18, "PersonId": 91486, "AddressId": 3311155, "Specialty": "General Practice", "Photo": "findadentist.ada.org/Images/Profile/91486-Dr-John-Swannack.png", "Name": "Dr John H Swannack", "Email": "", "Phone": "(361) 578-5205", "Address": "105 Professional Park Dr Victoria, TX 77904-2351", "City": "Victoria", "State": "TX", "Zip": "77904-2351", "AddressLine1": "105 Professional Park Dr", "AddressLine2": "", "Distance": 12.4, "Latitude": 28.84051, "Longitude": -96.98653}, {"Sequence": 19, "PersonId": 91504, "AddressId": 3396107, "Specialty": "General Practice", "Photo": "findadentist.ada.org/Images/Profile/91504-Dr-Lisa-Heinrich-Null.png", "Name": "Dr Lisa A Heinrich-Null", "Email": "chs6701@yahoo.com", "Phone": "(361) 575-8735", "Address": "6701 N Navarro St Victoria, TX 77904-1513", "City": "Victoria", "State": "TX", "Zip": "77904-1513", "AddressLine1": "6701 N Navarro St", "AddressLine2": "", "Distance": 12.8, "Latitude": 28.85786, "Longitude": -96.99746}, {"Sequence": 20, "PersonId": 91530, "AddressId": 3311154, "Specialty": "General Practice", "Photo": "findadentist.ada.org/Images/Profile/91530-Dr-Thomas-Fordiani.png", "Name": "Dr Thomas R Fordiani", "Email": "fordiani@airmail.net", "Phone": "(361) 578-3544", "Address": "102 Professional Park Dr Victoria, TX 77904-2351", "City": "Victoria", "State": "TX", "Zip": "77904-2351", "AddressLine1": "102 Professional Park Dr", "AddressLine2": "", "Distance": 12.4, "Latitude": 28.8406, "Longitude": -96.98563}, {"Sequence": 21, "PersonId": 150133, "AddressId": 3383445, "Specialty": "General Practice", "Photo": "findadentist.ada.org/Images/Profile/150133-Dr-Amy-Arbogast.png", "Name": "Dr. Amy J Arbogast", "Email": "dramyarbogast@gmail.com", "Phone": "(361) 485-9607", "Address": "805 E Mockingbird Ln Ste A Victoria, TX 77904-2196", "City": "Victoria", "State": "TX", "Zip": "77904-2196", "AddressLine1": "805 E Mockingbird Ln Ste A", "AddressLine2": "", "Distance": 11.6, "Latitude": 28.83505, "Longitude": -96.99755}, {"Sequence": 22, "PersonId": 91495, "AddressId": 1432000, "Specialty": "General Practice", "Photo": "findadentist.ada.org/Images/Profile/ADA.png", "Name": "Dr Gary W Mueller", "Email": "", "Phone": "(361) 575-8088", "Address": "304 Salem Rd Victoria, TX 77904-1742", "City": "Victoria", "State": "TX", "Zip": "77904-1742", "AddressLine1": "304 Salem Rd", "AddressLine2": "", "Distance": 12.3, "Latitude": 28.84745, "Longitude": -96.99696}, {"Sequence": 23, "PersonId": 222474, "AddressId": 1562979, "Specialty": "General Practice", "Photo": "findadentist.ada.org/Images/Profile/ADA.png", "Name": "Dr. Mark J Sumbera", "Email": "", "Phone": "(361) 576-6118", "Address": "1401 Victoria Station Dr Victoria, TX 77901-3092", "City": "Victoria", "State": "TX", "Zip": "77901-3092", "AddressLine1": "1401 Victoria Station Dr", "AddressLine2": "", "Distance": 11.8, "Latitude": 28.83423, "Longitude": -96.99196}, {"Sequence": 24, "PersonId": 91493, "AddressId": 3311156, "Specialty": "General Practice", "Photo": "findadentist.ada.org/Images/Profile/ADA.png", "Name": "Dr Roy J Lott", "Email": "victoriatxdental@gmail.com", "Phone": "(361) 575-0237", "Address": "112 Professional Park Dr Victoria, TX 77904-2351", "City": "Victoria", "State": "TX", "Zip": "77904-2351", "AddressLine1": "112 Professional Park Dr", "AddressLine2": "", "Distance": 12.4, "Latitude": 28.84156, "Longitude": -96.98676}, {"Sequence": 25, "PersonId": 275413, "AddressId": 1615918, "Specialty": "Oral and Maxillofacial Surgery", "Photo": "findadentist.ada.org/Images/Profile/ADA.png", "Name": "Dr. Gary S Fries", "Email": "", "Phone": "(361) 578-0247", "Address": "111 Professional Park Dr Victoria, TX 77904-2351", "City": "Victoria", "State": "TX", "Zip": "77904-2351", "AddressLine1": "111 Professional Park Dr", "AddressLine2": "", "Distance": 12.4, "Latitude": 28.84119, "Longitude": -96.9872}, {"Sequence": 26, "PersonId": 91513, "AddressId": 1432018, "Specialty": "General Practice", "Photo": "findadentist.ada.org/Images/Profile/ADA.png", "Name": "Dr Malcolm J Sumbera", "Email": "sumberaandriveradental@gmail.com", "Phone": "(361) 576-6118", "Address": "1401 Victoria Station Dr Victoria, TX 77901-3092", "City": "Victoria", "State": "TX", "Zip": "77901-3092", "AddressLine1": "1401 Victoria Station Dr", "AddressLine2": "", "Distance": 11.9, "Latitude": 28.83434, "Longitude": -96.99196}, {"Sequence": 27, "PersonId": 91528, "AddressId": 3031503, "Specialty": "General Practice", "Photo": "findadentist.ada.org/Images/Profile/ADA.png", "Name": "Dr Kirby L Garrett", "Email": "KGARRETDDS@GMAIL.COM", "Phone": "(361) 575-9577", "Address": "1602 Salem Rd Victoria, TX 77904-1916", "City": "Victoria", "State": "TX", "Zip": "77904-1916", "AddressLine1": "1602 Salem Rd", "AddressLine2": "", "Distance": 13.1, "Latitude": 28.8559, "Longitude": -96.98732}, {"Sequence": 28, "PersonId": 91516, "AddressId": 1432021, "Specialty": "General Practice", "Photo": "findadentist.ada.org/Images/Profile/ADA.png", "Name": "Dr Martha M Malik", "Email": "", "Phone": "(361) 578-0381", "Address": "805 E Mockingbird Ln Ste D Victoria, TX 77904-2187", "City": "Victoria", "State": "TX", "Zip": "77904-2187", "AddressLine1": "805 E Mockingbird Ln Ste D", "AddressLine2": "", "Distance": 11.6, "Latitude": 28.83505, "Longitude": -96.99755}, {"Sequence": 29, "PersonId": 91517, "AddressId": 1432022, "Specialty": "General Practice", "Photo": "findadentist.ada.org/Images/Profile/ADA.png", "Name": "Dr Noble M Malik", "Email": "", "Phone": "(361) 578-0381", "Address": "805 E Mockingbird Ln Ste D Victoria, TX 77904-2187", "City": "Victoria", "State": "TX", "Zip": "77904-2187", "AddressLine1": "805 E Mockingbird Ln Ste D", "AddressLine2": "", "Distance": 11.6, "Latitude": 28.83505, "Longitude": -96.99755}, {"Sequence": 30, "PersonId": 205179, "AddressId": 1545684, "Specialty": "General Practice", "Photo": "findadentist.ada.org/Images/Profile/ADA.png", "Name": "Dr. Aaron Muegge", "Email": "", "Phone": "(361) 575-8088", "Address": "304 Salem Rd Victoria, TX 77904-1742", "City": "Victoria", "State": "TX", "Zip": "77904-1742", "AddressLine1": "304 Salem Rd", "AddressLine2": "", "Distance": 12.3, "Latitude": 28.84737, "Longitude": -96.99707}, {"Sequence": 31, "PersonId": 161309, "AddressId": 1501814, "Specialty": "General Practice", "Photo": "findadentist.ada.org/Images/Profile/ADA.png", "Name": "Dr. David R Rivera", "Email": "", "Phone": "(361) 576-6118", "Address": "1401 Victoria Station Dr Victoria, TX 77901-3092", "City": "Victoria", "State": "TX", "Zip": "77901-3092", "AddressLine1": "1401 Victoria Station Dr", "AddressLine2": "", "Distance": 11.8, "Latitude": 28.83423, "Longitude": -96.99196}, {"Sequence": 32, "PersonId": 242695, "AddressId": 1583200, "Specialty": "General Practice", "Photo": "findadentist.ada.org/Images/Profile/ADA.png", "Name": "Dr. Megan H Crane", "Email": "", "Phone": "(361) 578-9031", "Address": "4301 Retama Cir Victoria, TX 77901-2768", "City": "Victoria", "State": "TX", "Zip": "77901-2768", "AddressLine1": "4301 Retama Cir", "AddressLine2": "", "Distance": 11.8, "Latitude": 28.83331, "Longitude": -96.99224}, {"Sequence": 33, "PersonId": 192842, "AddressId": 1533347, "Specialty": "General Practice", "Photo": "findadentist.ada.org/Images/Profile/ADA.png", "Name": "Dr. Clayton W Sciba", "Email": "", "Phone": "(361) 575-8088", "Address": "304 Salem Rd Victoria, TX 77904-1742", "City": "Victoria", "State": "TX", "Zip": "77904-1742", "AddressLine1": "304 Salem Rd", "AddressLine2": "", "Distance": 12.3, "Latitude": 28.84737, "Longitude": -96.99707}, {"Sequence": 34, "PersonId": 91494, "AddressId": 2760504, "Specialty": "Periodontics", "Photo": "findadentist.ada.org/Images/Profile/ADA.png", "Name": "Dr Charles E Rader", "Email": "craderdds@gmail.com", "Phone": "(361) 576-5155", "Address": "507 E Brazos St Victoria, TX 77901-5261", "City": "Victoria", "State": "TX", "Zip": "77901-5261", "AddressLine1": "507 E Brazos St", "AddressLine2": "", "Distance": 10.5, "Latitude": 28.81016, "Longitude": -96.99895}]