[{"Sequence": 1, "PersonId": 95430, "AddressId": 1435935, "Specialty": "General Practice", "Photo": "findadentist.ada.org/Images/Profile/95430-Dr-Richard-Longoria.png", "Name": "Dr Richard P Longoria", "Email": "richardlongoria@sbcglobal.net", "Phone": "(210) 342-0111", "Address": "4402 Vance Jackson Rd Ste 236 San Antonio, TX 78230-5350", "City": "San Antonio", "State": "TX", "Zip": "78230-5350", "AddressLine1": "4402 Vance Jackson Rd Ste 236", "AddressLine2": "", "Distance": 2.3, "Latitude": 29.51513, "Longitude": -98.53443}, {"Sequence": 2, "PersonId": 95577, "AddressId": 3057875, "Specialty": "Periodontics", "Photo": "findadentist.ada.org/Images/Profile/95577-Dr-Eric-Rindler.png", "Name": "Dr Eric A Rindler", "Email": "", "Phone": "(210) 478-7066", "Address": "11874 Wurzbach Rd San Antonio, TX 78230-2744", "City": "San Antonio", "State": "TX", "Zip": "78230-2744", "AddressLine1": "11874 Wurzbach Rd", "AddressLine2": "", "Distance": 1.0, "Latitude": 29.55013, "Longitude": -98.5409}, {"Sequence": 3, "PersonId": 95499, "AddressId": 1436004, "Specialty": "Orthodontics and Dentofacial Orthopedics", "Photo": "findadentist.ada.org/Images/Profile/95499-Dr-Kevin-Beitchman.png", "Name": "Dr. Kevin J Beitchman", "Email": "beitchmanortho@gmail.com", "Phone": "(210) 558-3395", "Address": "11924 Vance Jackson Rd Ste 201 San Antonio, TX 78230-1459", "City": "San Antonio", "State": "TX", "Zip": "78230-1459", "AddressLine1": "11924 Vance Jackson Rd Ste 201", "AddressLine2": "", "Distance": 1.1, "Latitude": 29.55196, "Longitude": -98.57029}, {"Sequence": 4, "PersonId": 95482, "AddressId": 2906256, "Specialty": "General Practice", "Photo": "findadentist.ada.org/Images/Profile/95482-Dr-Joseph-Holmes.png", "Name": "Dr Joseph P Holmes", "Email": "lisab@smilesbydrholmes.com", "Phone": "(210) 314-4643", "Address": "11874 Wurzbach Rd San Antonio, TX 78230-2744", "City": "San Antonio", "State": "TX", "Zip": "78230-2744", "AddressLine1": "11874 Wurzbach Rd", "AddressLine2": "", "Distance": 1.0, "Latitude": 29.55013, "Longitude": -98.5409}, {"Sequence": 5, "PersonId": 94767, "AddressId": 1435272, "Specialty": "General Practice", "Photo": "findadentist.ada.org/Images/Profile/94767-Dr-Edward-Staffel.png", "Name": "Dr Edward R Staffel", "Email": "edwardstaffel@yahoo.com", "Phone": "(210) 341-2569", "Address": "3355 Cherry Ridge St Ste 216 San Antonio, TX 78230-4818", "City": "San Antonio", "State": "TX", "Zip": "78230-4818", "AddressLine1": "3355 Cherry Ridge St Ste 216", "AddressLine2": "", "Distance": 2.3, "Latitude": 29.50961, "Longitude": -98.54806}, {"Sequence": 6, "PersonId": 160870, "AddressId": 1501375, "Specialty": "General Practice", "Photo": "findadentist.ada.org/Images/Profile/160870-Dr-Alan-Layton.png", "Name": "Dr. Alan R Layton", "Email": "", "Phone": "(210) 697-8676", "Address": "11255 Huebner Rd Ste 111 San Antonio, TX 78230-1685", "City": "San Antonio", "State": "TX", "Zip": "78230-1685", "AddressLine1": "11255 Huebner Rd Ste 111", "AddressLine2": "", "Distance": 1.4, "Latitude": 29.54773, "Longitude": -98.57786}, {"Sequence": 7, "PersonId": 199306, "AddressId": 1539811, "Specialty": "General Practice", "Photo": "findadentist.ada.org/Images/Profile/199306-Dr-Tracy-Walters-Badillo.png", "Name": "Dr. Tracy D Walters-Badillo", "Email": "", "Phone": "(210) 877-2273", "Address": "11115 Wurzbach Rd San Antonio, TX 78230-2643", "City": "San Antonio", "State": "TX", "Zip": "78230-2643", "AddressLine1": "11115 Wurzbach Rd", "AddressLine2": "", "Distance": 0.3, "Latitude": 29.5432, "Longitude": -98.55059}, {"Sequence": 8, "PersonId": 95547, "AddressId": 1436052, "Specialty": "Pediatric Dentistry", "Photo": "findadentist.ada.org/Images/Profile/95547-Dr-Martha-Aranda.png", "Name": "Dr Martha I Aranda", "Email": "arandaandarandadds@yahoo.com", "Phone": "(210) 690-5252", "Address": "10905 Wurzbach Rd San Antonio, TX 78230-2501", "City": "San Antonio", "State": "TX", "Zip": "78230-2501", "AddressLine1": "10905 Wurzbach Rd", "AddressLine2": "", "Distance": 0.2, "Latitude": 29.54113, "Longitude": -98.55289}, {"Sequence": 9, "PersonId": 94841, "AddressId": 2756169, "Specialty": "General Practice", "Photo": "findadentist.ada.org/Images/Profile/94841-Dr-Elizabeth-Farrimond.png", "Name": "Dr Elizabeth M Farrimond", "Email": "", "Phone": "(210) 690-4500", "Address": "6253 Vance Jackson Rd San Antonio, TX 78230-3347", "City": "San Antonio", "State": "TX", "Zip": "78230-3347", "AddressLine1": "6253 Vance Jackson Rd", "AddressLine2": "", "Distance": 0.4, "Latitude": 29.53781, "Longitude": -98.55066}, {"Sequence": 10, "PersonId": 95301, "AddressId": 1435806, "Specialty": "General Practice", "Photo": "findadentist.ada.org/Images/Profile/95301-Dr-Daniel-Arredondo.png", "Name": "Dr Daniel G Arredondo", "Email": "dr@arredondodental.com", "Phone": "(210) 690-5170", "Address": "3740 Colony Dr Ste 254 San Antonio, TX 78230-2233", "City": "San Antonio", "State": "TX", "Zip": "78230-2233", "AddressLine1": "3740 Colony Dr Ste 254", "AddressLine2": null, "Distance": 0.8, "Latitude": 29.53028, "Longitude": -98.55931}, {"Sequence": 11, "PersonId": 95333, "AddressId": 1435838, "Specialty": "General Practice", "Photo": "findadentist.ada.org/Images/Profile/95333-Dr-Richard-Lazor.png", "Name": "Dr Richard H Lazor", "Email": "", "Phone": "(210) 492-2192", "Address": "11719 Whisper Valley St San Antonio, TX 78230-3739", "City": "San Antonio", "State": "TX", "Zip": "78230-3739", "AddressLine1": "11719 Whisper Valley St", "AddressLine2": "", "Distance": 1.0, "Latitude": 29.54977, "Longitude": -98.54209}, {"Sequence": 12, "PersonId": 161449, "AddressId": 1501954, "Specialty": "General Practice", "Photo": "findadentist.ada.org/Images/Profile/161449-Dr-Jason-Kboudi.png", "Name": "Dr. Jason V Kboudi", "Email": "info@advancedsmilecare.com", "Phone": "(210) 366-3606", "Address": "3829 Lockhill Selma Rd Ste 100 San Antonio, TX 78230-1762", "City": "San Antonio", "State": "TX", "Zip": "78230-1762", "AddressLine1": "3829 Lockhill Selma Rd Ste 100", "AddressLine2": "", "Distance": 1.6, "Latitude": 29.5654, "Longitude": -98.55876}, {"Sequence": 13, "PersonId": 216138, "AddressId": 1556643, "Specialty": "General Practice", "Photo": "findadentist.ada.org/Images/Profile/216138-Dr-Richard-Test.png", "Name": "Dr. Richard Test", "Email": "", "Phone": "(210) 340-3511", "Address": "2929 Mossrock Ste 114 San Antonio, TX 78230-5141", "City": "San Antonio", "State": "TX", "Zip": "78230-5141", "AddressLine1": "2929 Mossrock Ste 114", "AddressLine2": "", "Distance": 2.3, "Latitude": 29.51213, "Longitude": -98.53974}, {"Sequence": 14, "PersonId": 95405, "AddressId": 3311181, "Specialty": "General Practice", "Photo": "findadentist.ada.org/Images/Profile/95405-Dr-William-Stewart.png", "Name": "Dr William J Stewart, Jr", "Email": "", "Phone": "(210) 493-3040", "Address": "13220 Huebner Rd San Antonio, TX 78230-2072", "City": "San Antonio", "State": "TX", "Zip": "78230-2072", "AddressLine1": "13220 Huebner Rd", "AddressLine2": "", "Distance": 1.6, "Latitude": 29.56469, "Longitude": -98.55727}, {"Sequence": 15, "PersonId": 95429, "AddressId": 3289456, "Specialty": "General Practice", "Photo": "findadentist.ada.org/Images/Profile/95429-Dr-Brian-Eck.png", "Name": "Dr Brian L Eck", "Email": "", "Phone": "(210) 492-0205", "Address": "13205 George Rd San Antonio, TX 78230-3018", "City": "San Antonio", "State": "TX", "Zip": "78230-3018", "AddressLine1": "13205 George Rd", "AddressLine2": "", "Distance": 1.6, "Latitude": 29.56195, "Longitude": -98.54287}, {"Sequence": 16, "PersonId": 115592, "AddressId": 2688667, "Specialty": "Prosthodontics", "Photo": "findadentist.ada.org/Images/Profile/115592-Dr-Jason-Gillespie.png", "Name": "Dr. Jason R Gillespie", "Email": "", "Phone": "(210) 960-4500", "Address": "6253 Vance Jackson Rd San Antonio, TX 78230-3347", "City": "San Antonio", "State": "TX", "Zip": "78230-3347", "AddressLine1": "6253 Vance Jackson Rd", "AddressLine2": "", "Distance": 0.4, "Latitude": 29.53781, "Longitude": -98.55066}, {"Sequence": 17, "PersonId": 161095, "AddressId": 1501600, "Specialty": "General Practice", "Photo": "findadentist.ada.org/Images/Profile/161095-Dr-Rafael-Aranda.png", "Name": "Dr. Rafael Aranda", "Email": "", "Phone": "(210) 690-5252", "Address": "10905 Wurzbach Rd San Antonio, TX 78230-2501", "City": "San Antonio", "State": "TX", "Zip": "78230-2501", "AddressLine1": "10905 Wurzbach Rd", "AddressLine2": "", "Distance": 0.2, "Latitude": 29.54113, "Longitude": -98.55289}, {"Sequence": 18, "PersonId": 95526, "AddressId": 1436031, "Specialty": "General Practice", "Photo": "findadentist.ada.org/Images/Profile/95526-Dr-Kevin-Klenke.png", "Name": "Dr Kevin G Klenke", "Email": "", "Phone": "(210) 877-2273", "Address": "11115 Wurzbach Rd Ste 100 San Antonio, TX 78230-2647", "City": "San Antonio", "State": "TX", "Zip": "78230-2647", "AddressLine1": "11115 Wurzbach Rd Ste 100", "AddressLine2": "", "Distance": 0.3, "Latitude": 29.5432, "Longitude": -98.55059}, {"Sequence": 19, "PersonId": 96302, "AddressId": 3435320, "Specialty": "Pediatric Dentistry", "Photo": "findadentist.ada.org/Images/Profile/96302-Dr-Robert-Offutt.png", "Name": "Dr Robert H Offutt", "Email": "info@mychildsdentistsa.com", "Phone": "(210) 692-1919", "Address": "14603 Huebner Rd Ste 701 San Antonio, TX 78230-5469", "City": "San Antonio", "State": "TX", "Zip": "78230-5469", "AddressLine1": "14603 Huebner Rd Ste 701", "AddressLine2": "", "Distance": 2.2, "Latitude": 29.57287, "Longitude": -98.54878}, {"Sequence": 20, "PersonId": 94597, "AddressId": 3579329, "Specialty": "General Practice", "Photo": "findadentist.ada.org/Images/Profile/94597-Dr-Carroll-Albritton.png", "Name": "Dr Carroll Mark Albritton", "Email": "Malbritton@advancedsmilecare.com", "Phone": "(210) 366-3606", "Address": "3829 Lockhill Selma Rd Ste 100 San Antonio, TX 78230-1762", "City": "San Antonio", "State": "TX", "Zip": "78230-1762", "AddressLine1": "3829 Lockhill Selma Rd Ste 100", "AddressLine2": "", "Distance": 1.6, "Latitude": 29.56536, "Longitude": -98.55867}, {"Sequence": 21, "PersonId": 275277, "AddressId": 1615782, "Specialty": "General Practice", "Photo": "findadentist.ada.org/Images/Profile/ADA.png", "Name": "Dr. Melvin L Shanley", "Email": "", "Phone": "(210) 697-7377", "Address": "4315 Moonlight Way Ste 101 San Antonio, TX 78230-1690", "City": "San Antonio", "State": "TX", "Zip": "78230-1690", "AddressLine1": "4315 Moonlight Way Ste 101", "AddressLine2": "", "Distance": 1.2, "Latitude": 29.55527, "Longitude": -98.5686}, {"Sequence": 22, "PersonId": 237183, "AddressId": 3509595, "Specialty": "General Practice", "Photo": "findadentist.ada.org/Images/Profile/ADA.png", "Name": "Dr. Alejandro C Cavazos", "Email": "cavazosdds@yahoo.com", "Phone": "(210) 366-3606", "Address": "3829 Lockhill Selma Rd Ste 100 San Antonio, TX 78230-1762", "City": "San Antonio", "State": "TX", "Zip": "78230-1762", "AddressLine1": "3829 Lockhill Selma Rd Ste 100", "AddressLine2": "", "Distance": 1.6, "Latitude": 29.56536, "Longitude": -98.55867}, {"Sequence": 23, "PersonId": 241002, "AddressId": 2738687, "Specialty": "General Practice", "Photo": "findadentist.ada.org/Images/Profile/ADA.png", "Name": "Dr. Natalee N Trevino", "Email": "", "Phone": "(210) 366-3606", "Address": "3829 Lockhill Selma Rd Ste 100 San Antonio, TX 78230-1762", "City": "San Antonio", "State": "TX", "Zip": "78230-1762", "AddressLine1": "3829 Lockhill Selma Rd Ste 100", "AddressLine2": "", "Distance": 1.6, "Latitude": 29.5654, "Longitude": -98.55876}, {"Sequence": 24, "PersonId": 95478, "AddressId": 3064861, "Specialty": "General Practice", "Photo": "findadentist.ada.org/Images/Profile/ADA.png", "Name": "Dr Gregg S Nolan", "Email": "", "Phone": "(210) 616-0848", "Address": "11874 Wurzbach Rd San Antonio, TX 78230-2744", "City": "San Antonio", "State": "TX", "Zip": "78230-2744", "AddressLine1": "11874 Wurzbach Rd", "AddressLine2": "", "Distance": 1.0, "Latitude": 29.55013, "Longitude": -98.5409}, {"Sequence": 25, "PersonId": 95151, "AddressId": 1435656, "Specialty": "General Practice", "Photo": "findadentist.ada.org/Images/Profile/ADA.png", "Name": "Dr Donald E Farrimond", "Email": "OFFICE@SAZADENTAL.com", "Phone": "(210) 690-4500", "Address": "6253 Vance Jackson Rd San Antonio, TX 78230-3347", "City": "San Antonio", "State": "TX", "Zip": "78230-3347", "AddressLine1": "6253 Vance Jackson Rd", "AddressLine2": "", "Distance": 0.4, "Latitude": 29.53781, "Longitude": -98.55066}, {"Sequence": 26, "PersonId": 354080, "AddressId": 3421769, "Specialty": "General Practice", "Photo": "findadentist.ada.org/Images/Profile/ADA.png", "Name": "Dr. Gabriela Aranda", "Email": "arandaandarandadds@yahoo.com", "Phone": "(210) 690-5252", "Address": "10905 Wurzbach Rd San Antonio, TX 78230-2501", "City": "San Antonio", "State": "TX", "Zip": "78230-2501", "AddressLine1": "10905 Wurzbach Rd", "AddressLine2": "", "Distance": 0.2, "Latitude": 29.54113, "Longitude": -98.55289}]