[{"Sequence": 1, "PersonId": 333634, "AddressId": 3055560, "Specialty": "General Practice", "Photo": "findadentist.ada.org/Images/Profile/333634-Dr-Mayra-Fuentes.png", "Name": "Dr. Mayra S Fuentes", "Email": "", "Phone": "(956) 782-6767", "Address": "1002 W Sam Houston Blvd Ste 6 Pharr, TX 78577-5198", "City": "Pharr", "State": "TX", "Zip": "78577-5198", "AddressLine1": "1002 W Sam Houston Blvd Ste 6", "AddressLine2": "", "Distance": 2.8, "Latitude": 26.18995, "Longitude": -98.19764}, {"Sequence": 2, "PersonId": 150026, "AddressId": 1490531, "Specialty": "Periodontics", "Photo": "findadentist.ada.org/Images/Profile/150026-Dr-Andrea-Varesic.png", "Name": "Dr. Andrea E Varesic", "Email": "", "Phone": "(956) 781-8080", "Address": "702 W Interstate 2 Ste B Pharr, TX 78577-6514", "City": "Pharr", "State": "TX", "Zip": "78577-6514", "AddressLine1": "702 W Interstate 2 Ste B", "AddressLine2": "", "Distance": 2.9, "Latitude": 26.18918, "Longitude": -98.16817}, {"Sequence": 3, "PersonId": 94291, "AddressId": 1434796, "Specialty": "General Practice", "Photo": "findadentist.ada.org/Images/Profile/94291-Dr-Andre-Gonzalez.png", "Name": "Dr. Andre R Gonzalez", "Email": "", "Phone": "(956) 781-3335", "Address": "201 N Cage Blvd Pharr, TX 78577-3965", "City": "Pharr", "State": "TX", "Zip": "78577-3965", "AddressLine1": "201 N Cage Blvd", "AddressLine2": "", "Distance": 3.2, "Latitude": 26.19661, "Longitude": -98.18406}, {"Sequence": 4, "PersonId": 161561, "AddressId": 1502066, "Specialty": "Pediatric Dentistry", "Photo": "findadentist.ada.org/Images/Profile/ADA.png", "Name": "Dr. Jesus H Trevino", "Email": "", "Phone": "(956) 904-5320", "Address": "900 W Sam Houston Blvd Ste 2 Pharr, TX 78577-5215", "City": "Pharr", "State": "TX", "Zip": "78577-5215", "AddressLine1": "900 W Sam Houston Blvd Ste 2", "AddressLine2": "", "Distance": 2.7, "Latitude": 26.18996, "Longitude": -98.19656}, {"Sequence": 5, "PersonId": 94377, "AddressId": 3173159, "Specialty": "General Practice", "Photo": "findadentist.ada.org/Images/Profile/ADA.png", "Name": "Dr Daniel Drefke", "Email": "contactpharr@herosdentail.com", "Phone": "(956) 781-0031", "Address": "1104 W Sam Houston Blvd Ste A Pharr, TX 78577-5104", "City": "Pharr", "State": "TX", "Zip": "78577-5104", "AddressLine1": "1104 W Sam Houston Blvd Ste A", "AddressLine2": "", "Distance": 2.8, "Latitude": 26.19033, "Longitude": -98.19987}, {"Sequence": 6, "PersonId": 161486, "AddressId": 1501991, "Specialty": "General Practice", "Photo": "findadentist.ada.org/Images/Profile/ADA.png", "Name": "Dr. Winona S Moczygemba", "Email": "wsmoczygemba@gmail.com", "Phone": "(956) 781-8880", "Address": "413 W Sam Houston Blvd Pharr, TX 78577-5349", "City": "Pharr", "State": "TX", "Zip": "78577-5349", "AddressLine1": "413 W Sam Houston Blvd", "AddressLine2": "", "Distance": 2.6, "Latitude": 26.18827, "Longitude": -98.19004}]