[{"Sequence": 1, "PersonId": 294127, "AddressId": 3431621, "Specialty": "General Practice", "Photo": "findadentist.ada.org/Images/Profile/294127-Dr-Jeff-Sprout.png", "Name": "Dr Jeff Sprout", "Email": "reception@evergreendentalgroup.com", "Phone": "(720) 924-4859", "Address": "2902 Evergreen Pkwy Evergreen, CO 80439-7958", "City": "Evergreen", "State": "CO", "Zip": "80439-7958", "AddressLine1": "2902 Evergreen Pkwy", "AddressLine2": "", "Distance": 16.7, "Latitude": 39.6627, "Longitude": -105.35326}, {"Sequence": 2, "PersonId": 194114, "AddressId": 3058021, "Specialty": "General Practice", "Photo": "findadentist.ada.org/Images/Profile/194114-Dr-Christopher-Sprout.png", "Name": "Dr. Christopher Sprout", "Email": "genesee@qwestoffice.net", "Phone": "(303) 526-9155", "Address": "25918 Genesee Trail Rd Ste 210 Golden, CO 80401-5775", "City": "Golden", "State": "CO", "Zip": "80401-5775", "AddressLine1": "25918 Genesee Trail Rd Ste 210", "AddressLine2": "", "Distance": 18.2, "Latitude": 39.70821, "Longitude": -105.29408}, {"Sequence": 3, "PersonId": 188852, "AddressId": 3201805, "Specialty": "General Practice", "Photo": "findadentist.ada.org/Images/Profile/188852-Dr-Kenneth-LeVos.png", "Name": "Dr. Kenneth E LeVos", "Email": "", "Phone": "(303) 674-5725", "Address": "30752 Southview Dr Ste 200 Evergreen, CO 80439-2221", "City": "Evergreen", "State": "CO", "Zip": "80439-2221", "AddressLine1": "30752 Southview Dr Ste 200", "AddressLine2": "", "Distance": 17.1, "Latitude": 39.65815, "Longitude": -105.34831}, {"Sequence": 4, "PersonId": 215866, "AddressId": 3504878, "Specialty": "Pediatric Dentistry", "Photo": "findadentist.ada.org/Images/Profile/215866-Dr-Kyle-Klepacki.png", "Name": "Dr. Kyle Klepacki", "Email": "", "Phone": "(303) 670-5437", "Address": "908 Nob Hill Rd Unit 300 Evergreen, CO 80439-7885", "City": "Evergreen", "State": "CO", "Zip": "80439-7885", "AddressLine1": "908 Nob Hill Rd Unit 300", "AddressLine2": "", "Distance": 16.6, "Latitude": 39.6979, "Longitude": -105.33146}, {"Sequence": 5, "PersonId": 294106, "AddressId": 3531213, "Specialty": "Pediatric Dentistry", "Photo": "findadentist.ada.org/Images/Profile/294106-Dr-Courtney-College.png", "Name": "Dr Courtney R College MS", "Email": "", "Phone": "(303) 674-0779", "Address": "31955 Castle Ct Ste 2N Evergreen, CO 80439-3508", "City": "Evergreen", "State": "CO", "Zip": "80439-3508", "AddressLine1": "31955 Castle Ct Ste 2N", "AddressLine2": "", "Distance": 15.6, "Latitude": 39.68216, "Longitude": -105.36341}, {"Sequence": 6, "PersonId": 247141, "AddressId": 3376439, "Specialty": "General Practice", "Photo": "findadentist.ada.org/Images/Profile/247141-Dr-Stefan-Bergeron.png", "Name": "Dr. Stefan P Bergeron", "Email": "reception@evergreendentalgroup.com", "Phone": "(720) 924-4859", "Address": "2902 Evergreen Pkwy Evergreen, CO 80439-7958", "City": "Evergreen", "State": "CO", "Zip": "80439-7958", "AddressLine1": "2902 Evergreen Pkwy", "AddressLine2": "", "Distance": 16.7, "Latitude": 39.66273, "Longitude": -105.3533}, {"Sequence": 7, "PersonId": 241174, "AddressId": 3507037, "Specialty": "Orthodontics and Dentofacial Orthopedics", "Photo": "findadentist.ada.org/Images/Profile/241174-Dr-John-DuRussel.png", "Name": "Dr. John DuRussel", "Email": "info@reganortho.com", "Phone": "(303) 674-1122", "Address": "30960 Stagecoach Blvd Ste W100 Evergreen, CO 80439-7902", "City": "Evergreen", "State": "CO", "Zip": "80439-7902", "AddressLine1": "30960 Stagecoach Blvd Ste W100", "AddressLine2": "", "Distance": 17.3, "Latitude": 39.65188, "Longitude": -105.35085}, {"Sequence": 8, "PersonId": 294042, "AddressId": 3066586, "Specialty": "General Practice", "Photo": "findadentist.ada.org/Images/Profile/294042-Dr-Troy-Fox.png", "Name": "Dr Troy A Fox", "Email": "reception@troyfoxdds.com", "Phone": "(303) 674-3591", "Address": "3720 Evergreen Pkwy Evergreen, CO 80439-7707", "City": "Evergreen", "State": "CO", "Zip": "80439-7707", "AddressLine1": "3720 Evergreen Pkwy", "AddressLine2": "", "Distance": 17.8, "Latitude": 39.64907, "Longitude": -105.3406}, {"Sequence": 9, "PersonId": 120890, "AddressId": 3426689, "Specialty": "Orthodontics and Dentofacial Orthopedics", "Photo": "findadentist.ada.org/Images/Profile/120890-Dr-Bryan-Williams.png", "Name": "Dr. Bryan E Williams", "Email": "info@williamsorthodontics.net", "Phone": "(303) 670-5878", "Address": "32045 Castle Ct Ste 102 Evergreen, CO 80439-9500", "City": "Evergreen", "State": "CO", "Zip": "80439-9500", "AddressLine1": "32045 Castle Ct Ste 102", "AddressLine2": "", "Distance": 15.6, "Latitude": 39.68147, "Longitude": -105.36358}, {"Sequence": 10, "PersonId": 292513, "AddressId": 3139874, "Specialty": "Pediatric Dentistry", "Photo": "findadentist.ada.org/Images/Profile/292513-Dr-Malcolm-Strange.png", "Name": "Dr Malcolm Strange", "Email": "wrpedo@yahoo.com", "Phone": "(303) 670-7070", "Address": "30960 Stagecoach Blvd Ste 100 Evergreen, CO 80439-7902", "City": "Evergreen", "State": "CO", "Zip": "80439-7902", "AddressLine1": "30960 Stagecoach Blvd Ste 100", "AddressLine2": "", "Distance": 17.3, "Latitude": 39.65185, "Longitude": -105.35091}, {"Sequence": 11, "PersonId": 293875, "AddressId": 3245892, "Specialty": "Orthodontics and Dentofacial Orthopedics", "Photo": "findadentist.ada.org/Images/Profile/293875-Dr-Paul-Regan.png", "Name": "Dr Paul D Regan", "Email": "info@reganortho.com", "Phone": "(303) 674-1122", "Address": "30960 Stagecoach Blvd Ste W100 Evergreen, CO 80439-7902", "City": "Evergreen", "State": "CO", "Zip": "80439-7902", "AddressLine1": "30960 Stagecoach Blvd Ste W100", "AddressLine2": "", "Distance": 17.3, "Latitude": 39.65185, "Longitude": -105.35091}, {"Sequence": 12, "PersonId": 215852, "AddressId": 3214062, "Specialty": "Pediatric Dentistry", "Photo": "findadentist.ada.org/Images/Profile/215852-Dr-Brianne-Hills.png", "Name": "Dr. Brianne E Hills", "Email": "", "Phone": "(303) 670-5437", "Address": "908 Nob Hill Rd Unit 300 Evergreen, CO 80439-7885", "City": "Evergreen", "State": "CO", "Zip": "80439-7885", "AddressLine1": "908 Nob Hill Rd Unit 300", "AddressLine2": "", "Distance": 16.6, "Latitude": 39.6979, "Longitude": -105.33146}, {"Sequence": 13, "PersonId": 294128, "AddressId": 3489100, "Specialty": "General Practice", "Photo": "findadentist.ada.org/Images/Profile/294128-Dr-Beverly-Keeler.png", "Name": "Dr Beverly C Keeler", "Email": "reception@evergreendentalgroup.com", "Phone": "(720) 924-4859", "Address": "2902 Evergreen Parkway Evergreen, CO 80439", "City": "Evergreen", "State": "CO", "Zip": "80439", "AddressLine1": "2902 Evergreen Parkway", "AddressLine2": "", "Distance": 16.7, "Latitude": 39.66269, "Longitude": -105.35363}, {"Sequence": 14, "PersonId": 209428, "AddressId": 3413486, "Specialty": "General Practice", "Photo": "findadentist.ada.org/Images/Profile/209428-Dr-Matthew-Bunchman.png", "Name": "Dr. Matthew A Bunchman", "Email": "info@premierdentalofevergreen.com", "Phone": "(303) 679-6400", "Address": "29723 Troutdale Scenic Dr Evergreen, CO 80439-7737", "City": "Evergreen", "State": "CO", "Zip": "80439-7737", "AddressLine1": "29723 Troutdale Scenic Dr", "AddressLine2": "", "Distance": 18.1, "Latitude": 39.64378, "Longitude": -105.33847}, {"Sequence": 15, "PersonId": 209509, "AddressId": 3164252, "Specialty": "General Practice", "Photo": "findadentist.ada.org/Images/Profile/209509-Dr-Kelly-Last.png", "Name": "Dr. Kelly S Last", "Email": "info@elevationdental.net", "Phone": "(303) 674-6264", "Address": "30772 Southview Dr Ste 200 Evergreen, CO 80439-2214", "City": "Evergreen", "State": "CO", "Zip": "80439-2214", "AddressLine1": "30772 Southview Dr Ste 200", "AddressLine2": "", "Distance": 17.1, "Latitude": 39.65821, "Longitude": -105.34894}, {"Sequence": 16, "PersonId": 220284, "AddressId": 2747282, "Specialty": "General Practice", "Photo": "findadentist.ada.org/Images/Profile/220284-Dr-Alex-Roberts.png", "Name": "Dr. Alex R Roberts", "Email": "staff@buffaloparkdentistry.com", "Phone": "(303) 421-7611", "Address": "28577 Buffalo Park Rd Evergreen, CO 80439-7370", "City": "Evergreen", "State": "CO", "Zip": "80439-7370", "AddressLine1": "28577 Buffalo Park Rd", "AddressLine2": "Suite 260", "Distance": 19.4, "Latitude": 39.62517, "Longitude": -105.32571}, {"Sequence": 17, "PersonId": 342563, "AddressId": 3319683, "Specialty": "General Practice", "Photo": "findadentist.ada.org/Images/Profile/342563-Dr-Gina-Marie-Searle.png", "Name": "Dr. Gina-Marie F Searle", "Email": "evergreen@dentalonline.biz", "Phone": "(303) 905-0172", "Address": "1232 Bergen Pkwy Unit 105 Evergreen, CO 80439-9573", "City": "Evergreen", "State": "CO", "Zip": "80439-9573", "AddressLine1": "1232 Bergen Pkwy Unit 105", "AddressLine2": "Comfort Dental Evergreen", "Distance": 15.5, "Latitude": 39.69229, "Longitude": -105.35702}, {"Sequence": 18, "PersonId": 295737, "AddressId": 2832196, "Specialty": "General Practice", "Photo": "findadentist.ada.org/Images/Profile/295737-Dr-Mark-Chua.png", "Name": "Dr Mark N Chua", "Email": "winterparkdental@gmail.com", "Phone": "(970) 726-5556", "Address": "21 Kings Crossing Rd Ste 107 Winter Park, CO 80482", "City": "Winter Park", "State": "CO", "Zip": "80482", "AddressLine1": "21 Kings Crossing Rd Ste 107", "AddressLine2": "", "Distance": 12.9, "Latitude": 39.92727, "Longitude": -105.78893}]