[{"Sequence": 1, "PersonId": 295759, "AddressId": 1636264, "Specialty": "General Practice", "Photo": "findadentist.ada.org/Images/Profile/295759-Dr-David-James.png", "Name": "Dr David E James", "Email": "defjames@aol.com", "Phone": "(970) 874-8071", "Address": "1004 Main St Delta, CO 81416-1852", "City": "Delta", "State": "CO", "Zip": "81416-1852", "AddressLine1": "1004 Main St", "AddressLine2": "", "Distance": 9.5, "Latitude": 38.73368, "Longitude": -108.07029}, {"Sequence": 2, "PersonId": 295882, "AddressId": 2719338, "Specialty": "Orthodontics and Dentofacial Orthopedics", "Photo": "findadentist.ada.org/Images/Profile/295882-Dr-Anthony-Delio.png", "Name": "Dr. Anthony F Delio", "Email": "", "Phone": "(970) 874-0456", "Address": "740 Main St Delta, CO 81416-1828", "City": "Delta", "State": "CO", "Zip": "81416-1828", "AddressLine1": "740 Main St", "AddressLine2": "", "Distance": 9.3, "Latitude": 38.73703, "Longitude": -108.0704}, {"Sequence": 3, "PersonId": 209511, "AddressId": 3211123, "Specialty": "General Practice", "Photo": "findadentist.ada.org/Images/Profile/209511-Dr-Morgan-Yost.png", "Name": "Dr. Morgan Yost", "Email": "Info@yostfamilydentistry.com", "Phone": "(970) 874-8227", "Address": "257 Main St Delta, CO 81416-1814", "City": "Delta", "State": "CO", "Zip": "81416-1814", "AddressLine1": "257 Main St", "AddressLine2": "", "Distance": 9.0, "Latitude": 38.74353, "Longitude": -108.07093}, {"Sequence": 4, "PersonId": 126534, "AddressId": 3493197, "Specialty": "General Practice", "Photo": "findadentist.ada.org/Images/Profile/126534-Dr-Rachell-Richman.png", "Name": "Dr. Rachell D Richman", "Email": "rachellrichman.dds@outlook.com", "Phone": "(970) 323-6828", "Address": "601 Main St Olathe, CO 81425", "City": "Olathe", "State": "CO", "Zip": "81425", "AddressLine1": "601 Main St", "AddressLine2": "PO Box 1439", "Distance": 16.4, "Latitude": 38.60622, "Longitude": -107.98252}, {"Sequence": 5, "PersonId": 295377, "AddressId": 3398425, "Specialty": "General Practice", "Photo": "findadentist.ada.org/Images/Profile/295377-Dr-Matthew-Drbohlav.png", "Name": "Dr Matthew J Drbohlav", "Email": "staff@hotchkissdentist.com", "Phone": "(970) 872-2299", "Address": "158 E Bridge St Hotchkiss, CO 81419-0186", "City": "Hotchkiss", "State": "CO", "Zip": "81419-0186", "AddressLine1": "158 E Bridge St", "AddressLine2": "Po Box 186", "Distance": 13.4, "Latitude": 38.79895, "Longitude": -107.72001}, {"Sequence": 6, "PersonId": 339877, "AddressId": 3554916, "Specialty": "General Practice", "Photo": "findadentist.ada.org/Images/Profile/339877-Dr-Alan-Jones.png", "Name": "Dr. Alan M Jones", "Email": "office@crestedoakdentistry.com", "Phone": "(970) 874-3855", "Address": "102 Main St Delta, CO 81416", "City": "Delta", "State": "CO", "Zip": "81416", "AddressLine1": "102 Main St", "AddressLine2": "STE 100", "Distance": 8.9, "Latitude": 38.7452, "Longitude": -108.07036}, {"Sequence": 7, "PersonId": 295873, "AddressId": 1636378, "Specialty": "General Practice", "Photo": "findadentist.ada.org/Images/Profile/ADA.png", "Name": "Dr Deborah A Bhasker", "Email": "", "Phone": "(970) 856-3313", "Address": "145 Se Greenwood Ave Cedaredge, CO 81413-4003", "City": "Cedaredge", "State": "CO", "Zip": "81413-4003", "AddressLine1": "145 Se Greenwood Ave", "AddressLine2": "", "Distance": 4.0, "Latitude": 38.89308, "Longitude": -107.92712}, {"Sequence": 8, "PersonId": 295885, "AddressId": 3057676, "Specialty": "General Practice", "Photo": "findadentist.ada.org/Images/Profile/ADA.png", "Name": "Dr DeVon R Wilson", "Email": "drdwilson@qwestoffice.net", "Phone": "(970) 874-4977", "Address": "339 Meeker St Delta, CO 81416-1916", "City": "Delta", "State": "CO", "Zip": "81416-1916", "AddressLine1": "339 Meeker St", "AddressLine2": "", "Distance": 9.0, "Latitude": 38.74226, "Longitude": -108.0698}, {"Sequence": 9, "PersonId": 295872, "AddressId": 3246683, "Specialty": "General Practice", "Photo": "findadentist.ada.org/Images/Profile/ADA.png", "Name": "Dr Leonard L McAdams, II", "Email": "", "Phone": "(970) 856-6168", "Address": "130 S Grand Mesa Dr Cedaredge, CO 81413-3824", "City": "Cedaredge", "State": "CO", "Zip": "81413-3824", "AddressLine1": "130 S Grand Mesa Dr", "AddressLine2": "", "Distance": 4.5, "Latitude": 38.90026, "Longitude": -107.92429}, {"Sequence": 10, "PersonId": 123087, "AddressId": 3086244, "Specialty": "General Practice", "Photo": "findadentist.ada.org/Images/Profile/ADA.png", "Name": "Dr. Christian Johnson", "Email": "", "Phone": "(970) 856-3010", "Address": "620 S Grand Mesa Dr Cedaredge, CO 81413-4014", "City": "Cedaredge", "State": "CO", "Zip": "81413-4014", "AddressLine1": "620 S Grand Mesa Dr", "AddressLine2": "", "Distance": 4.0, "Latitude": 38.89414, "Longitude": -107.92728}]