[{"Sequence": 1, "PersonId": 352247, "AddressId": 3584169, "Specialty": "General Practice", "Photo": "findadentist.ada.org/Images/Profile/352247-Dr-Jennifer-Stevens.png", "Name": "Dr. Jennifer Stevens", "Email": "westoffice@smilesforkidsdentistry.com", "Phone": "(505) 873-4444", "Address": "3510 Coors Blvd SW Albuquerque, NM 87121", "City": "Albuquerque", "State": "NM", "Zip": "87121", "AddressLine1": "3510 Coors Blvd SW", "AddressLine2": "", "Distance": 10.5, "Latitude": 35.02472, "Longitude": -106.71393}, {"Sequence": 2, "PersonId": 211465, "AddressId": 2792660, "Specialty": "Orthodontics and Dentofacial Orthopedics", "Photo": "findadentist.ada.org/Images/Profile/211465-Dr-Russell-Trapnell.png", "Name": "Dr. Russell M Trapnell", "Email": "nmbraces@gmail.com", "Phone": "(505) 835-5650", "Address": "6401 Los Volcanes Rd NW Albuquerque, NM 87121-3983", "City": "Albuquerque", "State": "NM", "Zip": "87121-3983", "AddressLine1": "6401 Los Volcanes Rd NW", "AddressLine2": "", "Distance": 8.9, "Latitude": 35.09111, "Longitude": -106.71064}, {"Sequence": 3, "PersonId": 223049, "AddressId": 3533798, "Specialty": "Pediatric Dentistry", "Photo": "findadentist.ada.org/Images/Profile/223049-Dr-Brian-Hatch.png", "Name": "Dr. Brian K Hatch", "Email": "officemanager@mvpedsdental.com", "Phone": "(505) 312-5873", "Address": "6660 Central Ave. SW albuquerque, NM 87121", "City": "albuquerque", "State": "NM", "Zip": "87121", "AddressLine1": "6660 Central Ave. SW", "AddressLine2": "", "Distance": 9.0, "Latitude": 35.07946, "Longitude": -106.711}, {"Sequence": 4, "PersonId": 221702, "AddressId": 3572321, "Specialty": "General Practice", "Photo": "findadentist.ada.org/Images/Profile/221702-Dr-Jennifer-Oki.png", "Name": "Jennifer Oki", "Email": "oki@bowersandoki.com", "Phone": "(505) 881-2421", "Address": "3901 Louisiana Blvd NE Albuquerque, NM 87110", "City": "Albuquerque", "State": "NM", "Zip": "87110", "AddressLine1": "3901 Louisiana Blvd NE", "AddressLine2": "Suite B", "Distance": 16.8, "Latitude": 35.12933, "Longitude": -106.5692}, {"Sequence": 5, "PersonId": 36705, "AddressId": 3568099, "Specialty": "General Practice", "Photo": "findadentist.ada.org/Images/Profile/36705-Dr-William-Gardner.png", "Name": "Dr William C Gardner", "Email": "", "Phone": "(505) 828-2669", "Address": "8200 CARMEL AVE. NE SUITE 101 Albuquerque, NM 87122-2942", "City": "Albuquerque", "State": "NM", "Zip": "87122-2942", "AddressLine1": "8200 CARMEL AVE. NE SUITE 101", "AddressLine2": "101", "Distance": 18.1, "Latitude": 35.17475, "Longitude": -106.55348}, {"Sequence": 6, "PersonId": 36696, "AddressId": 1377201, "Specialty": "General Practice", "Photo": "findadentist.ada.org/Images/Profile/36696-Dr-Mark-Miller.png", "Name": "Dr Mark A Miller", "Email": "", "Phone": "(505) 299-2979", "Address": "9430 Indian School Rd NE Albuquerque, NM 87112-2843", "City": "Albuquerque", "State": "NM", "Zip": "87112-2843", "AddressLine1": "9430 Indian School Rd NE", "AddressLine2": "", "Distance": 18.4, "Latitude": 35.10152, "Longitude": -106.54043}, {"Sequence": 7, "PersonId": 225522, "AddressId": 2953250, "Specialty": "Endodontics", "Photo": "findadentist.ada.org/Images/Profile/225522-Dr-John-Gilbreth.png", "Name": "Dr. John B Gilbreth", "Email": "office@gilbrethendo.com", "Phone": "(505) 903-6916", "Address": "4111 Barbara Loop SE Suite B Rio Rancho, NM 87124", "City": "Rio Rancho", "State": "NM", "Zip": "87124", "AddressLine1": "4111 Barbara Loop SE Suite B", "AddressLine2": "", "Distance": 14.6, "Latitude": 35.23569, "Longitude": -106.65392}, {"Sequence": 8, "PersonId": 36603, "AddressId": 1377108, "Specialty": "General Practice", "Photo": "findadentist.ada.org/Images/Profile/36603-Dr-Linda-Nichols.png", "Name": "Dr Linda K Nichols", "Email": "Drlnichols@aol.com", "Phone": "(505) 292-3933", "Address": "3900 Eubank Blvd NE Ste 11 Albuquerque, NM 87111-3427", "City": "Albuquerque", "State": "NM", "Zip": "87111-3427", "AddressLine1": "3900 Eubank Blvd NE Ste 11", "AddressLine2": "", "Distance": 18.8, "Latitude": 35.12734, "Longitude": -106.5329}, {"Sequence": 9, "PersonId": 221913, "AddressId": 3515471, "Specialty": "Periodontics", "Photo": "findadentist.ada.org/Images/Profile/221913-Dr-Kevin-Harrison.png", "Name": "Dr. Kevin C Harrison", "Email": "", "Phone": "(505) 275-1662", "Address": "10151 Montgomery Blvd Ne Bldg 3 Albuquerque, NM 87111-3670", "City": "Albuquerque", "State": "NM", "Zip": "87111-3670", "AddressLine1": "10151 Montgomery Blvd Ne Bldg 3", "AddressLine2": "Suite C", "Distance": 19.1, "Latitude": 35.13085, "Longitude": -106.52745}, {"Sequence": 10, "PersonId": 36680, "AddressId": 3492002, "Specialty": "Periodontics", "Photo": "findadentist.ada.org/Images/Profile/36680-Dr-Richard-Verderame.png", "Name": "Richard Verderame, DDS, MS", "Email": "Perio4west@yahoo.com", "Phone": "(505) 891-3000", "Address": "4111 Barbara Loop SE Rio Rancho, NM 87124-1068", "City": "Rio Rancho", "State": "NM", "Zip": "87124-1068", "AddressLine1": "4111 Barbara Loop SE", "AddressLine2": "Suite E2", "Distance": 14.6, "Latitude": 35.23557, "Longitude": -106.65405}, {"Sequence": 11, "PersonId": 36543, "AddressId": 1377048, "Specialty": "General Practice", "Photo": "findadentist.ada.org/Images/Profile/36543-Dr-Donald-Gutierrez.png", "Name": "Dr Donald P Gutierrez", "Email": "admin@dentegrity.com", "Phone": "(505) 255-9859", "Address": "1441 Carlisle Blvd NE Ste A Albuquerque, NM 87110-5617", "City": "Albuquerque", "State": "NM", "Zip": "87110-5617", "AddressLine1": "1441 Carlisle Blvd NE Ste A", "AddressLine2": "", "Distance": 14.8, "Latitude": 35.09524, "Longitude": -106.60432}, {"Sequence": 12, "PersonId": 36431, "AddressId": 1376936, "Specialty": "General Practice", "Photo": "findadentist.ada.org/Images/Profile/36431-Dr-David-Willoughby.png", "Name": "Dr David L Willoughby", "Email": "", "Phone": "(505) 898-2000", "Address": "6111 Taylor Ranch Dr NW Albuquerque, NM 87120-2640", "City": "Albuquerque", "State": "NM", "Zip": "87120-2640", "AddressLine1": "6111 Taylor Ranch Dr NW", "AddressLine2": "", "Distance": 10.0, "Latitude": 35.15421, "Longitude": -106.69611}, {"Sequence": 13, "PersonId": 287062, "AddressId": 3443914, "Specialty": "Oral and Maxillofacial Surgery", "Photo": "findadentist.ada.org/Images/Profile/287062-Dr-Mark-Conover.png", "Name": "Dr Mark A Conover", "Email": "info@abqfamilydentist.com", "Phone": "(505) 508-5429", "Address": "7050 Barstow St Ne Ste A Albuquerque, NM 87111-1056", "City": "Albuquerque", "State": "NM", "Zip": "87111-1056", "AddressLine1": "7050 Barstow St Ne Ste A", "AddressLine2": "Suite A", "Distance": 17.9, "Latitude": 35.15994, "Longitude": -106.55402}, {"Sequence": 14, "PersonId": 36612, "AddressId": 1377117, "Specialty": "General Practice", "Photo": "findadentist.ada.org/Images/Profile/36612-Dr-Tom-Baiamonte.png", "Name": "Dr Tom D Baiamonte", "Email": "", "Phone": "(505) 294-8869", "Address": "8401 Osuna Rd NE Ste D Albuquerque, NM 87111-2074", "City": "Albuquerque", "State": "NM", "Zip": "87111-2074", "AddressLine1": "8401 Osuna Rd NE Ste D", "AddressLine2": "", "Distance": 17.9, "Latitude": 35.13777, "Longitude": -106.55061}, {"Sequence": 15, "PersonId": 201901, "AddressId": 1542406, "Specialty": "General Practice", "Photo": "findadentist.ada.org/Images/Profile/201901-Dr-Gaylina-Reachi.png", "Name": "Dr. Gaylina R Reachi", "Email": "", "Phone": "(505) 293-8011", "Address": "3900 Eubank Blvd NE Ste 14 Albuquerque, NM 87111-3427", "City": "Albuquerque", "State": "NM", "Zip": "87111-3427", "AddressLine1": "3900 Eubank Blvd NE Ste 14", "AddressLine2": "", "Distance": 18.8, "Latitude": 35.12746, "Longitude": -106.53289}, {"Sequence": 16, "PersonId": 210130, "AddressId": 2818308, "Specialty": "General Practice", "Photo": "findadentist.ada.org/Images/Profile/210130-Dr-Jennifer-Lamont.png", "Name": "Dr. Jennifer K Lamont", "Email": "", "Phone": "(505) 508-5429", "Address": "7050 Barstow St NE Ste A Albuquerque, NM 87111-1056", "City": "Albuquerque", "State": "NM", "Zip": "87111-1056", "AddressLine1": "7050 Barstow St NE Ste A", "AddressLine2": "", "Distance": 17.8, "Latitude": 35.15928, "Longitude": -106.55547}, {"Sequence": 17, "PersonId": 36463, "AddressId": 1376968, "Specialty": "General Practice", "Photo": "findadentist.ada.org/Images/Profile/36463-Dr-Fred-Giombolini.png", "Name": "Dr Fred Giombolini", "Email": "info@gsdentalnm.com", "Phone": "(505) 883-5835", "Address": "7910 Wyoming Blvd NE Ste A Albuquerque, NM 87109-6031", "City": "Albuquerque", "State": "NM", "Zip": "87109-6031", "AddressLine1": "7910 Wyoming Blvd NE Ste A", "AddressLine2": null, "Distance": 17.8, "Latitude": 35.17115, "Longitude": -106.5588}, {"Sequence": 18, "PersonId": 222831, "AddressId": 3429394, "Specialty": "General Practice", "Photo": "findadentist.ada.org/Images/Profile/222831-Dr-Ryan-Shepherd.png", "Name": "Dr. Ryan S Shepherd", "Email": "uptowndental.llc@gmail.com", "Phone": "(505) 268-4484", "Address": "7101 Prospect Place NE Albuquerque, NM 87110-4332", "City": "Albuquerque", "State": "NM", "Zip": "87110-4332", "AddressLine1": "7101 Prospect Place NE", "AddressLine2": "", "Distance": 17.0, "Latitude": 35.10728, "Longitude": -106.56522}, {"Sequence": 19, "PersonId": 235297, "AddressId": 1575802, "Specialty": "General Practice", "Photo": "findadentist.ada.org/Images/Profile/235297-Dr-Amy-Matte.png", "Name": "Dr. Amy C Matte", "Email": "", "Phone": "(505) 256-8855", "Address": "637 San Mateo Blvd SE Ste A Albuquerque, NM 87108-3648", "City": "Albuquerque", "State": "NM", "Zip": "87108-3648", "AddressLine1": "637 San Mateo Blvd SE Ste A", "AddressLine2": "", "Distance": 16.0, "Latitude": 35.07122, "Longitude": -106.58668}, {"Sequence": 20, "PersonId": 36462, "AddressId": 1376967, "Specialty": "General Practice", "Photo": "findadentist.ada.org/Images/Profile/36462-Dr-David-Giaquinto.png", "Name": "Dr David R Giaquinto", "Email": "smiles@cottonwooddental.net", "Phone": "(505) 899-7645", "Address": "3613 State Highway 528 NW Ste D Albuquerque, NM 87114-8918", "City": "Albuquerque", "State": "NM", "Zip": "87114-8918", "AddressLine1": "3613 State Highway 528 NW Ste D", "AddressLine2": null, "Distance": 13.8, "Latitude": 35.20862, "Longitude": -106.65166}, {"Sequence": 21, "PersonId": 88883, "AddressId": 3171182, "Specialty": "General Practice", "Photo": "findadentist.ada.org/Images/Profile/88883-Dr-David-LoPour.png", "Name": "Dr Greg LoPour", "Email": "", "Phone": "(505) 298-7475", "Address": "5110 Masthead St Ne Ste A Albuquerque, NM 87109-4412", "City": "Albuquerque", "State": "NM", "Zip": "87109-4412", "AddressLine1": "5110 Masthead St Ne Ste A", "AddressLine2": "Suite A", "Distance": 16.0, "Latitude": 35.16396, "Longitude": -106.58923}, {"Sequence": 22, "PersonId": 375455, "AddressId": 3439296, "Specialty": "General Practice", "Photo": "findadentist.ada.org/Images/Profile/375455-Dr-Matthew-Martinez.png", "Name": "Dr Matthew L Martinez", "Email": "", "Phone": "(505) 903-6999", "Address": "1510 Wyoming Blvd NE Ste A Albuquerque, NM 87112", "City": "Albuquerque", "State": "NM", "Zip": "87112", "AddressLine1": "1510 Wyoming Blvd NE Ste A", "AddressLine2": "", "Distance": 17.8, "Latitude": 35.0975, "Longitude": -106.55067}, {"Sequence": 23, "PersonId": 229519, "AddressId": 2818613, "Specialty": "General Practice", "Photo": "findadentist.ada.org/Images/Profile/229519-Dr-Cassie-Fede.png", "Name": "Dr. Cassie I Fede", "Email": "info@fedefamilydentistry.com", "Phone": "(505) 883-8830", "Address": "6800 Montgomery Blvd NE Ste J Albuquerque, NM 87109-1425", "City": "Albuquerque", "State": "NM", "Zip": "87109-1425", "AddressLine1": "6800 Montgomery Blvd NE Ste J", "AddressLine2": "", "Distance": 16.6, "Latitude": 35.13019, "Longitude": -106.57182}, {"Sequence": 24, "PersonId": 36960, "AddressId": 3512456, "Specialty": "Oral and Maxillofacial Surgery", "Photo": "findadentist.ada.org/Images/Profile/36960-Dr-Laurence-Rogel.png", "Name": "Dr Laurence J Rogel", "Email": "", "Phone": "(505) 994-4772", "Address": "1316 Jackie Rd SE Ste 600 Rio Rancho, NM 87124-6606", "City": "Rio Rancho", "State": "NM", "Zip": "87124-6606", "AddressLine1": "1316 Jackie Rd SE Ste 600", "AddressLine2": "", "Distance": 14.8, "Latitude": 35.23961, "Longitude": -106.65317}, {"Sequence": 25, "PersonId": 36685, "AddressId": 1377190, "Specialty": "General Practice", "Photo": "findadentist.ada.org/Images/Profile/36685-Dr-Michael-Armijo.png", "Name": "Dr Michael J Armijo", "Email": "armijo@swcp.com", "Phone": "(505) 797-1000", "Address": "5900 Cubero Dr NE Ste B Albuquerque, NM 87109-3879", "City": "Albuquerque", "State": "NM", "Zip": "87109-3879", "AddressLine1": "5900 Cubero Dr NE Ste B", "AddressLine2": "", "Distance": 17.5, "Latitude": 35.14656, "Longitude": -106.55791}, {"Sequence": 26, "PersonId": 179157, "AddressId": 3428921, "Specialty": "General Practice", "Photo": "findadentist.ada.org/Images/Profile/179157-Dr-Patrick-Coriz.png", "Name": "Dr. Patrick D Coriz", "Email": "office@corizdental.com", "Phone": "(505) 843-6655", "Address": "1101 Medical Arts Ave NE Bldg 1 Albuquerque, NM 87102-2706", "City": "Albuquerque", "State": "NM", "Zip": "87102-2706", "AddressLine1": "1101 Medical Arts Ave NE Bldg 1", "AddressLine2": "", "Distance": 13.4, "Latitude": 35.09019, "Longitude": -106.62926}, {"Sequence": 27, "PersonId": 159246, "AddressId": 3405479, "Specialty": "Oral and Maxillofacial Surgery", "Photo": "findadentist.ada.org/Images/Profile/159246-Dr-Robert-Urquhart.png", "Name": "Dr. Robert C Urquhart", "Email": "dru@urquhartoralsurgery.com", "Phone": "(505) 554-2575", "Address": "8400 Osuna Rd NE Albuquerque, NM 87111-2071", "City": "Albuquerque", "State": "NM", "Zip": "87111-2071", "AddressLine1": "8400 Osuna Rd NE", "AddressLine2": "Suite 4B", "Distance": 17.9, "Latitude": 35.13684, "Longitude": -106.55029}, {"Sequence": 28, "PersonId": 247566, "AddressId": 2818594, "Specialty": "General Practice", "Photo": "findadentist.ada.org/Images/Profile/247566-Dr-Dawn-Glover.png", "Name": "Dr. Dawn K Glover", "Email": "", "Phone": null, "Address": "1801 Camino De Salud NE Albuquerque, NM 87102-4516", "City": "Albuquerque", "State": "NM", "Zip": "87102-4516", "AddressLine1": "1801 Camino De Salud NE", "AddressLine2": "", "Distance": 13.6, "Latitude": 35.09562, "Longitude": -106.6245}, {"Sequence": 29, "PersonId": 152660, "AddressId": 1493165, "Specialty": "Endodontics", "Photo": "findadentist.ada.org/Images/Profile/152660-Dr-Melissa-Harmon.png", "Name": "Dr. Melissa A Harmon", "Email": "Melissa.Harmon@Westside-Endo.com", "Phone": "(505) 891-2100", "Address": "2320 Grande Blvd SE  Suite A Rio Rancho, NM 87124-1654", "City": "Rio Rancho", "State": "NM", "Zip": "87124-1654", "AddressLine1": "2320 Grande Blvd SE  Suite A", "AddressLine2": "", "Distance": 13.6, "Latitude": 35.21963, "Longitude": -106.66357}, {"Sequence": 30, "PersonId": 36482, "AddressId": 1376987, "Specialty": "General Practice", "Photo": "findadentist.ada.org/Images/Profile/36482-Dr-David-Moore.png", "Name": "Dr David T Moore", "Email": "staff@gherardiandmoore.com", "Phone": "(505) 293-6125", "Address": "3900 Eubank Blvd NE Ste 5 Albuquerque, NM 87111-3427", "City": "Albuquerque", "State": "NM", "Zip": "87111-3427", "AddressLine1": "3900 Eubank Blvd NE Ste 5", "AddressLine2": "", "Distance": 18.8, "Latitude": 35.12746, "Longitude": -106.53289}, {"Sequence": 31, "PersonId": 344626, "AddressId": 3359954, "Specialty": "General Practice", "Photo": "findadentist.ada.org/Images/Profile/344626-Dr-Kyle-Henry.png", "Name": "Dr Kyle L Henry", "Email": "frontoffice@sunridgeteeth.com", "Phone": "(505) 836-0322", "Address": "6400 Central Ave SW Albuquerque, NM 87105-2033", "City": "Albuquerque", "State": "NM", "Zip": "87105-2033", "AddressLine1": "6400 Central Ave SW", "AddressLine2": "", "Distance": 9.2, "Latitude": 35.08023, "Longitude": -106.70786}, {"Sequence": 32, "PersonId": 223066, "AddressId": 1563571, "Specialty": "Prosthodontics", "Photo": "findadentist.ada.org/Images/Profile/223066-Dr-Darren-Norby.png", "Name": "Dr. Darren C Norby", "Email": "norbyprosthodontics@gmail.com", "Phone": "(505) 296-1332", "Address": "8400 Osuna Rd NE Ste 1C Albuquerque, NM 87111-2068", "City": "Albuquerque", "State": "NM", "Zip": "87111-2068", "AddressLine1": "8400 Osuna Rd NE Ste 1C", "AddressLine2": "", "Distance": 17.9, "Latitude": 35.13703, "Longitude": -106.55032}, {"Sequence": 33, "PersonId": 254260, "AddressId": 2878487, "Specialty": "General Practice", "Photo": "findadentist.ada.org/Images/Profile/254260-Dr-Anne-Scott.png", "Name": "Dr. Anne M Scott", "Email": "", "Phone": "(505) 293-8011", "Address": "3900 Eubank Blvd NE Ste 14 Albuquerque, NM 87111-3427", "City": "Albuquerque", "State": "NM", "Zip": "87111-3427", "AddressLine1": "3900 Eubank Blvd NE Ste 14", "AddressLine2": "", "Distance": 18.8, "Latitude": 35.12746, "Longitude": -106.53289}, {"Sequence": 34, "PersonId": 269891, "AddressId": 3169324, "Specialty": "General Practice", "Photo": "findadentist.ada.org/Images/Profile/269891-Dr-Elizabeth-Rivers.png", "Name": "Dr. Elizabeth K Rivers", "Email": "", "Phone": "(505) 256-1711", "Address": "1501 San Pedro Dr SE Albuquerque, NM 87108", "City": "Albuquerque", "State": "NM", "Zip": "87108", "AddressLine1": "1501 San Pedro Dr SE", "AddressLine2": "", "Distance": 16.5, "Latitude": 35.05519, "Longitude": -106.58164}, {"Sequence": 35, "PersonId": 36672, "AddressId": 1377177, "Specialty": "General Practice", "Photo": "findadentist.ada.org/Images/Profile/36672-Dr-Mark-Johnson.png", "Name": "Dr Mark W Johnson", "Email": "office@markjohnsondds.com", "Phone": "(505) 922-9511", "Address": "5115 Coors Blvd NW Ste F Albuquerque, NM 87120-1926", "City": "Albuquerque", "State": "NM", "Zip": "87120-1926", "AddressLine1": "5115 Coors Blvd NW Ste F", "AddressLine2": "", "Distance": 9.9, "Latitude": 35.14511, "Longitude": -106.69432}, {"Sequence": 36, "PersonId": 248261, "AddressId": 2823918, "Specialty": "Periodontics", "Photo": "findadentist.ada.org/Images/Profile/248261-Dr-Curtis-Pino.png", "Name": "Dr. Curtis M Pino", "Email": "pinoperio@gmail.com", "Phone": "(505) 822-0565", "Address": "7007 Wyoming Blvd NE Ste D1 Albuquerque, NM 87109-3981", "City": "Albuquerque", "State": "NM", "Zip": "87109-3981", "AddressLine1": "7007 Wyoming Blvd NE Ste D1", "AddressLine2": "", "Distance": 19.7, "Latitude": 35.12306, "Longitude": -106.51663}, {"Sequence": 37, "PersonId": 195500, "AddressId": 3443232, "Specialty": "General Practice", "Photo": "findadentist.ada.org/Images/Profile/195500-Dr-Curtis-Lee.png", "Name": "Dr. Curtis G Lee", "Email": "", "Phone": "(505) 884-6237", "Address": "7520 Montgomery Blvd Ne Bldg D11 Albuquerque, NM 87109-1534", "City": "Albuquerque", "State": "NM", "Zip": "87109-1534", "AddressLine1": "7520 Montgomery Blvd Ne Bldg D11", "AddressLine2": "Bldg D-11", "Distance": 17.2, "Latitude": 35.1298, "Longitude": -106.56059}, {"Sequence": 38, "PersonId": 213104, "AddressId": 2817092, "Specialty": "Oral and Maxillofacial Surgery", "Photo": "findadentist.ada.org/Images/Profile/213104-Dr-Jeffrey-Hagen.png", "Name": "Dr. Jeffrey M Hagen", "Email": "nmomsa@aol.com", "Phone": "(505) 881-1130", "Address": "6800 Montgomery Blvd NE Ste A Albuquerque, NM 87109-1425", "City": "Albuquerque", "State": "NM", "Zip": "87109-1425", "AddressLine1": "6800 Montgomery Blvd NE Ste A", "AddressLine2": "", "Distance": 16.6, "Latitude": 35.13019, "Longitude": -106.57182}, {"Sequence": 39, "PersonId": 249953, "AddressId": 3580105, "Specialty": "General Practice", "Photo": "findadentist.ada.org/Images/Profile/249953-Dr-Keely-Chavez.png", "Name": "Dr. Keely J Chavez", "Email": "westoffice@smilesforkidsdentistry.com", "Phone": "(505) 892-9010", "Address": "9201 Eagle Ranch Rd Nw Albuquerque, NM 87114-6032", "City": "Albuquerque", "State": "NM", "Zip": "87114-6032", "AddressLine1": "9201 Eagle Ranch Rd Nw", "AddressLine2": "", "Distance": 11.7, "Latitude": 35.18171, "Longitude": -106.67514}, {"Sequence": 40, "PersonId": 248225, "AddressId": 2767422, "Specialty": "General Practice", "Photo": "findadentist.ada.org/Images/Profile/248225-Dr-Russell-Ash.png", "Name": "Dr. Russell Ash", "Email": "russell.ashdds@outlook.com", "Phone": "(505) 275-3167", "Address": "5850 Eubank Blvd Ne Ste B38 Albuquerque, NM 87111-6159", "City": "Albuquerque", "State": "NM", "Zip": "87111-6159", "AddressLine1": "5850 Eubank Blvd Ne Ste B38", "AddressLine2": "Ste B38", "Distance": 19.2, "Latitude": 35.14685, "Longitude": -106.52734}, {"Sequence": 41, "PersonId": 228339, "AddressId": 2764747, "Specialty": "General Practice", "Photo": "findadentist.ada.org/Images/Profile/228339-Dr-Melissa-Ivers.png", "Name": "Dr. Melissa A Ivers", "Email": "", "Phone": "(505) 925-4031", "Address": "1801 Camino De Salud NE Albuquerque, NM 87102-4516", "City": "Albuquerque", "State": "NM", "Zip": "87102-4516", "AddressLine1": "1801 Camino De Salud NE", "AddressLine2": "", "Distance": 13.6, "Latitude": 35.09562, "Longitude": -106.6245}, {"Sequence": 42, "PersonId": 228339, "AddressId": 2764746, "Specialty": "General Practice", "Photo": "findadentist.ada.org/Images/Profile/228339-Dr-Melissa-Ivers.png", "Name": "Dr. Melissa A Ivers", "Email": "", "Phone": null, "Address": "4216 Louisiana Blvd NE Albuquerque, NM 87109-1807", "City": "Albuquerque", "State": "NM", "Zip": "87109-1807", "AddressLine1": "4216 Louisiana Blvd NE", "AddressLine2": "", "Distance": 16.8, "Latitude": 35.13261, "Longitude": -106.56835}, {"Sequence": 43, "PersonId": 220221, "AddressId": 2780975, "Specialty": "Pediatric Dentistry", "Photo": "findadentist.ada.org/Images/Profile/220221-Dr-Stephen-Cito.png", "Name": "Dr. Michael Cito", "Email": "", "Phone": "(505) 298-5222", "Address": "3900 Eubank Blvd NE Ste 2 Albuquerque, NM 87111-3427", "City": "Albuquerque", "State": "NM", "Zip": "87111-3427", "AddressLine1": "3900 Eubank Blvd NE Ste 2", "AddressLine2": "", "Distance": 18.8, "Latitude": 35.12734, "Longitude": -106.5329}, {"Sequence": 44, "PersonId": 36608, "AddressId": 1377113, "Specialty": "General Practice", "Photo": "findadentist.ada.org/Images/Profile/36608-Dr-Roderick-Garcia.png", "Name": "Dr Roderick A Garcia", "Email": "info@roderickgarciadmd.com", "Phone": "(505) 821-6119", "Address": "7007 Wyoming Blvd NE Ste D2 Albuquerque, NM 87109-3981", "City": "Albuquerque", "State": "NM", "Zip": "87109-3981", "AddressLine1": "7007 Wyoming Blvd NE Ste D2", "AddressLine2": "", "Distance": 17.5, "Latitude": 35.15844, "Longitude": -106.56101}, {"Sequence": 45, "PersonId": 336606, "AddressId": 3443239, "Specialty": "General Practice", "Photo": "findadentist.ada.org/Images/Profile/336606-Dr-Murtaja-Kamal Aldeen.png", "Name": "Murtaja Kamal Aldeen", "Email": "kamal-aldeenm@pacificdentalservices.com", "Phone": "(505) 352-1166", "Address": "2800-A  Coors Blvd NW Albuquerque, NM 87120", "City": "Albuquerque", "State": "NM", "Zip": "87120", "AddressLine1": "2800-A  Coors Blvd NW", "AddressLine2": "", "Distance": 9.3, "Latitude": 35.11377, "Longitude": -106.70132}, {"Sequence": 46, "PersonId": 344898, "AddressId": 3499828, "Specialty": "General Practice", "Photo": "findadentist.ada.org/Images/Profile/344898-Dr-Dorothy-Nguyen.png", "Name": "Dr. Dorothy K Nguyen", "Email": "dmd@kneelanddentalcare.com", "Phone": "(505) 200-9399", "Address": "1628 Alameda Blvd NW Albuquerque, NM 87114-8807", "City": "Albuquerque", "State": "NM", "Zip": "87114-8807", "AddressLine1": "1628 Alameda Blvd NW", "AddressLine2": "", "Distance": 13.8, "Latitude": 35.2017, "Longitude": -106.64598}, {"Sequence": 47, "PersonId": 270081, "AddressId": 3584232, "Specialty": "General Practice", "Photo": "findadentist.ada.org/Images/Profile/270081-Dr-Rebecca-Case.png", "Name": "Rebecca Case", "Email": "", "Phone": "(505) 298-7479", "Address": "10409 Montgomery Pkwy NE Albuquerque, NM 87111", "City": "Albuquerque", "State": "NM", "Zip": "87111", "AddressLine1": "10409 Montgomery Pkwy NE", "AddressLine2": "", "Distance": 19.4, "Latitude": 35.13084, "Longitude": -106.52227}, {"Sequence": 48, "PersonId": 249624, "AddressId": 3353903, "Specialty": "General Practice", "Photo": "findadentist.ada.org/Images/Profile/249624-Dr-Skylar-Lighthall.png", "Name": "Dr. Skylar A Lighthall", "Email": "cottonwood@comfortdental.biz", "Phone": "(505) 890-2773", "Address": "9401 Coors Blvd Nw Albuquerque, NM 87114-4007", "City": "Albuquerque", "State": "NM", "Zip": "87114-4007", "AddressLine1": "9401 Coors Blvd Nw", "AddressLine2": "", "Distance": 12.5, "Latitude": 35.18713, "Longitude": -106.66259}, {"Sequence": 49, "PersonId": 248454, "AddressId": 2760364, "Specialty": "General Practice", "Photo": "findadentist.ada.org/Images/Profile/248454-Dr-Jonathan-Kelley.png", "Name": "Dr. Jonathan Kelley", "Email": "info@kelleyddsabq.com", "Phone": "(505) 898-4504", "Address": "4801 Montano Rd NW Ste A3 Albuquerque, NM 87120-2428", "City": "Albuquerque", "State": "NM", "Zip": "87120-2428", "AddressLine1": "4801 Montano Rd NW Ste A3", "AddressLine2": "", "Distance": 10.0, "Latitude": 35.15314, "Longitude": -106.69464}, {"Sequence": 50, "PersonId": 248469, "AddressId": 3579892, "Specialty": "General Practice", "Photo": "findadentist.ada.org/Images/Profile/248469-Dr-Spencer-Morgan.png", "Name": "Dr. Spencer Morgan", "Email": "northstardentalabq@gmail.com", "Phone": "(505) 369-1881", "Address": "9501 Paseo Del Norte NE Ste A Albuquerque, NM 87122-2998", "City": "Albuquerque", "State": "NM", "Zip": "87122-2998", "AddressLine1": "9501 Paseo Del Norte NE Ste A", "AddressLine2": "", "Distance": 19.1, "Latitude": 35.17529, "Longitude": -106.53491}, {"Sequence": 51, "PersonId": 36651, "AddressId": 1377156, "Specialty": "General Practice", "Photo": "findadentist.ada.org/Images/Profile/36651-Dr-Lee-Cain.png", "Name": "Dr Lee E Cain", "Email": "cainlcain1@aol.com", "Phone": "(505) 877-8910", "Address": "3001 Isleta Blvd SW Albuquerque, NM 87105-5818", "City": "Albuquerque", "State": "NM", "Zip": "87105-5818", "AddressLine1": "3001 Isleta Blvd SW", "AddressLine2": "", "Distance": 11.9, "Latitude": 35.03214, "Longitude": -106.67991}, {"Sequence": 52, "PersonId": 126545, "AddressId": 1467050, "Specialty": "General Practice", "Photo": "findadentist.ada.org/Images/Profile/126545-Dr-Ross-Long.png", "Name": "Dr. Ross Long", "Email": "albuquerquewest@mountaindental.com", "Phone": "(505) 836-1280", "Address": "3740 Coors Blvd NW Ste A Albuquerque, NM 87120-4762", "City": "Albuquerque", "State": "NM", "Zip": "87120-4762", "AddressLine1": "3740 Coors Blvd NW Ste A", "AddressLine2": "", "Distance": 9.3, "Latitude": 35.12495, "Longitude": -106.70105}, {"Sequence": 53, "PersonId": 131070, "AddressId": 2951367, "Specialty": "Orthodontics and Dentofacial Orthopedics", "Photo": "findadentist.ada.org/Images/Profile/131070-Dr-Kimsey-Anderson.png", "Name": "Dr. Kimsey K Anderson", "Email": "ateam@abqortho.com", "Phone": "(505) 884-5610", "Address": "7520 Montgomery Blvd NE Albuquerque, NM 87109-1533", "City": "Albuquerque", "State": "NM", "Zip": "87109-1533", "AddressLine1": "7520 Montgomery Blvd NE", "AddressLine2": "Bldg D-9", "Distance": 17.2, "Latitude": 35.1298, "Longitude": -106.56059}, {"Sequence": 54, "PersonId": 223959, "AddressId": 2905478, "Specialty": "Oral and Maxillofacial Surgery", "Photo": "findadentist.ada.org/Images/Profile/223959-Dr-Travis-Rudd.png", "Name": "Dr. Travis C Rudd", "Email": "info@bearcanyonofs.com", "Phone": "(505) 292-3400", "Address": "10151 Montgomery Blvd Ne Ste 2D Albuquerque, NM 87111-3664", "City": "Albuquerque", "State": "NM", "Zip": "87111-3664", "AddressLine1": "10151 Montgomery Blvd Ne Ste 2D", "AddressLine2": "", "Distance": 19.1, "Latitude": 35.13108, "Longitude": -106.52722}, {"Sequence": 55, "PersonId": 159324, "AddressId": 3553393, "Specialty": "General Practice", "Photo": "findadentist.ada.org/Images/Profile/159324-Dr-Terry-Gomez-kroeter.png", "Name": "Dr. Terry Gomez-Kroeter", "Email": "terrygomezdds@gmail.com", "Phone": "(505) 296-5200", "Address": "6830 Montgomery Blvd Ne Ste F Albuquerque, NM 87109-1425", "City": "Albuquerque", "State": "NM", "Zip": "87109-1425", "AddressLine1": "6830 Montgomery Blvd Ne Ste F", "AddressLine2": "Suite F", "Distance": 16.7, "Latitude": 35.13012, "Longitude": -106.57095}, {"Sequence": 56, "PersonId": 36704, "AddressId": 1377209, "Specialty": "General Practice", "Photo": "findadentist.ada.org/Images/Profile/36704-Dr-Shelly-Fritz.png", "Name": "Dr Shelly L Fritz", "Email": "ma@algermissenfritz.com", "Phone": "(505) 888-6980", "Address": "7520 Montgomery Blvd NE Bldg E12 Albuquerque, NM 87109-1586", "City": "Albuquerque", "State": "NM", "Zip": "87109-1586", "AddressLine1": "7520 Montgomery Blvd NE Bldg E12", "AddressLine2": "", "Distance": 17.2, "Latitude": 35.1298, "Longitude": -106.56059}, {"Sequence": 57, "PersonId": 36501, "AddressId": 1377006, "Specialty": "General Practice", "Photo": "findadentist.ada.org/Images/Profile/36501-Dr-Thomas-Hermann.png", "Name": "Dr Thomas Hermann", "Email": "smiledoc@cableone.net", "Phone": "(505) 892-8211", "Address": "4111 Barbara Loop SE Ste D2 Rio Rancho, NM 87124-1068", "City": "Rio Rancho", "State": "NM", "Zip": "87124-1068", "AddressLine1": "4111 Barbara Loop SE Ste D2", "AddressLine2": "", "Distance": 14.6, "Latitude": 35.23569, "Longitude": -106.65392}, {"Sequence": 58, "PersonId": 36585, "AddressId": 1377090, "Specialty": "General Practice", "Photo": "findadentist.ada.org/Images/Profile/36585-Dr-Michael-Roussel.png", "Name": "Dr Mike E Roussel", "Email": "freshbreathcenter@yahoo.com", "Phone": "(505) 881-4365", "Address": "7127 Prospect Pl NE Albuquerque, NM 87110-4313", "City": "Albuquerque", "State": "NM", "Zip": "87110-4313", "AddressLine1": "7127 Prospect Pl NE", "AddressLine2": "", "Distance": 17.0, "Latitude": 35.10579, "Longitude": -106.56501}, {"Sequence": 59, "PersonId": 350440, "AddressId": 3544820, "Specialty": "General Practice", "Photo": "findadentist.ada.org/Images/Profile/350440-Dr-Grant-Allen.png", "Name": "Dr. Grant S Allen", "Email": "", "Phone": "(505) 891-4510", "Address": "4041 Ridge Rock Rd Se Rio Rancho, NM 87124-7626", "City": "Rio Rancho", "State": "NM", "Zip": "87124-7626", "AddressLine1": "4041 Ridge Rock Rd Se", "AddressLine2": "", "Distance": 15.3, "Latitude": 35.25122, "Longitude": -106.65409}, {"Sequence": 60, "PersonId": 254810, "AddressId": 2949617, "Specialty": "General Practice", "Photo": "findadentist.ada.org/Images/Profile/254810-Dr-Stephanie-Padilla.png", "Name": "Dr. Stephanie A Padilla", "Email": "info@padilladental.com", "Phone": "(505) 292-2323", "Address": "3809 Eubank Blvd Ne Albuquerque, NM 87111-3557", "City": "Albuquerque", "State": "NM", "Zip": "87111-3557", "AddressLine1": "3809 Eubank Blvd Ne", "AddressLine2": "", "Distance": 18.7, "Latitude": 35.12595, "Longitude": -106.53376}, {"Sequence": 61, "PersonId": 36397, "AddressId": 3552121, "Specialty": "General Practice", "Photo": "findadentist.ada.org/Images/Profile/36397-Dr-Thomas-Schripsema.png", "Name": "Dr Thomas J Schripsema", "Email": "information@dukecitysmiles.com", "Phone": "(505) 296-5458", "Address": "3111 Eubank Blvd. NE Albuquerque, NM 87111", "City": "Albuquerque", "State": "NM", "Zip": "87111", "AddressLine1": "3111 Eubank Blvd. NE", "AddressLine2": "", "Distance": 18.7, "Latitude": 35.11774, "Longitude": -106.53366}, {"Sequence": 62, "PersonId": 260667, "AddressId": 3057774, "Specialty": "General Practice", "Photo": "findadentist.ada.org/Images/Profile/260667-Dr-Joseph-Gherardi.png", "Name": "Dr. Joseph Gherardi", "Email": "staff@gherardiandmoore.com", "Phone": "(505) 293-6125", "Address": "3900 Eubank Blvd NE Suite #5 Albuquerque, NM 87111-3465", "City": "Albuquerque", "State": "NM", "Zip": "87111-3465", "AddressLine1": "3900 Eubank Blvd NE Suite #5", "AddressLine2": "", "Distance": 18.8, "Latitude": 35.12734, "Longitude": -106.5329}, {"Sequence": 63, "PersonId": 36937, "AddressId": 2754470, "Specialty": "Orthodontics and Dentofacial Orthopedics", "Photo": "findadentist.ada.org/Images/Profile/36937-Dr-John-Cornali.png", "Name": "Dr John M Cornali  DDS", "Email": "office@cornalimcdonaldortho.com", "Phone": "(505) 828-1244", "Address": "8010 Palomas Ave NE Ste A Albuquerque, NM 87109-5201", "City": "Albuquerque", "State": "NM", "Zip": "87109-5201", "AddressLine1": "8010 Palomas Ave NE Ste A", "AddressLine2": "", "Distance": 17.8, "Latitude": 35.17248, "Longitude": -106.55905}, {"Sequence": 64, "PersonId": 36515, "AddressId": 1377020, "Specialty": "General Practice", "Photo": "findadentist.ada.org/Images/Profile/36515-Dr-Michael-Casaus.png", "Name": "Dr Michael  A Casaus", "Email": "", "Phone": "(505) 883-5481", "Address": "6800 Montgomery Blvd NE Ste H Albuquerque, NM 87109-1425", "City": "Albuquerque", "State": "NM", "Zip": "87109-1425", "AddressLine1": "6800 Montgomery Blvd NE Ste H", "AddressLine2": "", "Distance": 16.6, "Latitude": 35.13019, "Longitude": -106.57182}, {"Sequence": 65, "PersonId": 228510, "AddressId": 1569015, "Specialty": "Orthodontics and Dentofacial Orthopedics", "Photo": "findadentist.ada.org/Images/Profile/228510-Dr-Michael-Fanning.png", "Name": "Dr. Michael J Fanning", "Email": "info@fanningorthodontics.com", "Phone": "(505) 200-0945", "Address": "8212 Louisiana Blvd Ne Ste A Albuquerque, NM 87113-2552", "City": "Albuquerque", "State": "NM", "Zip": "87113-2552", "AddressLine1": "8212 Louisiana Blvd Ne Ste A", "AddressLine2": "", "Distance": 17.4, "Latitude": 35.17593, "Longitude": -106.56689}, {"Sequence": 66, "PersonId": 36399, "AddressId": 1376904, "Specialty": "General Practice", "Photo": "findadentist.ada.org/Images/Profile/36399-Dr-Douglas-Gibbons.png", "Name": "Dr Douglas B Gibbons", "Email": "frontoffice@douglasgibbonsdds.com", "Phone": "(505) 842-0808", "Address": "1101 Medical Arts Ave NE Albuquerque, NM 87102-2706", "City": "Albuquerque", "State": "NM", "Zip": "87102-2706", "AddressLine1": "1101 Medical Arts Ave NE", "AddressLine2": "Bldg 1", "Distance": 13.4, "Latitude": 35.09014, "Longitude": -106.62928}, {"Sequence": 67, "PersonId": 159388, "AddressId": 3057778, "Specialty": "General Practice", "Photo": "findadentist.ada.org/Images/Profile/159388-Dr-James-Zamora.png", "Name": "Dr. James Zamora", "Email": "", "Phone": "(505) 822-0663", "Address": "5920 Cubero Dr NE Albuquerque, NM 87109-3867", "City": "Albuquerque", "State": "NM", "Zip": "87109-3867", "AddressLine1": "5920 Cubero Dr NE", "AddressLine2": "", "Distance": 17.5, "Latitude": 35.14747, "Longitude": -106.55781}, {"Sequence": 68, "PersonId": 353324, "AddressId": 3426844, "Specialty": "General Practice", "Photo": "findadentist.ada.org/Images/Profile/353324-Dr-Brett-Haggerty.png", "Name": "Dr Brett R Haggerty", "Email": "dochaggs@gmail.om", "Phone": "(505) 268-3384", "Address": "5124 Zuni Rd Se Albuquerque, NM 87108-2833", "City": "Albuquerque", "State": "NM", "Zip": "87108-2833", "AddressLine1": "5124 Zuni Rd Se", "AddressLine2": "", "Distance": 15.9, "Latitude": 35.07264, "Longitude": -106.58805}, {"Sequence": 69, "PersonId": 131456, "AddressId": 1471961, "Specialty": "Pediatric Dentistry", "Photo": "findadentist.ada.org/Images/Profile/131456-Dr-Gary-Meckler.png", "Name": "Dr. Gary A Meckler", "Email": "Fun@drmeckler.com", "Phone": "(505) 878-0700", "Address": "8300 Carmel Ave NE Ste 602 Albuquerque, NM 87122-3150", "City": "Albuquerque", "State": "NM", "Zip": "87122-3150", "AddressLine1": "8300 Carmel Ave NE Ste 602", "AddressLine2": "", "Distance": 18.2, "Latitude": 35.17496, "Longitude": -106.55265}, {"Sequence": 70, "PersonId": 36356, "AddressId": 1376861, "Specialty": "General Practice", "Photo": "findadentist.ada.org/Images/Profile/36356-Dr-Dwight-Howard.png", "Name": "Dr Dwight D Howard", "Email": "", "Phone": "(505) 883-3229", "Address": "4273 Montgomery Blvd NE Ste 120E Albuquerque, NM 87109-6746", "City": "Albuquerque", "State": "NM", "Zip": "87109-6746", "AddressLine1": "4273 Montgomery Blvd NE Ste 120E", "AddressLine2": null, "Distance": 15.2, "Latitude": 35.13099, "Longitude": -106.59733}, {"Sequence": 71, "PersonId": 36419, "AddressId": 1376924, "Specialty": "Pediatric Dentistry", "Photo": "findadentist.ada.org/Images/Profile/36419-Dr-Stanley-Hess.png", "Name": "Dr Stanley C Hess", "Email": "", "Phone": "(505) 293-7101", "Address": "8400 Osuna Rd NE Ste 2D Albuquerque, NM 87111-2069", "City": "Albuquerque", "State": "NM", "Zip": "87111-2069", "AddressLine1": "8400 Osuna Rd NE Ste 2D", "AddressLine2": "", "Distance": 17.9, "Latitude": 35.13636, "Longitude": -106.55018}, {"Sequence": 72, "PersonId": 338166, "AddressId": 3291991, "Specialty": "General Practice", "Photo": "findadentist.ada.org/Images/Profile/338166-Dr-Bokang-Bogopane.png", "Name": "Dr Bokang Bogopane", "Email": "Cottonwood@comfortdental.biz", "Phone": "(505) 890-2773", "Address": "9401 Coors Blvd NW Albuquerque, NM 87114", "City": "Albuquerque", "State": "NM", "Zip": "87114", "AddressLine1": "9401 Coors Blvd NW", "AddressLine2": "", "Distance": 12.5, "Latitude": 35.18716, "Longitude": -106.66252}, {"Sequence": 73, "PersonId": 36483, "AddressId": 1376988, "Specialty": "General Practice", "Photo": "findadentist.ada.org/Images/Profile/36483-Dr-Thomas-Hesch.png", "Name": "Dr Thomas E Hesch", "Email": "albuquerquewest@mountaindental.com", "Phone": "(505) 836-1280", "Address": "3740 Coors Blvd NW Ste A Albuquerque, NM 87120-4762", "City": "Albuquerque", "State": "NM", "Zip": "87120-4762", "AddressLine1": "3740 Coors Blvd NW Ste A", "AddressLine2": "", "Distance": 9.3, "Latitude": 35.12493, "Longitude": -106.70105}, {"Sequence": 74, "PersonId": 36631, "AddressId": 1377136, "Specialty": "Orthodontics and Dentofacial Orthopedics", "Photo": "findadentist.ada.org/Images/Profile/36631-Dr-Tucker-Haltom.png", "Name": "Dr Tucker Haltom", "Email": "", "Phone": "(505) 299-4458", "Address": "10433 Lagrima De Oro Rd NE Albuquerque, NM 87111-3727", "City": "Albuquerque", "State": "NM", "Zip": "87111-3727", "AddressLine1": "10433 Lagrima De Oro Rd NE", "AddressLine2": "", "Distance": 19.4, "Latitude": 35.13234, "Longitude": -106.52238}, {"Sequence": 75, "PersonId": 255808, "AddressId": 2931832, "Specialty": "General Practice", "Photo": "findadentist.ada.org/Images/Profile/255808-Dr-Steven-Ollason.png", "Name": "Dr. Steven L Ollason", "Email": "smile@nmsmilecenter.com", "Phone": "(505) 275-1663", "Address": "10151 Montgomery Blvd Ne Bldg 3 Albuquerque, NM 87111-3670", "City": "Albuquerque", "State": "NM", "Zip": "87111-3670", "AddressLine1": "10151 Montgomery Blvd Ne Bldg 3", "AddressLine2": "", "Distance": 19.1, "Latitude": 35.13085, "Longitude": -106.52745}, {"Sequence": 76, "PersonId": 36473, "AddressId": 1376978, "Specialty": "General Practice", "Photo": "findadentist.ada.org/Images/Profile/36473-Dr-Brian-Dennis.png", "Name": "Dr Brian K Dennis", "Email": "", "Phone": null, "Address": "8400 Osuna Rd NE Ste 6A Albuquerque, NM 87111-2073", "City": "Albuquerque", "State": "NM", "Zip": "87111-2073", "AddressLine1": "8400 Osuna Rd NE Ste 6A", "AddressLine2": null, "Distance": 17.9, "Latitude": 35.13684, "Longitude": -106.55029}, {"Sequence": 77, "PersonId": 241144, "AddressId": 2746787, "Specialty": "General Practice", "Photo": "findadentist.ada.org/Images/Profile/241144-Dr-Billie-Adams.png", "Name": "Dr. Billie E Adams", "Email": "peakfamilydentistry@gmail.com", "Phone": "(505) 293-2211", "Address": "10429 Montgomery Pkwy NE Albuquerque, NM 87111-3864", "City": "Albuquerque", "State": "NM", "Zip": "87111-3864", "AddressLine1": "10429 Montgomery Pkwy NE", "AddressLine2": "", "Distance": 19.4, "Latitude": 35.1316, "Longitude": -106.52226}, {"Sequence": 78, "PersonId": 121683, "AddressId": 1462188, "Specialty": "General Practice", "Photo": "findadentist.ada.org/Images/Profile/121683-Dr-Mary-Twohig.png", "Name": "Dr. Mary R Twohig", "Email": "info@twohigdentistry.com", "Phone": "(505) 881-9767", "Address": "7441 Alameda Blvd NE Ste A Albuquerque, NM 87113-2513", "City": "Albuquerque", "State": "NM", "Zip": "87113-2513", "AddressLine1": "7441 Alameda Blvd NE Ste A", "AddressLine2": "", "Distance": 17.8, "Latitude": 35.18498, "Longitude": -106.56183}, {"Sequence": 79, "PersonId": 93472, "AddressId": 1433977, "Specialty": "General Practice", "Photo": "findadentist.ada.org/Images/Profile/93472-Dr-Felix-Madrid.png", "Name": "Dr Felix C Madrid", "Email": "info@madrid-dental.com", "Phone": "(505) 892-0111", "Address": "2345 Southern Blvd SE Ste B1 Rio Rancho, NM 87124-3761", "City": "Rio Rancho", "State": "NM", "Zip": "87124-3761", "AddressLine1": "2345 Southern Blvd SE Ste B1", "AddressLine2": "", "Distance": 13.4, "Latitude": 35.24197, "Longitude": -106.68875}, {"Sequence": 80, "PersonId": 159324, "AddressId": 2761806, "Specialty": "General Practice", "Photo": "findadentist.ada.org/Images/Profile/159324-Dr-Terry-Gomez-kroeter.png", "Name": "Dr. Terry Gomez-Kroeter", "Email": "terrygomezdds@gmail.com", "Phone": null, "Address": "6830 Montgomery Blvd NE Ste F Albuquerque, NM 87109-1455", "City": "Albuquerque", "State": "NM", "Zip": "87109-1455", "AddressLine1": "6830 Montgomery Blvd NE Ste F", "AddressLine2": "", "Distance": 16.7, "Latitude": 35.13012, "Longitude": -106.57095}, {"Sequence": 81, "PersonId": 223036, "AddressId": 3306546, "Specialty": "Oral and Maxillofacial Surgery", "Photo": "findadentist.ada.org/Images/Profile/223036-Dr-David-Collette.png", "Name": "Dr. David C Collette", "Email": "", "Phone": "(505) 294-6009", "Address": "3900 Eubank Blvd Ne Ste 12 Albuquerque, NM 87111-3427", "City": "Albuquerque", "State": "NM", "Zip": "87111-3427", "AddressLine1": "3900 Eubank Blvd Ne Ste 12", "AddressLine2": "Suite 12", "Distance": 18.8, "Latitude": 35.12746, "Longitude": -106.53289}, {"Sequence": 82, "PersonId": 36595, "AddressId": 1377100, "Specialty": "Oral and Maxillofacial Surgery", "Photo": "findadentist.ada.org/Images/Profile/36595-Dr-Stephen-Christiansen.png", "Name": "Dr Stephen H Christiansen", "Email": "office@StephenChristiansen.com", "Phone": "(505) 792-4788", "Address": "4801 McMahon Blvd NW Ste 230 Albuquerque, NM 87114-5478", "City": "Albuquerque", "State": "NM", "Zip": "87114-5478", "AddressLine1": "4801 McMahon Blvd NW Ste 230", "AddressLine2": "", "Distance": 12.4, "Latitude": 35.20763, "Longitude": -106.67867}, {"Sequence": 83, "PersonId": 153448, "AddressId": 1493953, "Specialty": "Orthodontics and Dentofacial Orthopedics", "Photo": "findadentist.ada.org/Images/Profile/153448-Dr-Darren-Haltom.png", "Name": "Dr. Darren M Haltom", "Email": "accounts@haltomorthodontics.com", "Phone": "(505) 299-4458", "Address": "10433 Lagrima De Oro Rd NE Albuquerque, NM 87111-3727", "City": "Albuquerque", "State": "NM", "Zip": "87111-3727", "AddressLine1": "10433 Lagrima De Oro Rd NE", "AddressLine2": "", "Distance": 19.4, "Latitude": 35.1323, "Longitude": -106.52245}, {"Sequence": 84, "PersonId": 377338, "AddressId": 3557132, "Specialty": "General Practice", "Photo": "findadentist.ada.org/Images/Profile/377338-Dr-Corey-Woods.png", "Name": "Dr. Corey W Woods", "Email": "rioranchoda@mydentalmail.com", "Phone": "(505) 892-8086", "Address": "4120 Barbara Loop Se Rio Rancho, NM 87124-1000", "City": "Rio Rancho", "State": "NM", "Zip": "87124-1000", "AddressLine1": "4120 Barbara Loop Se", "AddressLine2": "", "Distance": 14.6, "Latitude": 35.2348, "Longitude": -106.65425}, {"Sequence": 85, "PersonId": 36397, "AddressId": 3445477, "Specialty": "General Practice", "Photo": "findadentist.ada.org/Images/Profile/36397-Dr-Thomas-Schripsema.png", "Name": "Dr Thomas J Schripsema", "Email": "information@dukecitysmiles.com", "Phone": "(505) 296-5458", "Address": "3111 Eubank Blvd. NE Albuquerque, NM 87111", "City": "Albuquerque", "State": "NM", "Zip": "87111", "AddressLine1": "3111 Eubank Blvd. NE", "AddressLine2": "", "Distance": 18.7, "Latitude": 35.11774, "Longitude": -106.53366}, {"Sequence": 86, "PersonId": 229557, "AddressId": 3572939, "Specialty": "General Practice", "Photo": "findadentist.ada.org/Images/Profile/229557-Dr-Ryan-Sill.png", "Name": "Dr. Ryan A Sill", "Email": "", "Phone": "(505) 883-5835", "Address": "7910 Wyoming Blvd Ne Ste A Albuquerque, NM 87109-6031", "City": "Albuquerque", "State": "NM", "Zip": "87109-6031", "AddressLine1": "7910 Wyoming Blvd Ne Ste A", "AddressLine2": "Suite A", "Distance": 17.8, "Latitude": 35.17116, "Longitude": -106.55882}, {"Sequence": 87, "PersonId": 36389, "AddressId": 1376894, "Specialty": "Oral and Maxillofacial Surgery", "Photo": "findadentist.ada.org/Images/Profile/36389-Dr-Steven-Traub.png", "Name": "Dr Steven J Traub", "Email": "sjtraubdds@aol.com", "Phone": "(505) 292-8555", "Address": "8400 Osuna Rd NE Ste 6 B Albuquerque, NM 87111-2087", "City": "Albuquerque", "State": "NM", "Zip": "87111-2087", "AddressLine1": "8400 Osuna Rd NE Ste 6 B", "AddressLine2": "", "Distance": 17.9, "Latitude": 35.13636, "Longitude": -106.55018}, {"Sequence": 88, "PersonId": 36530, "AddressId": 1377035, "Specialty": "General Practice", "Photo": "findadentist.ada.org/Images/Profile/36530-Dr-Reuben-Gutierrez.png", "Name": "Dr Reuben G Gutierrez", "Email": "", "Phone": "(505) 293-3311", "Address": "8400 Osuna Rd NE Ste 1B Albuquerque, NM 87111-2068", "City": "Albuquerque", "State": "NM", "Zip": "87111-2068", "AddressLine1": "8400 Osuna Rd NE Ste 1B", "AddressLine2": "", "Distance": 17.9, "Latitude": 35.13684, "Longitude": -106.55029}, {"Sequence": 89, "PersonId": 36359, "AddressId": 3179256, "Specialty": "General Practice", "Photo": "findadentist.ada.org/Images/Profile/36359-Dr-Kenneth-Armstrong.png", "Name": "Dr Kenneth J Armstrong", "Email": "DentalCareInYourHome@gmail.com", "Phone": "(505) 615-0951", "Address": "1776 Montano Rd NW Los Ranchos, NM 87107-3245", "City": "Los Ranchos", "State": "NM", "Zip": "87107-3245", "AddressLine1": "1776 Montano Rd NW", "AddressLine2": "", "Distance": 11.6, "Latitude": 35.14111, "Longitude": -106.66278}, {"Sequence": 90, "PersonId": 36590, "AddressId": 1377095, "Specialty": "General Practice", "Photo": "findadentist.ada.org/Images/Profile/36590-Dr-Michael-Haight.png", "Name": "Dr Michael Haight", "Email": "office@parkwaydentalnm.com", "Phone": "(505) 298-7479", "Address": "10409 Montgomery Pkwy NE Ste 201 Albuquerque, NM 87111-3862", "City": "Albuquerque", "State": "NM", "Zip": "87111-3862", "AddressLine1": "10409 Montgomery Pkwy NE Ste 201", "AddressLine2": "", "Distance": 19.3, "Latitude": 35.1317, "Longitude": -106.52363}, {"Sequence": 91, "PersonId": 190727, "AddressId": 3439552, "Specialty": "General Practice", "Photo": "findadentist.ada.org/Images/Profile/190727-Dr-John-Candelaria.png", "Name": "Dr. John J Candelaria", "Email": "info@chamisahillsfamilydental.com", "Phone": "(505) 891-3190", "Address": "1105 Golf Course Rd SE Bldg A Rio Rancho, NM 87124-4733", "City": "Rio Rancho", "State": "NM", "Zip": "87124-4733", "AddressLine1": "1105 Golf Course Rd SE Bldg A", "AddressLine2": "", "Distance": 13.7, "Latitude": 35.23832, "Longitude": -106.67744}, {"Sequence": 92, "PersonId": 153401, "AddressId": 3572346, "Specialty": "General Practice", "Photo": "findadentist.ada.org/Images/Profile/153401-Dr-Eric-Myers.png", "Name": "Dr. Eric A Myers", "Email": "info@kidschoicedental.com", "Phone": "(505) 821-5437", "Address": "6211 4Th St Nw Ste 13 Albuquerque, NM 87107-5762", "City": "Albuquerque", "State": "NM", "Zip": "87107-5762", "AddressLine1": "6211 4Th St Nw Ste 13", "AddressLine2": "", "Distance": 12.8, "Latitude": 35.14612, "Longitude": -106.6423}, {"Sequence": 93, "PersonId": 218510, "AddressId": 1559015, "Specialty": "General Practice", "Photo": "findadentist.ada.org/Images/Profile/218510-Dr-Mark-Bleak.png", "Name": "Dr. Mark Bleak", "Email": "", "Phone": "(505) 292-8588", "Address": "4550 Eubank Blvd NE Ste 101 Albuquerque, NM 87111-2565", "City": "Albuquerque", "State": "NM", "Zip": "87111-2565", "AddressLine1": "4550 Eubank Blvd NE Ste 101", "AddressLine2": "", "Distance": 18.8, "Latitude": 35.13182, "Longitude": -106.5327}, {"Sequence": 94, "PersonId": 36343, "AddressId": 1376848, "Specialty": "Prosthodontics", "Photo": "findadentist.ada.org/Images/Profile/36343-Dr-Arthur-Melton.png", "Name": "Dr. Arthur B Melton", "Email": "", "Phone": "(505) 883-7744", "Address": "7520 Montgomery Blvd NE Ste D3 Albuquerque, NM 87109-1533", "City": "Albuquerque", "State": "NM", "Zip": "87109-1533", "AddressLine1": "7520 Montgomery Blvd NE Ste D3", "AddressLine2": "", "Distance": 17.2, "Latitude": 35.1298, "Longitude": -106.56059}, {"Sequence": 95, "PersonId": 211638, "AddressId": 3398175, "Specialty": "Endodontics", "Photo": "findadentist.ada.org/Images/Profile/211638-Dr-Ryan-Savage.png", "Name": "Dr. Ryan P Savage", "Email": "info@nmendo.com", "Phone": "(505) 830-3636", "Address": "10151 Montgomery Blvd NE Albuquerque, NM 87111", "City": "Albuquerque", "State": "NM", "Zip": "87111", "AddressLine1": "10151 Montgomery Blvd NE", "AddressLine2": "", "Distance": 19.1, "Latitude": 35.13108, "Longitude": -106.52722}, {"Sequence": 96, "PersonId": 194102, "AddressId": 1534607, "Specialty": "Pediatric Dentistry", "Photo": "findadentist.ada.org/Images/Profile/194102-Dr-David-Martinez.png", "Name": "Dr. David J Martinez", "Email": "akidsdentist@hotmail.com", "Phone": "(505) 314-0645", "Address": "7500 Holly Ave NE Albuquerque, NM 87113-1798", "City": "Albuquerque", "State": "NM", "Zip": "87113-1798", "AddressLine1": "7500 Holly Ave NE", "AddressLine2": "", "Distance": 17.7, "Latitude": 35.17529, "Longitude": -106.5613}, {"Sequence": 97, "PersonId": 152657, "AddressId": 2905538, "Specialty": "Endodontics", "Photo": "findadentist.ada.org/Images/Profile/152657-Dr-Stephen-Jenkins.png", "Name": "Dr. Stephen D Jenkins", "Email": "info@nmendo.com", "Phone": "(505) 830-3636", "Address": "10151 Montgomery Blvd NE Albuquerque, NM 87111-3664", "City": "Albuquerque", "State": "NM", "Zip": "87111-3664", "AddressLine1": "10151 Montgomery Blvd NE", "AddressLine2": "Suite 2B", "Distance": 19.1, "Latitude": 35.13136, "Longitude": -106.52712}, {"Sequence": 98, "PersonId": 36394, "AddressId": 2950731, "Specialty": "General Practice", "Photo": "findadentist.ada.org/Images/Profile/36394-Dr-Michael-Thompson.png", "Name": "Dr Michael R Thompson", "Email": "info@mthompsondental.com", "Phone": "(505) 884-7333", "Address": "7520 Montgomery Blvd NE Ste D-7 Albuquerque, NM 87109-1533", "City": "Albuquerque", "State": "NM", "Zip": "87109-1533", "AddressLine1": "7520 Montgomery Blvd NE Ste D-7", "AddressLine2": "", "Distance": 17.2, "Latitude": 35.1298, "Longitude": -106.56059}, {"Sequence": 99, "PersonId": 36321, "AddressId": 2708679, "Specialty": "Orthodontics and Dentofacial Orthopedics", "Photo": "findadentist.ada.org/Images/Profile/36321-Dr-David-Harnick.png", "Name": "Dr David J Harnick", "Email": "info@harnickorthodontics.com", "Phone": "(505) 323-0500", "Address": "10425 Montgomery Pkwy NE Albuquerque, NM 87111", "City": "Albuquerque", "State": "NM", "Zip": "87111", "AddressLine1": "10425 Montgomery Pkwy NE", "AddressLine2": "", "Distance": 19.3, "Latitude": 35.12997, "Longitude": -106.52475}, {"Sequence": 100, "PersonId": 159368, "AddressId": 2954875, "Specialty": "General Practice", "Photo": "findadentist.ada.org/Images/Profile/159368-Dr-Michael-Mortaji.png", "Name": "Dr. Michael Mortaji", "Email": "justforkids@abq.com", "Phone": "(505) 839-3703", "Address": "3301 Coors Blvd Nw Ste I Albuquerque, NM 87120-4720", "City": "Albuquerque", "State": "NM", "Zip": "87120-4720", "AddressLine1": "3301 Coors Blvd Nw Ste I", "AddressLine2": "", "Distance": 9.2, "Latitude": 35.12083, "Longitude": -106.70231}]