[{"Sequence": 1, "PersonId": 258804, "AddressId": 1599309, "Specialty": "General Practice", "Photo": "findadentist.ada.org/Images/Profile/258804-Dr-Juan Pocholo-Cancio.png", "Name": "Dr. Juan Pocholo B Cancio", "Email": "dexter@evetresdentalcare.com", "Phone": "(213) 765-0075", "Address": "2050 S Central Ave Los Angeles, CA 90011-1235", "City": "Los Angeles", "State": "CA", "Zip": "90011-1235", "AddressLine1": "2050 S Central Ave", "AddressLine2": "", "Distance": 1.1, "Latitude": 34.02273, "Longitude": -118.25187}, {"Sequence": 2, "PersonId": 282331, "AddressId": 1622836, "Specialty": "General Practice", "Photo": "findadentist.ada.org/Images/Profile/282331-Dr-Emily-Letran.png", "Name": "Dr Emily Letran", "Email": "LETRAN@EMILYLETRANDDS.COM", "Phone": "(626) 305-5722", "Address": "837 W Foothill Blvd Monrovia, CA 91016-1939", "City": "Monrovia", "State": "CA", "Zip": "91016-1939", "AddressLine1": "837 W Foothill Blvd", "AddressLine2": "", "Distance": 17.0, "Latitude": 34.1514, "Longitude": -118.01706}, {"Sequence": 3, "PersonId": 150889, "AddressId": 3563043, "Specialty": "Pediatric Dentistry", "Photo": "findadentist.ada.org/Images/Profile/150889-Dr-Afsaneh-Matin.png", "Name": "Dr. Afsaneh Matin", "Email": "amatindds@yahoo.com", "Phone": "(310) 545-4210", "Address": "1730 Manhattan Beach Blvd # B Manhattan Beach, CA 90266-6220", "City": "Manhattan Beach", "State": "CA", "Zip": "90266-6220", "AddressLine1": "1730 Manhattan Beach Blvd # B", "AddressLine2": "", "Distance": 10.9, "Latitude": 33.88698, "Longitude": -118.38197}, {"Sequence": 4, "PersonId": 147009, "AddressId": 1487514, "Specialty": "General Practice", "Photo": "findadentist.ada.org/Images/Profile/147009-Dr-Brian-Kar.png", "Name": "Dr. Brian M Kar", "Email": "instyledental@yahoo.com", "Phone": "(626) 287-2625", "Address": "138 N San Gabriel Blvd San Gabriel, CA 91775-2427", "City": "San Gabriel", "State": "CA", "Zip": "91775-2427", "AddressLine1": "138 N San Gabriel Blvd", "AddressLine2": "", "Distance": 11.7, "Latitude": 34.10488, "Longitude": -118.09076}, {"Sequence": 5, "PersonId": 204992, "AddressId": 1545497, "Specialty": "General Practice", "Photo": "findadentist.ada.org/Images/Profile/204992-Dr-Erick-Bartolome.png", "Name": "Dr. Erick A Bartolome", "Email": "westbeachdental@gmail.com", "Phone": "(310) 374-4500", "Address": "500 S Sepulveda Blvd Ste 102 Manhattan Beach, CA 90266-6945", "City": "Manhattan Beach", "State": "CA", "Zip": "90266-6945", "AddressLine1": "500 S Sepulveda Blvd Ste 102", "AddressLine2": null, "Distance": 12.1, "Latitude": 33.87521, "Longitude": -118.39559}, {"Sequence": 6, "PersonId": 288089, "AddressId": 2701994, "Specialty": "Orthodontics and Dentofacial Orthopedics", "Photo": "findadentist.ada.org/Images/Profile/288089-Dr-David-Sparks.png", "Name": "Dr David L Sparks", "Email": "CONTACT@SPARKORTHODONTICS.COM", "Phone": null, "Address": "5175 E Pacific Coast Hwy Ste 301 Long Beach, CA 90804-3316", "City": "Long Beach", "State": "CA", "Zip": "90804-3316", "AddressLine1": "5175 E Pacific Coast Hwy Ste 301", "AddressLine2": "", "Distance": 17.1, "Latitude": 33.78346, "Longitude": -118.13277}, {"Sequence": 7, "PersonId": 149106, "AddressId": 3012563, "Specialty": "General Practice", "Photo": "findadentist.ada.org/Images/Profile/149106-Dr-Teresa-Romero.png", "Name": "Dr. Teresa D Romero", "Email": "", "Phone": "(818) 765-6671", "Address": "6631 Laurel Canyon Blvd North Hollywood, CA 91606-1546", "City": "North Hollywood", "State": "CA", "Zip": "91606-1546", "AddressLine1": "6631 Laurel Canyon Blvd", "AddressLine2": "2nd Floor", "Distance": 15.0, "Latitude": 34.19116, "Longitude": -118.39744}, {"Sequence": 8, "PersonId": 281609, "AddressId": 3537386, "Specialty": "Orthodontics and Dentofacial Orthopedics", "Photo": "findadentist.ada.org/Images/Profile/281609-Dr-Gordon-Kilmer.png", "Name": "Dr Gordon S Kilmer", "Email": "", "Phone": "(562) 803-4224", "Address": "9474 Firestone Blvd Downey, CA 90241", "City": "Downey", "State": "CA", "Zip": "90241", "AddressLine1": "9474 Firestone Blvd", "AddressLine2": "", "Distance": 9.8, "Latitude": 33.93035, "Longitude": -118.11453}, {"Sequence": 9, "PersonId": 162122, "AddressId": 2717662, "Specialty": "Orthodontics and Dentofacial Orthopedics", "Photo": "findadentist.ada.org/Images/Profile/162122-Dr-Eric-Kardovich.png", "Name": "Dr. Eric R Kardovich", "Email": "drkbraces@drkbraces.com", "Phone": "(310) 831-0348", "Address": "1122 Crenshaw Blvd Torrance, CA 90501-2026", "City": "Torrance", "State": "CA", "Zip": "90501-2026", "AddressLine1": "1122 Crenshaw Blvd", "AddressLine2": "", "Distance": 12.5, "Latitude": 33.8367, "Longitude": -118.32844}, {"Sequence": 10, "PersonId": 161899, "AddressId": 1502404, "Specialty": "General Practice", "Photo": "findadentist.ada.org/Images/Profile/161899-Dr-Vasken-Bilemjian.png", "Name": "Dr. Vasken H Bilemjian", "Email": "", "Phone": "(626) 792-6131", "Address": "212 S El Molino Ave Pasadena, CA 91101-2906", "City": "Pasadena", "State": "CA", "Zip": "91101-2906", "AddressLine1": "212 S El Molino Ave", "AddressLine2": "", "Distance": 11.6, "Latitude": 34.14214, "Longitude": -118.13649}, {"Sequence": 11, "PersonId": 187118, "AddressId": 1527623, "Specialty": "General Practice", "Photo": "findadentist.ada.org/Images/Profile/187118-Dr-Mark-Treystman.png", "Name": "Dr. Mark S Treystman", "Email": "newcenturydentalgroup@aol.com", "Phone": "(323) 653-5484", "Address": "6333 Wilshire Blvd Ste 207 Los Angeles, CA 90048-5724", "City": "Los Angeles", "State": "CA", "Zip": "90048-5724", "AddressLine1": "6333 Wilshire Blvd Ste 207", "AddressLine2": "", "Distance": 7.3, "Latitude": 34.06385, "Longitude": -118.36638}, {"Sequence": 12, "PersonId": 223293, "AddressId": 3427945, "Specialty": "General Practice", "Photo": "findadentist.ada.org/Images/Profile/223293-Dr-Hatem-Abdelhadi.png", "Name": "Dr. Hatem B Abdelhadi", "Email": "hatem101980@yahoo.com", "Phone": "(562) 493-1421", "Address": "3532 Howard Ave. Ste.101 Los Alamitos, CA 90720", "City": "Los Alamitos", "State": "CA", "Zip": "90720", "AddressLine1": "3532 Howard Ave. Ste.101", "AddressLine2": "", "Distance": 13.0, "Latitude": 33.8293, "Longitude": -118.18956}, {"Sequence": 13, "PersonId": 282508, "AddressId": 1623013, "Specialty": "General Practice", "Photo": "findadentist.ada.org/Images/Profile/282508-Dr-Douglas-Daniels.png", "Name": "Dr Douglas S Daniels", "Email": "", "Phone": "(562) 694-3660", "Address": "640 E Whittier Blvd La Habra, CA 90631-3929", "City": "La Habra", "State": "CA", "Zip": "90631-3929", "AddressLine1": "640 E Whittier Blvd", "AddressLine2": "", "Distance": 18.9, "Latitude": 33.93873, "Longitude": -117.93915}, {"Sequence": 14, "PersonId": 151032, "AddressId": 1491537, "Specialty": "Periodontics", "Photo": "findadentist.ada.org/Images/Profile/151032-Dr-Fariba-Matinfar.png", "Name": "Dr. Fariba Matinfar", "Email": "", "Phone": "(323) 528-5153", "Address": "146 S Bedford Dr # 102A Beverly Hills, CA 90212", "City": "Beverly Hills", "State": "CA", "Zip": "90212", "AddressLine1": "146 S Bedford Dr # 102A", "AddressLine2": "", "Distance": 9.2, "Latitude": 34.0654, "Longitude": -118.40424}, {"Sequence": 15, "PersonId": 236666, "AddressId": 1577171, "Specialty": "General Practice", "Photo": "findadentist.ada.org/Images/Profile/236666-Dr-Jose Alexie-Aguil.png", "Name": "Dr. Jose Alexie Aguil", "Email": "info@exquisitedentistryla.com", "Phone": "(323) 272-2388", "Address": "6227 Wilshire Blvd Los Angeles, CA 90048-5103", "City": "Los Angeles", "State": "CA", "Zip": "90048-5103", "AddressLine1": "6227 Wilshire Blvd", "AddressLine2": "", "Distance": 7.2, "Latitude": 34.06357, "Longitude": -118.36421}, {"Sequence": 16, "PersonId": 290545, "AddressId": 3406622, "Specialty": "General Practice", "Photo": "findadentist.ada.org/Images/Profile/290545-Dr-Lynn-Watanabe.png", "Name": "Dr Lynn E Watanabe", "Email": "thedentalspa@yahoo.com", "Phone": "(310) 454-3111", "Address": "881 Alma Real Dr Ste 222 Pacific Palisades, CA 90272-5043", "City": "Pacific Palisades", "State": "CA", "Zip": "90272-5043", "AddressLine1": "881 Alma Real Dr Ste 222", "AddressLine2": "", "Distance": 15.5, "Latitude": 34.04494, "Longitude": -118.52508}, {"Sequence": 17, "PersonId": 238248, "AddressId": 1578753, "Specialty": "General Practice", "Photo": "findadentist.ada.org/Images/Profile/238248-Dr-Faye-Uy.png", "Name": "Dr. Faye Uy", "Email": "info@iSmile-dentalcare.com", "Phone": "(562) 531-7788", "Address": "128 Lakewood Center Mall Lakewood, CA 90712-2420", "City": "Lakewood", "State": "CA", "Zip": "90712-2420", "AddressLine1": "128 Lakewood Center Mall", "AddressLine2": "", "Distance": 12.8, "Latitude": 33.85067, "Longitude": -118.13925}, {"Sequence": 18, "PersonId": 257126, "AddressId": 2821016, "Specialty": "General Practice", "Photo": "findadentist.ada.org/Images/Profile/257126-Dr-Kyle-Nishimura.png", "Name": "Dr. Kyle T Nishimura", "Email": "", "Phone": "(562) 920-3400", "Address": "17832 Bellflower Blvd Bellflower, CA 90706-6614", "City": "Bellflower", "State": "CA", "Zip": "90706-6614", "AddressLine1": "17832 Bellflower Blvd", "AddressLine2": "", "Distance": 12.2, "Latitude": 33.87014, "Longitude": -118.12503}, {"Sequence": 19, "PersonId": 291217, "AddressId": 1631722, "Specialty": "General Practice", "Photo": "findadentist.ada.org/Images/Profile/291217-Dr-Joseph-Oliver.png", "Name": "Dr Joseph Oliver, Jr.", "Email": "", "Phone": "(310) 327-6060", "Address": "17625 Crenshaw Blvd Ste 200 Torrance, CA 90504-3462", "City": "Torrance", "State": "CA", "Zip": "90504-3462", "AddressLine1": "17625 Crenshaw Blvd Ste 200", "AddressLine2": null, "Distance": 10.3, "Latitude": 33.8701, "Longitude": -118.3268}, {"Sequence": 20, "PersonId": 247446, "AddressId": 2808509, "Specialty": "General Practice", "Photo": "findadentist.ada.org/Images/Profile/247446-Dr-Christopher-Strandburg.png", "Name": "Dr. Christopher P Strandburg", "Email": "info@visiondental.com", "Phone": "(931) 648-1112", "Address": "2080 Century Park E Ste 160 Los Angeles, CA 90067-2001", "City": "Los Angeles", "State": "CA", "Zip": "90067-2001", "AddressLine1": "2080 Century Park E Ste 160", "AddressLine2": "", "Distance": 9.4, "Latitude": 34.05934, "Longitude": -118.41126}, {"Sequence": 21, "PersonId": 291169, "AddressId": 2771212, "Specialty": "Periodontics", "Photo": "findadentist.ada.org/Images/Profile/291169-Dr-Gordon-Pattison.png", "Name": "Dr Gordon L Pattison", "Email": "gordonpattison@verizon.net", "Phone": "(310) 473-3800", "Address": "11859 Wilshire Blvd Ste 550 Los Angeles, CA 90025-6644", "City": "Los Angeles", "State": "CA", "Zip": "90025-6644", "AddressLine1": "11859 Wilshire Blvd Ste 550", "AddressLine2": "", "Distance": 12.1, "Latitude": 34.04738, "Longitude": -118.46401}, {"Sequence": 22, "PersonId": 291292, "AddressId": 1631797, "Specialty": "General Practice", "Photo": "findadentist.ada.org/Images/Profile/291292-Dr-Michael-Brandolino.png", "Name": "Dr Michael J Brandolino", "Email": "mbrandolinodds@yahoo.com", "Phone": "(310) 899-9432", "Address": "1234 7th St Ste 1 Santa Monica, CA 90401-1614", "City": "Santa Monica", "State": "CA", "Zip": "90401-1614", "AddressLine1": "1234 7th St Ste 1", "AddressLine2": "", "Distance": 13.6, "Latitude": 34.02047, "Longitude": -118.4949}, {"Sequence": 23, "PersonId": 279697, "AddressId": 1620202, "Specialty": "General Practice", "Photo": "findadentist.ada.org/Images/Profile/279697-Dr-Timothy-Gogan.png", "Name": "Dr Timothy C Gogan", "Email": "larchmonttim@yahoo.com", "Phone": "(323) 469-6269", "Address": "321 N Larchmont Blvd Ste 714 Los Angeles, CA 90004-6407", "City": "Los Angeles", "State": "CA", "Zip": "90004-6407", "AddressLine1": "321 N Larchmont Blvd Ste 714", "AddressLine2": null, "Distance": 6.1, "Latitude": 34.07687, "Longitude": -118.32401}, {"Sequence": 24, "PersonId": 239501, "AddressId": 2759600, "Specialty": "General Practice", "Photo": "findadentist.ada.org/Images/Profile/239501-Dr-Nancy-Lara.png", "Name": "Dr. Nancy A Lara", "Email": "info@somersetfamilydentistry.com", "Phone": null, "Address": "416 N Bedford Dr Beverly Hills, CA 90210-4322", "City": "Beverly Hills", "State": "CA", "Zip": "90210-4322", "AddressLine1": "416 N Bedford Dr", "AddressLine2": "", "Distance": 9.4, "Latitude": 34.06837, "Longitude": -118.40501}, {"Sequence": 25, "PersonId": 203784, "AddressId": 1544289, "Specialty": "Prosthodontics", "Photo": "findadentist.ada.org/Images/Profile/203784-Dr-Hamilton-Le.png", "Name": "Dr. Hamilton H Le", "Email": "INFO@YANASEDDS.COM", "Phone": "(310) 378-4244", "Address": "22330 Hawthorne Blvd Ste 316 Torrance, CA 90505-2590", "City": "Torrance", "State": "CA", "Zip": "90505-2590", "AddressLine1": "22330 Hawthorne Blvd Ste 316", "AddressLine2": "", "Distance": 13.7, "Latitude": 33.82478, "Longitude": -118.35021}, {"Sequence": 26, "PersonId": 279712, "AddressId": 2813605, "Specialty": "General Practice", "Photo": "findadentist.ada.org/Images/Profile/279712-Dr-Raymont-Johnson.png", "Name": "Dr Raymont Johnson", "Email": "Smile@raymontjohnsondds.com", "Phone": "(323) 295-6883", "Address": "3701 Stocker St Los Angeles, CA 90008-5108", "City": "Los Angeles", "State": "CA", "Zip": "90008-5108", "AddressLine1": "3701 Stocker St", "AddressLine2": "", "Distance": 4.5, "Latitude": 34.00704, "Longitude": -118.33789}, {"Sequence": 27, "PersonId": 289419, "AddressId": 2772521, "Specialty": "Pediatric Dentistry", "Photo": "findadentist.ada.org/Images/Profile/289419-Dr-Jonathan-Gidan.png", "Name": "Dr Jonathan M Gidan", "Email": "", "Phone": "(818) 506-2424", "Address": "12840 Riverside Dr Ste 508 Valley Vlg, CA 91607-3339", "City": "Valley Vlg", "State": "CA", "Zip": "91607-3339", "AddressLine1": "12840 Riverside Dr Ste 508", "AddressLine2": "", "Distance": 13.6, "Latitude": 34.15731, "Longitude": -118.41295}, {"Sequence": 28, "PersonId": 224074, "AddressId": 1564579, "Specialty": "Orthodontics and Dentofacial Orthopedics", "Photo": "findadentist.ada.org/Images/Profile/224074-Dr-Matthew-Moadel.png", "Name": "Dr. Matthew N Moadel", "Email": "", "Phone": "(310) 780-9959", "Address": "230 N Maryland Ave Ste 205 Glendale, CA 91206-4282", "City": "Glendale", "State": "CA", "Zip": "91206-4282", "AddressLine1": "230 N Maryland Ave Ste 205", "AddressLine2": "", "Distance": 9.8, "Latitude": 34.14938, "Longitude": -118.25353}, {"Sequence": 29, "PersonId": 286432, "AddressId": 2772472, "Specialty": "General Practice", "Photo": "findadentist.ada.org/Images/Profile/286432-Dr-Ana-Cariaga.png", "Name": "Dr. Ana M Cariaga", "Email": "valleydental@juno.com", "Phone": "(626) 965-7445", "Address": "17595 Almahurst St Ste 101-2 City Of Industry, CA 91748-9909", "City": "City Of Industry", "State": "CA", "Zip": "91748-9909", "AddressLine1": "17595 Almahurst St Ste 101-2", "AddressLine2": "", "Distance": 19.3, "Latitude": 33.99198, "Longitude": -117.92147}, {"Sequence": 30, "PersonId": 280525, "AddressId": 1621030, "Specialty": "General Practice", "Photo": "findadentist.ada.org/Images/Profile/280525-Dr-June-Kaneoka.png", "Name": "Dr June T Kaneoka", "Email": "OFFICE@KANEOKADENTALGROUP.COM", "Phone": "(562) 947-0304", "Address": "15725 Whittier Blvd Ste D Whittier, CA 90603-2353", "City": "Whittier", "State": "CA", "Zip": "90603-2353", "AddressLine1": "15725 Whittier Blvd Ste D", "AddressLine2": "", "Distance": 15.8, "Latitude": 33.9447, "Longitude": -117.99314}, {"Sequence": 31, "PersonId": 195937, "AddressId": 1536442, "Specialty": "General Practice", "Photo": "findadentist.ada.org/Images/Profile/195937-Dr-Stefanie-Phelps.png", "Name": "Dr. Stefanie Phelps", "Email": "drstefphelps@gmail.com", "Phone": "(310) 247-9325", "Address": "9400 Brighton Way Ste 402 Beverly Hills, CA 90210-4717", "City": "Beverly Hills", "State": "CA", "Zip": "90210-4717", "AddressLine1": "9400 Brighton Way Ste 402", "AddressLine2": "", "Distance": 9.2, "Latitude": 34.07028, "Longitude": -118.40105}, {"Sequence": 32, "PersonId": 279024, "AddressId": 2770280, "Specialty": "General Practice", "Photo": "findadentist.ada.org/Images/Profile/279024-Dr-Cheri-Lewis.png", "Name": "Dr Cheri Lewis", "Email": "stephanie@cherilewisdds.com", "Phone": "(310) 659-5480", "Address": "8500 Wilshire Blvd Ste 805 Beverly Hills, CA 90211-3106", "City": "Beverly Hills", "State": "CA", "Zip": "90211-3106", "AddressLine1": "8500 Wilshire Blvd Ste 805", "AddressLine2": "", "Distance": 7.8, "Latitude": 34.0649, "Longitude": -118.37661}, {"Sequence": 33, "PersonId": 280218, "AddressId": 1620723, "Specialty": "General Practice", "Photo": "findadentist.ada.org/Images/Profile/280218-Dr-Francisco-Ilem.png", "Name": "Dr Francisco L Ilem", "Email": "", "Phone": "(323) 464-0489", "Address": "1253 Vine St Ste 18 Los Angeles, CA 90038-1662", "City": "Los Angeles", "State": "CA", "Zip": "90038-1662", "AddressLine1": "1253 Vine St Ste 18", "AddressLine2": "", "Distance": 7.1, "Latitude": 34.09401, "Longitude": -118.32759}, {"Sequence": 34, "PersonId": 201055, "AddressId": 2722677, "Specialty": "General Practice", "Photo": "findadentist.ada.org/Images/Profile/201055-Dr-Noemi-Taguinod.png", "Name": "Dr. Noemi G Taguinod", "Email": "ntdentalcorp@gmail.com", "Phone": null, "Address": "408 S Beach Blvd Ste 113 Anaheim, CA 92804-1876", "City": "Anaheim", "State": "CA", "Zip": "92804-1876", "AddressLine1": "408 S Beach Blvd Ste 113", "AddressLine2": "", "Distance": 19.7, "Latitude": 33.8271, "Longitude": -117.99277}, {"Sequence": 35, "PersonId": 205016, "AddressId": 1545521, "Specialty": "General Practice", "Photo": "findadentist.ada.org/Images/Profile/205016-Dr-Dennis-De Mesa.png", "Name": "Dr. Dennis C De Mesa", "Email": "makandkleigerdds@yahoo.com", "Phone": "(626) 793-6175", "Address": "959 E Walnut St Ste 216 Pasadena, CA 91106-5362", "City": "Pasadena", "State": "CA", "Zip": "91106-5362", "AddressLine1": "959 E Walnut St Ste 216", "AddressLine2": null, "Distance": 12.2, "Latitude": 34.14992, "Longitude": -118.13046}, {"Sequence": 36, "PersonId": 187395, "AddressId": 3577766, "Specialty": "General Practice", "Photo": "findadentist.ada.org/Images/Profile/187395-Dr-David-Abri.png", "Name": "Dr. David Abri", "Email": "info@abridental.com", "Phone": "(818) 779-0299", "Address": "3808 W. Riverside Dr. Burbank, CA 91505", "City": "Burbank", "State": "CA", "Zip": "91505", "AddressLine1": "3808 W. Riverside Dr.", "AddressLine2": "Suite 501", "Distance": 11.0, "Latitude": 34.15233, "Longitude": -118.34106}, {"Sequence": 37, "PersonId": 134142, "AddressId": 3399227, "Specialty": "Endodontics", "Photo": "findadentist.ada.org/Images/Profile/134142-Dr-Craig-Anderson.png", "Name": "Dr. Craig W Anderson", "Email": "info@andersonendo.com", "Phone": "(310) 553-3232", "Address": "2080 Century Park E., Ste. 1710 Los Angeles, CA 90067-2020", "City": "Los Angeles", "State": "CA", "Zip": "90067-2020", "AddressLine1": "2080 Century Park E., Ste. 1710", "AddressLine2": "", "Distance": 9.4, "Latitude": 34.05934, "Longitude": -118.41126}, {"Sequence": 38, "PersonId": 211986, "AddressId": 1552491, "Specialty": "General Practice", "Photo": "findadentist.ada.org/Images/Profile/211986-Dr-Aris-Minas.png", "Name": "Dr. Aris Minas", "Email": "SMILE@CANADADENTALGROUP.COM", "Phone": "(818) 396-4884", "Address": "1528 Canada Blvd Ste 101 Glendale, CA 91208-3205", "City": "Glendale", "State": "CA", "Zip": "91208-3205", "AddressLine1": "1528 Canada Blvd Ste 101", "AddressLine2": "", "Distance": 11.3, "Latitude": 34.1693, "Longitude": -118.22882}, {"Sequence": 39, "PersonId": 344939, "AddressId": 3487898, "Specialty": "General Practice", "Photo": "findadentist.ada.org/Images/Profile/344939-Dr-Anjalee-Shah.png", "Name": "Dr. Anjalee N Shah", "Email": "", "Phone": "(310) 589-3146", "Address": "6020 Seabluff Dr Ste 5 Los Angeles, CA 90094-2211", "City": "Los Angeles", "State": "CA", "Zip": "90094-2211", "AddressLine1": "6020 Seabluff Dr Ste 5", "AddressLine2": "", "Distance": 9.7, "Latitude": 33.97361, "Longitude": -118.4221}, {"Sequence": 40, "PersonId": 279898, "AddressId": 1620403, "Specialty": "General Practice", "Photo": "findadentist.ada.org/Images/Profile/279898-Dr-David-Javdan.png", "Name": "Dr David   Javdan", "Email": "beverlyhillsdentistusa@gmail.com", "Phone": "(310) 286-7447", "Address": "1125 S Beverly Dr Ste 400 Los Angeles, CA 90035-1152", "City": "Los Angeles", "State": "CA", "Zip": "90035-1152", "AddressLine1": "1125 S Beverly Dr Ste 400", "AddressLine2": "", "Distance": 8.6, "Latitude": 34.05684, "Longitude": -118.39689}, {"Sequence": 41, "PersonId": 290428, "AddressId": 3405286, "Specialty": "General Practice", "Photo": "findadentist.ada.org/Images/Profile/290428-Dr-Gary-Herman.png", "Name": "Dr Gary N Herman", "Email": "gherman@dentistry.ucla.edu", "Phone": "(310) 206-9556", "Address": "10833 Le Conte Ave. Los Angeles, CA 90095", "City": "Los Angeles", "State": "CA", "Zip": "90095", "AddressLine1": "10833 Le Conte Ave.", "AddressLine2": "", "Distance": 14.0, "Latitude": 34.16517, "Longitude": -118.41314}, {"Sequence": 42, "PersonId": 289890, "AddressId": 1630395, "Specialty": "General Practice", "Photo": "findadentist.ada.org/Images/Profile/289890-Dr-Richard-Chew.png", "Name": "Dr Richard Chew", "Email": "", "Phone": "(818) 344-0255", "Address": "18399 Ventura Blvd Ste 230 Tarzana, CA 91356-6406", "City": "Tarzana", "State": "CA", "Zip": "91356-6406", "AddressLine1": "18399 Ventura Blvd Ste 230", "AddressLine2": "", "Distance": 19.3, "Latitude": 34.16904, "Longitude": -118.53328}, {"Sequence": 43, "PersonId": 232494, "AddressId": 2814644, "Specialty": "Endodontics", "Photo": "findadentist.ada.org/Images/Profile/232494-Dr-Nicole-Barkhordar.png", "Name": "Dr. Nicole S Barkhordar", "Email": "bhspecialtydental@gmail.com", "Phone": "(310) 278-3666", "Address": "9301 Wilshire Blvd Ste 407 Beverly Hills, CA 90210-6141", "City": "Beverly Hills", "State": "CA", "Zip": "90210-6141", "AddressLine1": "9301 Wilshire Blvd Ste 407", "AddressLine2": "", "Distance": 8.8, "Latitude": 34.06739, "Longitude": -118.39468}, {"Sequence": 44, "PersonId": 167538, "AddressId": 2792235, "Specialty": "Periodontics", "Photo": "findadentist.ada.org/Images/Profile/167538-Dr-Hessam-Nowzari.png", "Name": "Dr. Hessam Nowzari", "Email": "NOWZARI.FRONTOFFICE@GMAIL.COM", "Phone": "(810) 274-0809", "Address": "120 S Spalding Dr Ste 201 Beverly Hills, CA 90212-1840", "City": "Beverly Hills", "State": "CA", "Zip": "90212-1840", "AddressLine1": "120 S Spalding Dr Ste 201", "AddressLine2": "", "Distance": 9.5, "Latitude": 34.06621, "Longitude": -118.40859}, {"Sequence": 45, "PersonId": 146377, "AddressId": 2687064, "Specialty": "Oral and Maxillofacial Surgery", "Photo": "findadentist.ada.org/Images/Profile/146377-Dr-Rennie-Cheung.png", "Name": "Dr. Rennie Cheung", "Email": "", "Phone": "(310) 670-0220", "Address": "6240 W Manchester Ave Los Angeles, CA 90045-3801", "City": "Los Angeles", "State": "CA", "Zip": "90045-3801", "AddressLine1": "6240 W Manchester Ave", "AddressLine2": "", "Distance": 8.5, "Latitude": 33.95953, "Longitude": -118.39471}, {"Sequence": 46, "PersonId": 290561, "AddressId": 2772582, "Specialty": "General Practice", "Photo": "findadentist.ada.org/Images/Profile/290561-Dr-Angela-Ayzin.png", "Name": "Dr. Angela A Ayzin", "Email": "angelaayzindds@yahoo.com", "Phone": "(818) 240-5800", "Address": "815 S Central Ave Ste 10 Glendale, CA 91204-2079", "City": "Glendale", "State": "CA", "Zip": "91204-2079", "AddressLine1": "815 S Central Ave Ste 10", "AddressLine2": "", "Distance": 8.9, "Latitude": 34.13607, "Longitude": -118.25828}, {"Sequence": 47, "PersonId": 259123, "AddressId": 1599628, "Specialty": "General Practice", "Photo": "findadentist.ada.org/Images/Profile/259123-Dr-Mercedes-Arroyo.png", "Name": "Dr. Mercedes Arroyo", "Email": "INFO@PATRICIAARROYODDS.COM", "Phone": "(818) 988-7067", "Address": "14435 Hamlin St Ste 208 Van Nuys, CA 91401-6205", "City": "Van Nuys", "State": "CA", "Zip": "91401-6205", "AddressLine1": "14435 Hamlin St Ste 208", "AddressLine2": "", "Distance": 16.5, "Latitude": 34.18899, "Longitude": -118.44768}, {"Sequence": 48, "PersonId": 192237, "AddressId": 1532742, "Specialty": "General Practice", "Photo": "findadentist.ada.org/Images/Profile/192237-Dr-Girivinothan-Palaniswamy.png", "Name": "Dr. Girivinothan Palaniswamy", "Email": "gpdds@msn.com", "Phone": "(310) 547-1128", "Address": "28358 S Western Ave Rancho Palos Verdes, CA 90275-1434", "City": "Rancho Palos Verdes", "State": "CA", "Zip": "90275-1434", "AddressLine1": "28358 S Western Ave", "AddressLine2": "", "Distance": 17.3, "Latitude": 33.76186, "Longitude": -118.31187}, {"Sequence": 49, "PersonId": 230199, "AddressId": 1570704, "Specialty": "General Practice", "Photo": "findadentist.ada.org/Images/Profile/230199-Dr-Lousine-Kirakosian.png", "Name": "Dr. Lousine V Kirakosian", "Email": "Info@newlookdentalinc.com", "Phone": "(818) 334-3692", "Address": "125 E. Glenoaks Blvd, Suite 103 Glendale, CA 91207-2131", "City": "Glendale", "State": "CA", "Zip": "91207-2131", "AddressLine1": "125 E. Glenoaks Blvd, Suite 103", "AddressLine2": "", "Distance": 10.5, "Latitude": 34.15916, "Longitude": -118.25397}, {"Sequence": 50, "PersonId": 222015, "AddressId": 1562520, "Specialty": "Orthodontics and Dentofacial Orthopedics", "Photo": "findadentist.ada.org/Images/Profile/222015-Dr-Donald-Kwon.png", "Name": "Dr. Donald T Kwon", "Email": "office@kwonorthodontics.com", "Phone": "(818) 749-8880", "Address": "3700 Wilshire Blvd Ste 400 Los Angeles, CA 90010-2905", "City": "Los Angeles", "State": "CA", "Zip": "90010-2905", "AddressLine1": "3700 Wilshire Blvd Ste 400", "AddressLine2": "", "Distance": 4.6, "Latitude": 34.06055, "Longitude": -118.30723}, {"Sequence": 51, "PersonId": 279754, "AddressId": 2771182, "Specialty": "General Practice", "Photo": "findadentist.ada.org/Images/Profile/279754-Dr-Steve-Ozer.png", "Name": "Dr Steve W Ozer", "Email": "", "Phone": "(310) 545-4440", "Address": "451 Manhattan Beach Blvd Ste C232 Manhattan Beach, CA 90266-5359", "City": "Manhattan Beach", "State": "CA", "Zip": "90266-5359", "AddressLine1": "451 Manhattan Beach Blvd Ste C232", "AddressLine2": "", "Distance": 12.0, "Latitude": 33.88625, "Longitude": -118.40837}, {"Sequence": 52, "PersonId": 156182, "AddressId": 1496687, "Specialty": "General Practice", "Photo": "findadentist.ada.org/Images/Profile/156182-Dr-Soochul-Myung.png", "Name": "Dr. Soochul Myung", "Email": "downeydentalgroup@gmail.com", "Phone": "(562) 803-3333", "Address": "8102 3rd St Downey, CA 90241-3604", "City": "Downey", "State": "CA", "Zip": "90241-3604", "AddressLine1": "8102 3rd St", "AddressLine2": "", "Distance": 8.3, "Latitude": 33.94344, "Longitude": -118.1353}, {"Sequence": 53, "PersonId": 145034, "AddressId": 1485539, "Specialty": "Orthodontics and Dentofacial Orthopedics", "Photo": "findadentist.ada.org/Images/Profile/145034-Dr-Michaela-Neagu.png", "Name": "Dr. Michaela C Neagu", "Email": "office@embrace-ortho.com", "Phone": "(213) 927-2030", "Address": "194 S Alvarado St Los Angeles, CA 90057-2211", "City": "Los Angeles", "State": "CA", "Zip": "90057-2211", "AddressLine1": "194 S Alvarado St", "AddressLine2": "", "Distance": 4.0, "Latitude": 34.06404, "Longitude": -118.27159}, {"Sequence": 54, "PersonId": 134199, "AddressId": 2686548, "Specialty": "General Practice", "Photo": "findadentist.ada.org/Images/Profile/134199-Dr-Joon-Lee.png", "Name": "Dr. Joon Y Lee", "Email": "", "Phone": "(213) 688-2828", "Address": "104 W 17th St Los Angeles, CA 90015-3516", "City": "Los Angeles", "State": "CA", "Zip": "90015-3516", "AddressLine1": "104 W 17th St", "AddressLine2": "", "Distance": 1.8, "Latitude": 34.03309, "Longitude": -118.26368}, {"Sequence": 55, "PersonId": 280211, "AddressId": 1620716, "Specialty": "Orthodontics and Dentofacial Orthopedics", "Photo": "findadentist.ada.org/Images/Profile/280211-Dr-Mario-Paz.png", "Name": "Dr Mario E Paz", "Email": "office@invisiblebraces.com", "Phone": "(310) 822-4224", "Address": "4553 Glencoe Ave Ste 330 Marina Dl Rey, CA 90292-7918", "City": "Marina Dl Rey", "State": "CA", "Zip": "90292-7918", "AddressLine1": "4553 Glencoe Ave Ste 330", "AddressLine2": null, "Distance": 10.7, "Latitude": 33.99423, "Longitude": -118.44532}, {"Sequence": 56, "PersonId": 249881, "AddressId": 2799099, "Specialty": "Periodontics", "Photo": "findadentist.ada.org/Images/Profile/249881-Dr-Jeffrey-McCullough.png", "Name": "Dr. Jeffrey J McCullough", "Email": "", "Phone": "(714) 484-8700", "Address": "4281 Katella Ave Ste 112 Los Alamitos, CA 90720-3502", "City": "Los Alamitos", "State": "CA", "Zip": "90720-3502", "AddressLine1": "4281 Katella Ave Ste 112", "AddressLine2": "", "Distance": 18.2, "Latitude": 33.80381, "Longitude": -118.05832}, {"Sequence": 57, "PersonId": 260732, "AddressId": 3391864, "Specialty": "General Practice", "Photo": "findadentist.ada.org/Images/Profile/260732-Dr-Ryan-Fait.png", "Name": "Dr. Ryan J Fait", "Email": "", "Phone": "(562) 982-1552", "Address": "2700 N BELLFLOWER BLVD LONG BEACH, CA 90815", "City": "LONG BEACH", "State": "CA", "Zip": "90815", "AddressLine1": "2700 N BELLFLOWER BLVD", "AddressLine2": "SUITE 206", "Distance": 15.9, "Latitude": 33.80569, "Longitude": -118.12475}, {"Sequence": 58, "PersonId": 260169, "AddressId": 2776389, "Specialty": "General Practice", "Photo": "findadentist.ada.org/Images/Profile/260169-Dr-Min Hee-Oh.png", "Name": "Min Hee Oh", "Email": "hello@avenue.dental", "Phone": "(213) 419-5500", "Address": "10390 Santa Monica Blvd Ste 330 Los Angeles, CA 90025-5091", "City": "Los Angeles", "State": "CA", "Zip": "90025-5091", "AddressLine1": "10390 Santa Monica Blvd Ste 330", "AddressLine2": "", "Distance": 10.0, "Latitude": 34.05735, "Longitude": -118.42341}, {"Sequence": 59, "PersonId": 279599, "AddressId": 1620104, "Specialty": "General Practice", "Photo": "findadentist.ada.org/Images/Profile/279599-Dr-Joel-Reims.png", "Name": "Dr Joel Reims", "Email": "", "Phone": "(310) 859-8731", "Address": "9201 W Sunset Blvd Ste 815 Los Angeles, CA 90069-3709", "City": "Los Angeles", "State": "CA", "Zip": "90069-3709", "AddressLine1": "9201 W Sunset Blvd Ste 815", "AddressLine2": "", "Distance": 9.6, "Latitude": 34.09086, "Longitude": -118.39264}, {"Sequence": 60, "PersonId": 198594, "AddressId": 2855404, "Specialty": "General Practice", "Photo": "findadentist.ada.org/Images/Profile/198594-Dr-Kelly-Hong.png", "Name": "Dr. Kelly E Hong", "Email": "drkellysmile2080@gmail.com", "Phone": "(760) 242-2338", "Address": "12120 RIDGECREST RD VICTORVILLE, CA 92395", "City": "VICTORVILLE", "State": "CA", "Zip": "92395", "AddressLine1": "12120 RIDGECREST RD", "AddressLine2": "STE 203", "Distance": 9.4, "Latitude": 34.05935, "Longitude": -118.4112}, {"Sequence": 61, "PersonId": 111091, "AddressId": 1451596, "Specialty": "General Practice", "Photo": "findadentist.ada.org/Images/Profile/111091-Dr-Mylene-Nguyen.png", "Name": "Dr. Mylene Nguyen", "Email": "mylenedds@yahoo.com", "Phone": "(818) 842-4879", "Address": "3808 W. Riverside Dr., Suite 508 Burbank, CA 91505-5301", "City": "Burbank", "State": "CA", "Zip": "91505-5301", "AddressLine1": "3808 W. Riverside Dr., Suite 508", "AddressLine2": "", "Distance": 12.1, "Latitude": 34.17108, "Longitude": -118.3373}, {"Sequence": 62, "PersonId": 134441, "AddressId": 2792709, "Specialty": "General Practice", "Photo": "findadentist.ada.org/Images/Profile/134441-Dr-Cheryl-Goldasich.png", "Name": "Dr. Cheryl D Goldasich", "Email": "cheryl@cherylgoldasichdds.com", "Phone": "(213) 740-2805", "Address": "925 W 34th St Los Angeles, CA 90089-0058", "City": "Los Angeles", "State": "CA", "Zip": "90089-0058", "AddressLine1": "925 W 34th St", "AddressLine2": "", "Distance": 1.9, "Latitude": 34.02405, "Longitude": -118.28633}, {"Sequence": 63, "PersonId": 276228, "AddressId": 2793830, "Specialty": "Orthodontics and Dentofacial Orthopedics", "Photo": "findadentist.ada.org/Images/Profile/276228-Dr-Christopher-Hydo.png", "Name": "Dr Christopher S Hydo", "Email": "orthodonics@greatsmiles.org", "Phone": null, "Address": "925 W 34th St Los Angeles, CA 90089-0058", "City": "Los Angeles", "State": "CA", "Zip": "90089-0058", "AddressLine1": "925 W 34th St", "AddressLine2": "", "Distance": 1.9, "Latitude": 34.02405, "Longitude": -118.28633}, {"Sequence": 64, "PersonId": 134389, "AddressId": 3418506, "Specialty": "General Practice", "Photo": "findadentist.ada.org/Images/Profile/134389-Dr-Jennifer-Herbert.png", "Name": "Dr. Jennifer C Herbert", "Email": "MONROVIA@PACDEN.COM", "Phone": "(626) 358-3636", "Address": "460 W Huntington Dr Monrovia, CA 91016-3202", "City": "Monrovia", "State": "CA", "Zip": "91016-3202", "AddressLine1": "460 W Huntington Dr", "AddressLine2": "", "Distance": 16.9, "Latitude": 34.13947, "Longitude": -118.00861}, {"Sequence": 65, "PersonId": 291238, "AddressId": 3442872, "Specialty": "General Practice", "Photo": "findadentist.ada.org/Images/Profile/291238-Dr-Warren-Tofukuji.png", "Name": "Dr Warren Tofukuji", "Email": "info@tofukujidds.com", "Phone": "(310) 378-4244", "Address": "22330 Hawthorne Blvd Ste 316 Torrance, CA 90505-2590", "City": "Torrance", "State": "CA", "Zip": "90505-2590", "AddressLine1": "22330 Hawthorne Blvd Ste 316", "AddressLine2": "", "Distance": 13.7, "Latitude": 33.82478, "Longitude": -118.35021}, {"Sequence": 66, "PersonId": 280133, "AddressId": 2770315, "Specialty": "Periodontics", "Photo": "findadentist.ada.org/Images/Profile/280133-Dr-Alexander-Farnoosh.png", "Name": "Dr. Alexander A Farnoosh", "Email": "", "Phone": "(310) 657-0503", "Address": "8920 Wilshire Blvd Ste 517 Beverly Hills, CA 90211-1949", "City": "Beverly Hills", "State": "CA", "Zip": "90211-1949", "AddressLine1": "8920 Wilshire Blvd Ste 517", "AddressLine2": "", "Distance": 8.4, "Latitude": 34.06666, "Longitude": -118.38624}, {"Sequence": 67, "PersonId": 280245, "AddressId": 2708500, "Specialty": "General Practice", "Photo": "findadentist.ada.org/Images/Profile/280245-Dr-Min-Lwin.png", "Name": "Dr Min Lwin", "Email": "", "Phone": "(626) 571-7000", "Address": "8115 Garvey Ave Rosemead, CA 91770-2422", "City": "Rosemead", "State": "CA", "Zip": "91770-2422", "AddressLine1": "8115 Garvey Ave", "AddressLine2": "", "Distance": 10.3, "Latitude": 34.0627, "Longitude": -118.09176}, {"Sequence": 68, "PersonId": 291582, "AddressId": 1632087, "Specialty": "Periodontics", "Photo": "findadentist.ada.org/Images/Profile/291582-Dr-Robert-Jones.png", "Name": "Dr Robert M Jones", "Email": "info@wcdental.com", "Phone": "(310) 395-0929", "Address": "2118 Wilshire Blvd # 256 Santa Monica, CA 90403-5704", "City": "Santa Monica", "State": "CA", "Zip": "90403-5704", "AddressLine1": "2118 Wilshire Blvd # 256", "AddressLine2": null, "Distance": 12.9, "Latitude": 34.03237, "Longitude": -118.48165}, {"Sequence": 69, "PersonId": 291201, "AddressId": 1631706, "Specialty": "Endodontics", "Photo": "findadentist.ada.org/Images/Profile/291201-Dr-Barry-Weichman.png", "Name": "Dr. Barry D Weichman", "Email": "dentaloffice@drjaydds.com", "Phone": "(310) 820-0123", "Address": "11980 San Vicente Blvd Ste 507 Los Angeles, CA 90049-6603", "City": "Los Angeles", "State": "CA", "Zip": "90049-6603", "AddressLine1": "11980 San Vicente Blvd Ste 507", "AddressLine2": null, "Distance": 12.6, "Latitude": 34.05194, "Longitude": -118.47212}, {"Sequence": 70, "PersonId": 291218, "AddressId": 1631723, "Specialty": "General Practice", "Photo": "findadentist.ada.org/Images/Profile/291218-Dr-Charles-Wood.png", "Name": "Dr Charles C Wood", "Email": "", "Phone": "(310) 451-5563", "Address": "620 Montana Ave Santa Monica, CA 90403-1402", "City": "Santa Monica", "State": "CA", "Zip": "90403-1402", "AddressLine1": "620 Montana Ave", "AddressLine2": "", "Distance": 14.0, "Latitude": 34.02641, "Longitude": -118.50205}, {"Sequence": 71, "PersonId": 150413, "AddressId": 1490918, "Specialty": "Pediatric Dentistry", "Photo": "findadentist.ada.org/Images/Profile/150413-Dr-Mary-Shannon.png", "Name": "Dr. Mary V Shannon", "Email": "mary22shannon@yahoo.com", "Phone": "(310) 998-8999", "Address": "11980 San Vicente Blvd Ste 906 Los Angeles, CA 90049-6607", "City": "Los Angeles", "State": "CA", "Zip": "90049-6607", "AddressLine1": "11980 San Vicente Blvd Ste 906", "AddressLine2": null, "Distance": 12.6, "Latitude": 34.05194, "Longitude": -118.47212}, {"Sequence": 72, "PersonId": 384581, "AddressId": 3496428, "Specialty": "General Practice", "Photo": "findadentist.ada.org/Images/Profile/384581-Dr-Bella-Mnatsakanyan.png", "Name": "Dr. Bella Mnatsakanyan", "Email": "", "Phone": "(818) 240-0051", "Address": "1160 N Central Ave Ste 211 Glendale, CA 91202-3079", "City": "Glendale", "State": "CA", "Zip": "91202-3079", "AddressLine1": "1160 N Central Ave Ste 211", "AddressLine2": "", "Distance": 10.8, "Latitude": 34.16354, "Longitude": -118.25672}, {"Sequence": 73, "PersonId": 279793, "AddressId": 1620298, "Specialty": "General Practice", "Photo": "findadentist.ada.org/Images/Profile/279793-Dr-danny-shiri.png", "Name": "Dr danny shiri", "Email": "dannyshiridds1@gmail.com", "Phone": "(323) 935-9102", "Address": "6310 San Vicente Blvd Ste 295 Los Angeles, CA 90048-5454", "City": "Los Angeles", "State": "CA", "Zip": "90048-5454", "AddressLine1": "6310 San Vicente Blvd Ste 295", "AddressLine2": "", "Distance": 7.2, "Latitude": 34.06128, "Longitude": -118.36742}, {"Sequence": 74, "PersonId": 291187, "AddressId": 2792401, "Specialty": "Pediatric Dentistry", "Photo": "findadentist.ada.org/Images/Profile/291187-Dr-Frank-Enriquez.png", "Name": "Frank J. Enriquez, D.D.S.", "Email": "", "Phone": "(310) 378-1283", "Address": "23727 Hawthorne Blvd, Suite 4B Torrance, CA 90505", "City": "Torrance", "State": "CA", "Zip": "90505", "AddressLine1": "23727 Hawthorne Blvd, Suite 4B", "AddressLine2": "", "Distance": 1.9, "Latitude": 34.02405, "Longitude": -118.28633}, {"Sequence": 75, "PersonId": 290758, "AddressId": 2792399, "Specialty": "Periodontics", "Photo": "findadentist.ada.org/Images/Profile/290758-Dr-Gerald-Drury.png", "Name": "Dr Gerald I Drury", "Email": "", "Phone": "(310) 376-9884", "Address": "1100 pacific coast hwy Hermosa Beach, CA 90254", "City": "Hermosa Beach", "State": "CA", "Zip": "90254", "AddressLine1": "1100 pacific coast hwy", "AddressLine2": "suite f", "Distance": 1.9, "Latitude": 34.02405, "Longitude": -118.28633}, {"Sequence": 76, "PersonId": 211917, "AddressId": 2754206, "Specialty": "Orthodontics and Dentofacial Orthopedics", "Photo": "findadentist.ada.org/Images/Profile/211917-Dr-Kiavash-Badii.png", "Name": "Dr. Kiavash K Badii", "Email": "", "Phone": "(562) 402-9299", "Address": "11351 183rd St Cerritos, CA 90703-5434", "City": "Cerritos", "State": "CA", "Zip": "90703-5434", "AddressLine1": "11351 183rd St", "AddressLine2": "", "Distance": 13.7, "Latitude": 33.86618, "Longitude": -118.09217}, {"Sequence": 77, "PersonId": 207497, "AddressId": 1548002, "Specialty": "General Practice", "Photo": "findadentist.ada.org/Images/Profile/207497-Dr-Emerenciana-Gabriel.png", "Name": "Dr. Emerenciana G Gabriel", "Email": "EGABRIELDMDINC@YAHOO.COM", "Phone": "(562) 624-0990", "Address": "615 E Broadway Ste 102 Long Beach, CA 90802-5169", "City": "Long Beach", "State": "CA", "Zip": "90802-5169", "AddressLine1": "615 E Broadway Ste 102", "AddressLine2": null, "Distance": 17.0, "Latitude": 33.76953, "Longitude": -118.18452}, {"Sequence": 78, "PersonId": 290822, "AddressId": 1631327, "Specialty": "General Practice", "Photo": "findadentist.ada.org/Images/Profile/290822-Dr-Norton-Donner.png", "Name": "Dr Norton L Donner", "Email": "info@rollinghillsdental.com", "Phone": "(310) 377-0966", "Address": "857 Silver Spur Rd Rolling Hills Estates, CA 90274-3803", "City": "Rolling Hills Estates", "State": "CA", "Zip": "90274-3803", "AddressLine1": "857 Silver Spur Rd", "AddressLine2": "", "Distance": 17.6, "Latitude": 33.77006, "Longitude": -118.36719}, {"Sequence": 79, "PersonId": 197898, "AddressId": 1538403, "Specialty": "General Practice", "Photo": "findadentist.ada.org/Images/Profile/197898-Dr-Gloriana-Villago.png", "Name": "Dr. Gloriana C Villago", "Email": "eaglerocksmile@att.net", "Phone": "(323) 258-3333", "Address": "4863 Eagle Rock Blvd Los Angeles, CA 90041-2631", "City": "Los Angeles", "State": "CA", "Zip": "90041-2631", "AddressLine1": "4863 Eagle Rock Blvd", "AddressLine2": "", "Distance": 9.1, "Latitude": 34.13415, "Longitude": -118.21582}, {"Sequence": 80, "PersonId": 291776, "AddressId": 1632281, "Specialty": "Prosthodontics", "Photo": "findadentist.ada.org/Images/Profile/291776-Dr-Bryan-Baker.png", "Name": "Dr Bryan S. Baker", "Email": "info@southbaydentalsolutions.com", "Phone": "(310) 545-5910", "Address": "1213 Manhattan Ave Manhattan Beach, CA 90266-4749", "City": "Manhattan Beach", "State": "CA", "Zip": "90266-4749", "AddressLine1": "1213 Manhattan Ave", "AddressLine2": "", "Distance": 12.2, "Latitude": 33.88573, "Longitude": -118.41148}, {"Sequence": 81, "PersonId": 291321, "AddressId": 3408907, "Specialty": "Oral and Maxillofacial Surgery", "Photo": "findadentist.ada.org/Images/Profile/291321-Dr-Jeffrey-Donlevy.png", "Name": "Dr Jeffrey L Donlevy", "Email": "CC@OMSURGERY.COM", "Phone": "(310) 318-3333", "Address": "1072 Aviation Blvd Hermosa Beach, CA 90254", "City": "Hermosa Beach", "State": "CA", "Zip": "90254", "AddressLine1": "1072 Aviation Blvd", "AddressLine2": "", "Distance": 12.4, "Latitude": 33.86405, "Longitude": -118.38806}, {"Sequence": 82, "PersonId": 289905, "AddressId": 2772543, "Specialty": "General Practice", "Photo": "findadentist.ada.org/Images/Profile/289905-Dr-Bruce-Lilly.png", "Name": "Bruce W. Lilly DDS", "Email": "", "Phone": "(818) 846-2854", "Address": "303 S Glenoaks Blvd Ste 12 Burbank, CA 91502-1184", "City": "Burbank", "State": "CA", "Zip": "91502-1184", "AddressLine1": "303 S Glenoaks Blvd Ste 12", "AddressLine2": "", "Distance": 12.3, "Latitude": 34.18141, "Longitude": -118.30426}, {"Sequence": 83, "PersonId": 153887, "AddressId": 1494392, "Specialty": "Orthodontics and Dentofacial Orthopedics", "Photo": "findadentist.ada.org/Images/Profile/153887-Dr-David-Alpan.png", "Name": "Dr. David I Alpan", "Email": "", "Phone": "(213) 382-8228", "Address": "2424 W 3rd Street Los Angeles, CA 90057-1908", "City": "Los Angeles", "State": "CA", "Zip": "90057-1908", "AddressLine1": "2424 W 3rd Street", "AddressLine2": "", "Distance": 4.1, "Latitude": 34.0647, "Longitude": -118.27646}, {"Sequence": 84, "PersonId": 279696, "AddressId": 1620201, "Specialty": "Endodontics", "Photo": "findadentist.ada.org/Images/Profile/279696-Dr-Leonard-Feld.png", "Name": "Dr Leonard J Feld", "Email": "sedentalgroup@pacbell.net", "Phone": "(323) 771-7777", "Address": "4332 Slauson Ave Maywood, CA 90270-2800", "City": "Maywood", "State": "CA", "Zip": "90270-2800", "AddressLine1": "4332 Slauson Ave", "AddressLine2": "", "Distance": 4.2, "Latitude": 33.98725, "Longitude": -118.18876}, {"Sequence": 85, "PersonId": 214082, "AddressId": 2721516, "Specialty": "General Practice", "Photo": "findadentist.ada.org/Images/Profile/214082-Dr-Sarkis-Damargi.png", "Name": "Dr. Sarkis A Damargi", "Email": "", "Phone": null, "Address": "2650 Griffith Park Blvd Los Angeles, CA 90039-2520", "City": "Los Angeles", "State": "CA", "Zip": "90039-2520", "AddressLine1": "2650 Griffith Park Blvd", "AddressLine2": "Attn Dr Matulian", "Distance": 6.9, "Latitude": 34.10644, "Longitude": -118.27185}, {"Sequence": 86, "PersonId": 218910, "AddressId": 1559415, "Specialty": "Periodontics", "Photo": "findadentist.ada.org/Images/Profile/218910-Dr-Ziv-Simon.png", "Name": "Dr. Ziv Simon", "Email": "BHPERIO1@AOL.COM", "Phone": "(310) 273-1900", "Address": "9400 Brighton Way Ste 311 Beverly Hills, CA 90210-4710", "City": "Beverly Hills", "State": "CA", "Zip": "90210-4710", "AddressLine1": "9400 Brighton Way Ste 311", "AddressLine2": "", "Distance": 9.2, "Latitude": 34.07028, "Longitude": -118.40105}, {"Sequence": 87, "PersonId": 216411, "AddressId": 3498903, "Specialty": "General Practice", "Photo": "findadentist.ada.org/Images/Profile/216411-Dr-Daniel-Yacobi.png", "Name": "Dr. Daniel Yacobi", "Email": "", "Phone": "(323) 688-6757", "Address": "10842 Washington Blvd Culver City, CA 90232-3610", "City": "Culver City", "State": "CA", "Zip": "90232-3610", "AddressLine1": "10842 Washington Blvd", "AddressLine2": "", "Distance": 8.6, "Latitude": 34.01421, "Longitude": -118.408}, {"Sequence": 88, "PersonId": 289922, "AddressId": 3401478, "Specialty": "General Practice", "Photo": "findadentist.ada.org/Images/Profile/289922-Dr-Sam-Djang.png", "Name": "Dr Sam Djang", "Email": "northhillsdental@aol.com", "Phone": "(818) 891-0745", "Address": "15424 Nordhoff St North Hills, CA 91343-6951", "City": "North Hills", "State": "CA", "Zip": "91343-6951", "AddressLine1": "15424 Nordhoff St", "AddressLine2": "", "Distance": 19.8, "Latitude": 34.23555, "Longitude": -118.4687}, {"Sequence": 89, "PersonId": 222812, "AddressId": 3288940, "Specialty": "Orthodontics and Dentofacial Orthopedics", "Photo": "findadentist.ada.org/Images/Profile/222812-Dr-Krisena-Borenstein.png", "Name": "Dr. Krisena M Borenstein", "Email": "culverortho@gmail.com", "Phone": "(310) 837-5900", "Address": "10811 Washington Blvd Ste 200 Culver City, CA 90232-3624", "City": "Culver City", "State": "CA", "Zip": "90232-3624", "AddressLine1": "10811 Washington Blvd Ste 200", "AddressLine2": "", "Distance": 8.6, "Latitude": 34.01531, "Longitude": -118.40755}, {"Sequence": 90, "PersonId": 194015, "AddressId": 1534520, "Specialty": "Endodontics", "Photo": "findadentist.ada.org/Images/Profile/194015-Dr-Mindo-Lee.png", "Name": "Dr. Mindo Lee", "Email": "smile@pacifichighlandsdentistry.com", "Phone": "(213) 388-3636", "Address": "3663 W 6th St Ste 204 Los Angeles, CA 90020-3048", "City": "Los Angeles", "State": "CA", "Zip": "90020-3048", "AddressLine1": "3663 W 6th St Ste 204", "AddressLine2": "", "Distance": 4.6, "Latitude": 34.0638, "Longitude": -118.302}, {"Sequence": 91, "PersonId": 288680, "AddressId": 1629185, "Specialty": "Oral and Maxillofacial Surgery", "Photo": "findadentist.ada.org/Images/Profile/288680-Dr-Henry-Lo.png", "Name": "Dr Henry H Lo", "Email": "info@northridgedentalgroup.com", "Phone": "(323) 653-9440", "Address": "6360 Wilshire Blvd Ste 403 Los Angeles, CA 90048-5606", "City": "Los Angeles", "State": "CA", "Zip": "90048-5606", "AddressLine1": "6360 Wilshire Blvd Ste 403", "AddressLine2": "", "Distance": 7.3, "Latitude": 34.06343, "Longitude": -118.36773}, {"Sequence": 92, "PersonId": 133198, "AddressId": 1473703, "Specialty": "Prosthodontics", "Photo": "findadentist.ada.org/Images/Profile/133198-Dr-Rozita-Nosratabadi.png", "Name": "Dr. Rozita Nosratabadi", "Email": "", "Phone": "(310) 645-8555", "Address": "8540 S Sepulveda Blvd Ste 705 Los Angeles, CA 90045-3828", "City": "Los Angeles", "State": "CA", "Zip": "90045-3828", "AddressLine1": "8540 S Sepulveda Blvd Ste 705", "AddressLine2": "", "Distance": 8.5, "Latitude": 33.96022, "Longitude": -118.39568}, {"Sequence": 93, "PersonId": 197048, "AddressId": 1537553, "Specialty": "Pediatric Dentistry", "Photo": "findadentist.ada.org/Images/Profile/197048-Dr-Jill-Shang.png", "Name": "Dr. Jill C Shang", "Email": "", "Phone": "(310) 377-4551", "Address": "550 Deep Valley Dr Ste 345 Rolling Hills Estates, CA 90274-7603", "City": "Rolling Hills Estates", "State": "CA", "Zip": "90274-7603", "AddressLine1": "550 Deep Valley Dr Ste 345", "AddressLine2": "", "Distance": 17.6, "Latitude": 33.77213, "Longitude": -118.37336}, {"Sequence": 94, "PersonId": 289123, "AddressId": 1629628, "Specialty": "General Practice", "Photo": "findadentist.ada.org/Images/Profile/289123-Dr-Ronald-Nichols.png", "Name": "Dr Ronald W Nichols", "Email": "drronnichols@verizon.net", "Phone": "(626) 912-9394", "Address": "1850 S Azusa Ave Ste 108 Hacienda Hts, CA 91745-6827", "City": "Hacienda Hts", "State": "CA", "Zip": "91745-6827", "AddressLine1": "1850 S Azusa Ave Ste 108", "AddressLine2": "", "Distance": 18.7, "Latitude": 33.98885, "Longitude": -117.93202}, {"Sequence": 95, "PersonId": 280887, "AddressId": 1621392, "Specialty": "Orthodontics and Dentofacial Orthopedics", "Photo": "findadentist.ada.org/Images/Profile/280887-Dr-Vickie-Greenberg.png", "Name": "Dr Vickie S Greenberg", "Email": "vickiegreenbergdds@hotmail.com", "Phone": "(626) 798-7645", "Address": "2035 Lake Ave Altadena, CA 91001-2444", "City": "Altadena", "State": "CA", "Zip": "91001-2444", "AddressLine1": "2035 Lake Ave", "AddressLine2": "", "Distance": 14.0, "Latitude": 34.18087, "Longitude": -118.13204}, {"Sequence": 96, "PersonId": 227274, "AddressId": 3279048, "Specialty": "General Practice", "Photo": "findadentist.ada.org/Images/Profile/227274-Dr-Shaun-Flynn.png", "Name": "Dr. Shaun G Flynn", "Email": "", "Phone": "(818) 456-7620", "Address": "450 N Roxbury Dr Ste 222 Beverly Hills, CA 90210-4216", "City": "Beverly Hills", "State": "CA", "Zip": "90210-4216", "AddressLine1": "450 N Roxbury Dr Ste 222", "AddressLine2": "#222", "Distance": 9.5, "Latitude": 34.06821, "Longitude": -118.40673}, {"Sequence": 97, "PersonId": 288002, "AddressId": 1628507, "Specialty": "General Practice", "Photo": "findadentist.ada.org/Images/Profile/288002-Dr-Raymond-Mangigian.png", "Name": "Dr Raymond J Mangigian", "Email": "rmangigiandds@verizon.net", "Phone": "(562) 429-2459", "Address": "4854 Bellflower Blvd Lakewood, CA 90713-2306", "City": "Lakewood", "State": "CA", "Zip": "90713-2306", "AddressLine1": "4854 Bellflower Blvd", "AddressLine2": "", "Distance": 13.5, "Latitude": 33.8464, "Longitude": -118.12483}, {"Sequence": 98, "PersonId": 211963, "AddressId": 2759345, "Specialty": "Orthodontics and Dentofacial Orthopedics", "Photo": "findadentist.ada.org/Images/Profile/211963-Dr-Doil-Kim.png", "Name": "Dr. Doil Kim", "Email": "info@enhancedentist.com", "Phone": "(213) 383-2080", "Address": "3663 W 6th St Ste 207 Los Angeles, CA 90020-3048", "City": "Los Angeles", "State": "CA", "Zip": "90020-3048", "AddressLine1": "3663 W 6th St Ste 207", "AddressLine2": "", "Distance": 4.6, "Latitude": 34.0638, "Longitude": -118.302}, {"Sequence": 99, "PersonId": 205046, "AddressId": 1545551, "Specialty": "General Practice", "Photo": "findadentist.ada.org/Images/Profile/205046-Dr-Mark-Kim.png", "Name": "Dr. Mark Kim", "Email": "smile@sunshinedentaltorrance.com", "Phone": "(310) 378-2400", "Address": "24422 Hawthorne Blvd Ste A Torrance, CA 90505-6581", "City": "Torrance", "State": "CA", "Zip": "90505-6581", "AddressLine1": "24422 Hawthorne Blvd Ste A", "AddressLine2": "", "Distance": 15.2, "Latitude": 33.80098, "Longitude": -118.35065}, {"Sequence": 100, "PersonId": 286927, "AddressId": 1627432, "Specialty": "General Practice", "Photo": "findadentist.ada.org/Images/Profile/ADA.png", "Name": "Dr Joon S Yoo", "Email": "", "Phone": "(323) 233-3311", "Address": "4373 S Central Ave Los Angeles, CA 90011-3526", "City": "Los Angeles", "State": "CA", "Zip": "90011-3526", "AddressLine1": "4373 S Central Ave", "AddressLine2": "", "Distance": 0.3, "Latitude": 34.00409, "Longitude": -118.25673}]