[{"Sequence": 1, "PersonId": 224934, "AddressId": 1565439, "Specialty": "General Practice", "Photo": "findadentist.ada.org/Images/Profile/224934-Dr-Mohammad-Ahmadi.png", "Name": "Dr. Mohammad Ahmadi", "Email": "fastfood86m@yahoo.com", "Phone": "(323) 312-0500", "Address": "4203 Gage Ave Bell, CA 90201-1212", "City": "Bell", "State": "CA", "Zip": "90201-1212", "AddressLine1": "4203 Gage Ave", "AddressLine2": "", "Distance": 1.2, "Latitude": 33.97893, "Longitude": -118.19214}, {"Sequence": 2, "PersonId": 279998, "AddressId": 1620503, "Specialty": "General Practice", "Photo": "findadentist.ada.org/Images/Profile/279998-Dr-Pradip-Patel.png", "Name": "Dr Pradip D Patel", "Email": "", "Phone": "(323) 771-1706", "Address": "7501 Atlantic Ave Ste C Cudahy, CA 90201-6804", "City": "Cudahy", "State": "CA", "Zip": "90201-6804", "AddressLine1": "7501 Atlantic Ave Ste C", "AddressLine2": null, "Distance": 0.6, "Latitude": 33.9678, "Longitude": -118.18782}, {"Sequence": 3, "PersonId": 217910, "AddressId": 3568148, "Specialty": "General Practice", "Photo": "findadentist.ada.org/Images/Profile/217910-Dr-Behnoud-Reyhani.png", "Name": "Dr. Behnoud Reyhani", "Email": "info@gardensdentalgroup.com", "Phone": "(562) 287-5249", "Address": "6470 Florence Ave Bell Gardens, CA 90201-4812", "City": "Bell Gardens", "State": "CA", "Zip": "90201-4812", "AddressLine1": "6470 Florence Ave", "AddressLine2": "", "Distance": 1.6, "Latitude": 33.96287, "Longitude": -118.14838}, {"Sequence": 4, "PersonId": 279860, "AddressId": 2770306, "Specialty": "General Practice", "Photo": "findadentist.ada.org/Images/Profile/279860-Dr-Ladan-Zinati.png", "Name": "Dr Ladan Zinati", "Email": "stjamesdental@yahoo.com", "Phone": "(323) 771-7254", "Address": "7607 Atlantic Ave Cudahy, CA 90201-5019", "City": "Cudahy", "State": "CA", "Zip": "90201-5019", "AddressLine1": "7607 Atlantic Ave", "AddressLine2": "", "Distance": 0.6, "Latitude": 33.96691, "Longitude": -118.18766}, {"Sequence": 5, "PersonId": 279957, "AddressId": 1620462, "Specialty": "General Practice", "Photo": "findadentist.ada.org/Images/Profile/279957-Dr-Bertha-Alarcon-Vargas.png", "Name": "Dr. Bertha O Alarcon-Vargas", "Email": "", "Phone": "(323) 560-7474", "Address": "4566 Florence Ave Ste 8 Bell, CA 90201-4347", "City": "Bell", "State": "CA", "Zip": "90201-4347", "AddressLine1": "4566 Florence Ave Ste 8", "AddressLine2": "", "Distance": 0.6, "Latitude": 33.96954, "Longitude": -118.186}, {"Sequence": 6, "PersonId": 272513, "AddressId": 1613018, "Specialty": "General Practice", "Photo": "findadentist.ada.org/Images/Profile/ADA.png", "Name": "Dr. Nayana P Desai", "Email": "", "Phone": "(323) 773-2931", "Address": "4127 Gage Ave Bell, CA 90201-1128", "City": "Bell", "State": "CA", "Zip": "90201-1128", "AddressLine1": "4127 Gage Ave", "AddressLine2": "", "Distance": 1.2, "Latitude": 33.97862, "Longitude": -118.1925}, {"Sequence": 7, "PersonId": 139101, "AddressId": 3577751, "Specialty": "General Practice", "Photo": "findadentist.ada.org/Images/Profile/ADA.png", "Name": "Dr. Jae Y Kim", "Email": "", "Phone": "(323) 773-3330", "Address": "7124 Eastern Ave Bell Gardens, CA 90201-3906", "City": "Bell Gardens", "State": "CA", "Zip": "90201-3906", "AddressLine1": "7124 Eastern Ave", "AddressLine2": "", "Distance": 0.7, "Latitude": 33.96863, "Longitude": -118.16448}, {"Sequence": 8, "PersonId": 134321, "AddressId": 2691813, "Specialty": "General Practice", "Photo": "findadentist.ada.org/Images/Profile/ADA.png", "Name": "Dr. Mojdeh Fatemi", "Email": "", "Phone": null, "Address": "6343 Atlantic Ave Ste C Bell, CA 90201-1218", "City": "Bell", "State": "CA", "Zip": "90201-1218", "AddressLine1": "6343 Atlantic Ave Ste C", "AddressLine2": "", "Distance": 1.0, "Latitude": 33.97899, "Longitude": -118.18725}, {"Sequence": 9, "PersonId": 209743, "AddressId": 1550248, "Specialty": "General Practice", "Photo": "findadentist.ada.org/Images/Profile/ADA.png", "Name": "Dr. James S Kim", "Email": "", "Phone": "(562) 477-6929", "Address": "5121 E Florence Ave Bell, CA 90201-3804", "City": "Bell", "State": "CA", "Zip": "90201-3804", "AddressLine1": "5121 E Florence Ave", "AddressLine2": "", "Distance": 0.2, "Latitude": 33.96899, "Longitude": -118.17545}, {"Sequence": 10, "PersonId": 124254, "AddressId": 2770622, "Specialty": "General Practice", "Photo": "findadentist.ada.org/Images/Profile/ADA.png", "Name": "Dr. Charles L Foster, Jr", "Email": "", "Phone": "(323) 773-1664", "Address": "7705 Atlantic Ave Ste B Cudahy, CA 90201-5073", "City": "Cudahy", "State": "CA", "Zip": "90201-5073", "AddressLine1": "7705 Atlantic Ave Ste B", "AddressLine2": "", "Distance": 0.6, "Latitude": 33.96502, "Longitude": -118.18714}, {"Sequence": 11, "PersonId": 237661, "AddressId": 3486256, "Specialty": "General Practice", "Photo": "findadentist.ada.org/Images/Profile/ADA.png", "Name": "Dr. Weoncheol Joo", "Email": "DRJOO.YEDENTAL@GMAIL.COM", "Phone": "(562) 806-3737", "Address": "6336 Florence Ave. Bell Gardens, CA 90201", "City": "Bell Gardens", "State": "CA", "Zip": "90201", "AddressLine1": "6336 Florence Ave.", "AddressLine2": "", "Distance": 1.4, "Latitude": 33.96517, "Longitude": -118.15202}, {"Sequence": 12, "PersonId": 237846, "AddressId": 2836599, "Specialty": "General Practice", "Photo": "findadentist.ada.org/Images/Profile/ADA.png", "Name": "Dr. Aileen C Luna", "Email": "", "Phone": "(323) 562-9222", "Address": "6901 Atlantic Ave Cudahy, CA 90201-3646", "City": "Cudahy", "State": "CA", "Zip": "90201-3646", "AddressLine1": "6901 Atlantic Ave", "AddressLine2": "", "Distance": 0.8, "Latitude": 33.97313, "Longitude": -118.18824}, {"Sequence": 13, "PersonId": 280176, "AddressId": 3509511, "Specialty": "General Practice", "Photo": "findadentist.ada.org/Images/Profile/ADA.png", "Name": "Dr Pravin Desai", "Email": "", "Phone": "(323) 773-2931", "Address": "4127 Gage Ave Bell, CA 90201-1128", "City": "Bell", "State": "CA", "Zip": "90201-1128", "AddressLine1": "4127 Gage Ave", "AddressLine2": "", "Distance": 1.3, "Latitude": 33.97866, "Longitude": -118.19302}]