[{"Sequence": 1, "PersonId": 149494, "AddressId": 2772047, "Specialty": "General Practice", "Photo": "findadentist.ada.org/Images/Profile/149494-Dr-Gregory-Smith.png", "Name": "Dr. Gregory Smith", "Email": "docgregsmith@gmail.com", "Phone": "(562) 868-9874", "Address": "12820 Studebaker Rd Ste 202 Norwalk, CA 90650-2582", "City": "Norwalk", "State": "CA", "Zip": "90650-2582", "AddressLine1": "12820 Studebaker Rd Ste 202", "AddressLine2": "", "Distance": 1.0, "Latitude": 33.91418, "Longitude": -118.09896}, {"Sequence": 2, "PersonId": 239827, "AddressId": 2947759, "Specialty": "General Practice", "Photo": "findadentist.ada.org/Images/Profile/239827-Dr-Ankit-Vasa.png", "Name": "Dr. Ankit J Vasa", "Email": "dentalcareofnorwalk@gmail.com", "Phone": "(562) 863-5701", "Address": "14509 PIONEER BLVD Norwalk, CA 90650", "City": "Norwalk", "State": "CA", "Zip": "90650", "AddressLine1": "14509 PIONEER BLVD", "AddressLine2": "", "Distance": 0.6, "Latitude": 33.89936, "Longitude": -118.08281}, {"Sequence": 3, "PersonId": 201055, "AddressId": 1541560, "Specialty": "General Practice", "Photo": "findadentist.ada.org/Images/Profile/201055-Dr-Noemi-Taguinod.png", "Name": "Dr. Noemi G Taguinod", "Email": "ntdentalcorp@gmail.com", "Phone": "(562) 424-3936", "Address": "15617 Studebaker Rd Ste 5 Norwalk, CA 90650-5471", "City": "Norwalk", "State": "CA", "Zip": "90650-5471", "AddressLine1": "15617 Studebaker Rd Ste 5", "AddressLine2": "", "Distance": 1.7, "Latitude": 33.88824, "Longitude": -118.10048}, {"Sequence": 4, "PersonId": 287898, "AddressId": 1628403, "Specialty": "General Practice", "Photo": "findadentist.ada.org/Images/Profile/287898-Dr-Asmath-Noor.png", "Name": "Dr. Asmath J Noor", "Email": "", "Phone": "(562) 863-8600", "Address": "11274 Firestone Blvd Norwalk, CA 90650-2288", "City": "Norwalk", "State": "CA", "Zip": "90650-2288", "AddressLine1": "11274 Firestone Blvd", "AddressLine2": "", "Distance": 0.9, "Latitude": 33.91829, "Longitude": -118.09313}, {"Sequence": 5, "PersonId": 243050, "AddressId": 2756602, "Specialty": "General Practice", "Photo": "findadentist.ada.org/Images/Profile/243050-Dr-Alvand-Zinabadi.png", "Name": "Dr. Alvand Zinabadi", "Email": "", "Phone": "(562) 864-1011", "Address": "11850 Firestone Blvd #6 Norwalk, CA 90650-2979", "City": "Norwalk", "State": "CA", "Zip": "90650-2979", "AddressLine1": "11850 Firestone Blvd #6", "AddressLine2": "", "Distance": 0.3, "Latitude": 33.91172, "Longitude": -118.08045}, {"Sequence": 6, "PersonId": 225185, "AddressId": 1565690, "Specialty": "General Practice", "Photo": "findadentist.ada.org/Images/Profile/ADA.png", "Name": "Dr. Bhavi K Shah", "Email": "", "Phone": "(562) 963-9396", "Address": "13300 San Antonio Dr Norwalk, CA 90650", "City": "Norwalk", "State": "CA", "Zip": "90650", "AddressLine1": "13300 San Antonio Dr", "AddressLine2": null, "Distance": 0.5, "Latitude": 33.91, "Longitude": -118.07506}, {"Sequence": 7, "PersonId": 229712, "AddressId": 1570217, "Specialty": "Pediatric Dentistry", "Photo": "findadentist.ada.org/Images/Profile/ADA.png", "Name": "Dr. Deyanira Sanchez", "Email": "", "Phone": "(562) 929-2383", "Address": "14119 Pioneer Blvd Norwalk, CA 90650-3925", "City": "Norwalk", "State": "CA", "Zip": "90650-3925", "AddressLine1": "14119 Pioneer Blvd", "AddressLine2": "", "Distance": 0.3, "Latitude": 33.9029, "Longitude": -118.0833}, {"Sequence": 8, "PersonId": 194771, "AddressId": 1535276, "Specialty": "General Practice", "Photo": "findadentist.ada.org/Images/Profile/ADA.png", "Name": "Dr. Harveen D Radia", "Email": "", "Phone": "(562) 863-9396", "Address": "13300 San Antonio Dr Norwalk, CA 90650-2969", "City": "Norwalk", "State": "CA", "Zip": "90650-2969", "AddressLine1": "13300 San Antonio Dr", "AddressLine2": "", "Distance": 0.5, "Latitude": 33.91003, "Longitude": -118.0748}, {"Sequence": 9, "PersonId": 287872, "AddressId": 2772001, "Specialty": "General Practice", "Photo": "findadentist.ada.org/Images/Profile/ADA.png", "Name": "Dr Flora C Navarro", "Email": "", "Phone": "(562) 929-3083", "Address": "11033 Rosecrans Ave Ste D Norwalk, CA 90650-3663", "City": "Norwalk", "State": "CA", "Zip": "90650-3663", "AddressLine1": "11033 Rosecrans Ave Ste D", "AddressLine2": "", "Distance": 1.0, "Latitude": 33.90293, "Longitude": -118.09896}, {"Sequence": 10, "PersonId": 133485, "AddressId": 1473990, "Specialty": "General Practice", "Photo": "findadentist.ada.org/Images/Profile/ADA.png", "Name": "Dr. Eric T Liu", "Email": "", "Phone": "(562) 921-0411", "Address": "12511 Alondra Blvd Norwalk, CA 90650-7351", "City": "Norwalk", "State": "CA", "Zip": "90650-7351", "AddressLine1": "12511 Alondra Blvd", "AddressLine2": "", "Distance": 1.7, "Latitude": 33.88834, "Longitude": -118.06624}, {"Sequence": 11, "PersonId": 282333, "AddressId": 1622838, "Specialty": "General Practice", "Photo": "findadentist.ada.org/Images/Profile/ADA.png", "Name": "Dr Tho Nguyen", "Email": "", "Phone": "(714) 839-1020", "Address": "16317 Alora Ave Norwalk, CA 90650-6902", "City": "Norwalk", "State": "CA", "Zip": "90650-6902", "AddressLine1": "16317 Alora Ave", "AddressLine2": "", "Distance": 1.8, "Latitude": 33.88322, "Longitude": -118.09472}, {"Sequence": 12, "PersonId": 257240, "AddressId": 1597745, "Specialty": "General Practice", "Photo": "findadentist.ada.org/Images/Profile/ADA.png", "Name": "Dr. Pushpavathi Narasimhaiah", "Email": "beautifulsmiles@drnoor.com", "Phone": "(562) 863-8600", "Address": "11274 Firestone Blvd Norwalk, CA 90650-2288", "City": "Norwalk", "State": "CA", "Zip": "90650-2288", "AddressLine1": "11274 Firestone Blvd", "AddressLine2": "", "Distance": 0.9, "Latitude": 33.91829, "Longitude": -118.09313}, {"Sequence": 13, "PersonId": 287883, "AddressId": 1628388, "Specialty": "General Practice", "Photo": "findadentist.ada.org/Images/Profile/ADA.png", "Name": "Dr Editha N Ramos", "Email": "", "Phone": "(562) 868-3133", "Address": "11405 Firestone Blvd Ste F Norwalk, CA 90650-2872", "City": "Norwalk", "State": "CA", "Zip": "90650-2872", "AddressLine1": "11405 Firestone Blvd Ste F", "AddressLine2": "", "Distance": 0.8, "Latitude": 33.91757, "Longitude": -118.08963}, {"Sequence": 14, "PersonId": 287386, "AddressId": 1627891, "Specialty": "General Practice", "Photo": "findadentist.ada.org/Images/Profile/ADA.png", "Name": "Dr Michael Barme", "Email": "", "Phone": "(562) 863-4110", "Address": "13926 San Antonio Dr Norwalk, CA 90650-4035", "City": "Norwalk", "State": "CA", "Zip": "90650-4035", "AddressLine1": "13926 San Antonio Dr", "AddressLine2": "", "Distance": 0.3, "Latitude": 33.90438, "Longitude": -118.07983}, {"Sequence": 15, "PersonId": 280725, "AddressId": 2725460, "Specialty": "General Practice", "Photo": "findadentist.ada.org/Images/Profile/ADA.png", "Name": "Dr Toni Thuytu T Nguyen", "Email": "", "Phone": "(562) 651-5699", "Address": "11401 Bloomfield Ave Norwalk, CA 90650-2015", "City": "Norwalk", "State": "CA", "Zip": "90650-2015", "AddressLine1": "11401 Bloomfield Ave", "AddressLine2": "", "Distance": 1.6, "Latitude": 33.92739, "Longitude": -118.06816}]