[{"Sequence": 1, "PersonId": 286446, "AddressId": 1626951, "Specialty": "Endodontics", "Photo": "findadentist.ada.org/Images/Profile/286446-Dr-Hamid-Abedi.png", "Name": "Dr Hamid R Abedi", "Email": "", "Phone": "(909) 384-1111", "Address": "2947 Chino Ave Ste D3 Chino Hills, CA 91709-3585", "City": "Chino Hills", "State": "CA", "Zip": "91709-3585", "AddressLine1": "2947 Chino Ave Ste D3", "AddressLine2": "", "Distance": 3.7, "Latitude": 34.01062, "Longitude": -117.7417}, {"Sequence": 2, "PersonId": 235752, "AddressId": 2675462, "Specialty": "General Practice", "Photo": "findadentist.ada.org/Images/Profile/235752-Dr-Brinda-Kansagra.png", "Name": "Dr. Brinda P Kansagra", "Email": "ch@smileselectdental.com", "Phone": "(909) 606-5566", "Address": "5807 Pine Ave Chino Hills, CA 91709-6532", "City": "Chino Hills", "State": "CA", "Zip": "91709-6532", "AddressLine1": "5807 Pine Ave", "AddressLine2": "", "Distance": 2.8, "Latitude": 33.94705, "Longitude": -117.67835}, {"Sequence": 3, "PersonId": 218763, "AddressId": 1559268, "Specialty": "General Practice", "Photo": "findadentist.ada.org/Images/Profile/218763-Dr-Sue Yun-Lee.png", "Name": "Dr. Sue Yun Lee", "Email": "", "Phone": "(909) 861-4444", "Address": "15870 Soquel Canyon Pkwy Ste I Chino Hills, CA 91709-7941", "City": "Chino Hills", "State": "CA", "Zip": "91709-7941", "AddressLine1": "15870 Soquel Canyon Pkwy Ste I", "AddressLine2": "", "Distance": 1.8, "Latitude": 33.96379, "Longitude": -117.69429}, {"Sequence": 4, "PersonId": 287044, "AddressId": 1627549, "Specialty": "General Practice", "Photo": "findadentist.ada.org/Images/Profile/287044-Dr-James-Fabozzi.png", "Name": "Dr James P Fabozzi", "Email": "appointments@fabozzidental.com", "Phone": "(909) 597-4711", "Address": "4020 Chino Hills Pkwy Ste A Chino Hills, CA 91709-2678", "City": "Chino Hills", "State": "CA", "Zip": "91709-2678", "AddressLine1": "4020 Chino Hills Pkwy Ste A", "AddressLine2": "", "Distance": 1.7, "Latitude": 33.98352, "Longitude": -117.71683}, {"Sequence": 5, "PersonId": 286621, "AddressId": 1627126, "Specialty": "General Practice", "Photo": "findadentist.ada.org/Images/Profile/286621-Dr-Daniel-Jenkins.png", "Name": "Dr Daniel N Jenkins", "Email": "ch@smileselectdental.com", "Phone": "(909) 606-5507", "Address": "5807 Pine Ave. Chino Hills, CA 91709", "City": "Chino Hills", "State": "CA", "Zip": "91709", "AddressLine1": "5807 Pine Ave.", "AddressLine2": "", "Distance": 3.0, "Latitude": 33.94764, "Longitude": -117.67536}, {"Sequence": 6, "PersonId": 133129, "AddressId": 2731603, "Specialty": "Pediatric Dentistry", "Photo": "findadentist.ada.org/Images/Profile/133129-Dr-Phyllis-Kawada.png", "Name": "Dr. Phyllis K Kawada", "Email": "", "Phone": "(909) 393-3311", "Address": "15944 Los Serranos Country Club Dr Chino Hills, CA 91709-3254", "City": "Chino Hills", "State": "CA", "Zip": "91709-3254", "AddressLine1": "15944 Los Serranos Country Club Dr", "AddressLine2": "Ste 100", "Distance": 1.7, "Latitude": 33.96243, "Longitude": -117.69662}, {"Sequence": 7, "PersonId": 207727, "AddressId": 3482232, "Specialty": "General Practice", "Photo": "findadentist.ada.org/Images/Profile/207727-Dr-Madhavi-Joshi.png", "Name": "Dr. Madhavi H Joshi", "Email": "ch@smileselectdental.com", "Phone": "(909) 606-5566", "Address": "5807 Pine Ave Chino Hills, CA 91709-6532", "City": "Chino Hills", "State": "CA", "Zip": "91709-6532", "AddressLine1": "5807 Pine Ave", "AddressLine2": "", "Distance": 2.8, "Latitude": 33.94696, "Longitude": -117.67833}, {"Sequence": 8, "PersonId": 287110, "AddressId": 1627615, "Specialty": "General Practice", "Photo": "findadentist.ada.org/Images/Profile/287110-Dr-David-Han.png", "Name": "Dr David S. Han", "Email": "Vipdentistryceo@gmail.com", "Phone": "(909) 597-1770", "Address": "4200 Chino Hills Pkwy Ste 355 Chino Hills, CA 91709-3778", "City": "Chino Hills", "State": "CA", "Zip": "91709-3778", "AddressLine1": "4200 Chino Hills Pkwy Ste 355", "AddressLine2": null, "Distance": 1.8, "Latitude": 33.98334, "Longitude": -117.71424}, {"Sequence": 9, "PersonId": 286388, "AddressId": 3482617, "Specialty": "General Practice", "Photo": "findadentist.ada.org/Images/Profile/286388-Dr-Uday-Shah.png", "Name": "Dr Uday N Shah", "Email": "info@sunnyfamilydental.com", "Phone": "(909) 606-4337", "Address": "14708 Pipeline Ave Ste A Chino Hills, CA 91709-1296", "City": "Chino Hills", "State": "CA", "Zip": "91709-1296", "AddressLine1": "14708 Pipeline Ave Ste A", "AddressLine2": "", "Distance": 1.9, "Latitude": 33.98571, "Longitude": -117.71618}, {"Sequence": 10, "PersonId": 207399, "AddressId": 2689866, "Specialty": "General Practice", "Photo": "findadentist.ada.org/Images/Profile/207399-Dr-Bhavin-Changela.png", "Name": "Dr. Bhavin Changela", "Email": "PEARLDENTALCARE@GMAIL.COM", "Phone": null, "Address": "3280 Chino Hills Pkwy Ste 4 Chino Hills, CA 91709-5866", "City": "Chino Hills", "State": "CA", "Zip": "91709-5866", "AddressLine1": "3280 Chino Hills Pkwy Ste 4", "AddressLine2": "", "Distance": 1.7, "Latitude": 33.98299, "Longitude": -117.73364}, {"Sequence": 11, "PersonId": 286944, "AddressId": 1627449, "Specialty": "Pediatric Dentistry", "Photo": "findadentist.ada.org/Images/Profile/286944-Dr-Melba-Mayes.png", "Name": "Dr Melba Z Mayes", "Email": "", "Phone": "(909) 548-4044", "Address": "2140 Grand Ave Ste 200 Chino Hills, CA 91709-6803", "City": "Chino Hills", "State": "CA", "Zip": "91709-6803", "AddressLine1": "2140 Grand Ave Ste 200", "AddressLine2": "", "Distance": 3.2, "Latitude": 33.99684, "Longitude": -117.75881}, {"Sequence": 12, "PersonId": 199803, "AddressId": 1540308, "Specialty": "General Practice", "Photo": "findadentist.ada.org/Images/Profile/199803-Dr-James-Park.png", "Name": "Dr. James M Park", "Email": "", "Phone": "(909) 464-2682", "Address": "3110 Chino Ave Chino Hills, CA 91709-1211", "City": "Chino Hills", "State": "CA", "Zip": "91709-1211", "AddressLine1": "3110 Chino Ave", "AddressLine2": "", "Distance": 3.7, "Latitude": 34.01137, "Longitude": -117.73832}, {"Sequence": 13, "PersonId": 282066, "AddressId": 2714957, "Specialty": "General Practice", "Photo": "findadentist.ada.org/Images/Profile/282066-Dr-Gerard-Salvosa.png", "Name": "Dr Gerard D Salvosa", "Email": "gerard.salvosa@yahoo.com", "Phone": null, "Address": "2557 Chino Hills Pkwy Ste C Chino Hills, CA 91709-5103", "City": "Chino Hills", "State": "CA", "Zip": "91709-5103", "AddressLine1": "2557 Chino Hills Pkwy Ste C", "AddressLine2": "", "Distance": 2.2, "Latitude": 33.98411, "Longitude": -117.74913}, {"Sequence": 14, "PersonId": 286424, "AddressId": 1626929, "Specialty": "General Practice", "Photo": "findadentist.ada.org/Images/Profile/286424-Dr-Alexander-Santos.png", "Name": "Dr. Alexander G Santos", "Email": "", "Phone": "(909) 393-5300", "Address": "4183 Chino Hills Pkwy Ste H Chino Hills, CA 91709-3781", "City": "Chino Hills", "State": "CA", "Zip": "91709-3781", "AddressLine1": "4183 Chino Hills Pkwy Ste H", "AddressLine2": "", "Distance": 1.7, "Latitude": 33.98143, "Longitude": -117.71372}, {"Sequence": 15, "PersonId": 287202, "AddressId": 1627707, "Specialty": "General Practice", "Photo": "findadentist.ada.org/Images/Profile/287202-Dr-Andrew-Hsieh.png", "Name": "Dr. Andrew M Hsieh", "Email": "", "Phone": "(909) 465-0909", "Address": "3277 Grand Ave Ste E Chino Hills, CA 91709-1490", "City": "Chino Hills", "State": "CA", "Zip": "91709-1490", "AddressLine1": "3277 Grand Ave Ste E", "AddressLine2": "", "Distance": 2.9, "Latitude": 34.00066, "Longitude": -117.73365}, {"Sequence": 16, "PersonId": 286738, "AddressId": 3490200, "Specialty": "Orthodontics and Dentofacial Orthopedics", "Photo": "findadentist.ada.org/Images/Profile/286738-Dr-Bruce-Heinrich.png", "Name": "Dr Bruce S Heinrich", "Email": "", "Phone": "(909) 558-1200", "Address": "3580 Grand Ave Ste K Chino, CA 91709", "City": "Chino", "State": "CA", "Zip": "91709", "AddressLine1": "3580 Grand Ave Ste K", "AddressLine2": "", "Distance": 3.1, "Latitude": 34.00379, "Longitude": -117.72806}, {"Sequence": 17, "PersonId": 286738, "AddressId": 3490200, "Specialty": "Orthodontics and Dentofacial Orthopedics", "Photo": "findadentist.ada.org/Images/Profile/286738-Dr-Bruce-Heinrich.png", "Name": "Dr Bruce S Heinrich", "Email": "", "Phone": "(909) 548-6900", "Address": "3580 Grand Ave Ste K Chino, CA 91709", "City": "Chino", "State": "CA", "Zip": "91709", "AddressLine1": "3580 Grand Ave Ste K", "AddressLine2": "", "Distance": 3.1, "Latitude": 34.00379, "Longitude": -117.72806}, {"Sequence": 18, "PersonId": 235374, "AddressId": 1575879, "Specialty": "General Practice", "Photo": "findadentist.ada.org/Images/Profile/ADA.png", "Name": "Dr. Robert M Kim", "Email": "", "Phone": "(760) 740-6595", "Address": "4665 Chino Hills Pkwy Ste D Chino Hills, CA 91709-5859", "City": "Chino Hills", "State": "CA", "Zip": "91709-5859", "AddressLine1": "4665 Chino Hills Pkwy Ste D", "AddressLine2": "", "Distance": 2.0, "Latitude": 33.98186, "Longitude": -117.70234}, {"Sequence": 19, "PersonId": 148940, "AddressId": 1489445, "Specialty": "General Practice", "Photo": "findadentist.ada.org/Images/Profile/ADA.png", "Name": "Dr. Peter H Pham", "Email": "", "Phone": "(714) 843-0892", "Address": "3410 Grand Ave Ste F Chino Hills, CA 91709-1473", "City": "Chino Hills", "State": "CA", "Zip": "91709-1473", "AddressLine1": "3410 Grand Ave Ste F", "AddressLine2": null, "Distance": 3.0, "Latitude": 34.0028, "Longitude": -117.73067}, {"Sequence": 20, "PersonId": 207675, "AddressId": 2722622, "Specialty": "General Practice", "Photo": "findadentist.ada.org/Images/Profile/ADA.png", "Name": "Dr. Neeru Singhal", "Email": "", "Phone": null, "Address": "2130 Grand Ave Chino Hills, CA 91709-4867", "City": "Chino Hills", "State": "CA", "Zip": "91709-4867", "AddressLine1": "2130 Grand Ave", "AddressLine2": "", "Distance": 3.2, "Latitude": 33.99648, "Longitude": -117.75832}, {"Sequence": 21, "PersonId": 145287, "AddressId": 3519833, "Specialty": "Orthodontics and Dentofacial Orthopedics", "Photo": "findadentist.ada.org/Images/Profile/ADA.png", "Name": "Dr. Nihar D Tanna", "Email": "INFO@TANNAORTHO.COM", "Phone": "(909) 464-9348", "Address": "2140 Grand Ave Ste 220 Chino Hills, CA 91709-6804", "City": "Chino Hills", "State": "CA", "Zip": "91709-6804", "AddressLine1": "2140 Grand Ave Ste 220", "AddressLine2": "", "Distance": 3.2, "Latitude": 33.99693, "Longitude": -117.75891}, {"Sequence": 22, "PersonId": 133117, "AddressId": 3525166, "Specialty": "General Practice", "Photo": "findadentist.ada.org/Images/Profile/ADA.png", "Name": "Dr. Quinn Yu", "Email": "DentalMatrixChinoHills@gmail.com", "Phone": "(909) 525-2525", "Address": "13850 City Center Dr Ste 5000 Chino Hills, CA 91709-5415", "City": "Chino Hills", "State": "CA", "Zip": "91709-5415", "AddressLine1": "13850 City Center Dr Ste 5000", "AddressLine2": "", "Distance": 2.9, "Latitude": 34.0016, "Longitude": -117.73048}, {"Sequence": 23, "PersonId": 130023, "AddressId": 3414778, "Specialty": "General Practice", "Photo": "findadentist.ada.org/Images/Profile/ADA.png", "Name": "Dr. Michael Alano", "Email": "", "Phone": "(626) 536-2780", "Address": "15870 Soquel Canyon Pkwy Ste I Chino Hills, CA 91709-7941", "City": "Chino Hills", "State": "CA", "Zip": "91709-7941", "AddressLine1": "15870 Soquel Canyon Pkwy Ste I", "AddressLine2": "", "Distance": 1.8, "Latitude": 33.96379, "Longitude": -117.69429}, {"Sequence": 24, "PersonId": 286192, "AddressId": 3460567, "Specialty": "General Practice", "Photo": "findadentist.ada.org/Images/Profile/ADA.png", "Name": "Dr. Albert S Chang", "Email": "", "Phone": "(909) 393-7500", "Address": "2557 Chino Hills Pkwy Chino Hills, CA 91709-5103", "City": "Chino Hills", "State": "CA", "Zip": "91709-5103", "AddressLine1": "2557 Chino Hills Pkwy", "AddressLine2": "", "Distance": 2.2, "Latitude": 33.98411, "Longitude": -117.74913}, {"Sequence": 25, "PersonId": 194813, "AddressId": 1535318, "Specialty": "General Practice", "Photo": "findadentist.ada.org/Images/Profile/ADA.png", "Name": "Dr. Jose F Miranda", "Email": "SMILESSAVVYDENTAL@ROCKETMAIL.COM", "Phone": "(909) 393-3180", "Address": "14676 Pipeline Ave Ste Q Chino Hills, CA 91709-1918", "City": "Chino Hills", "State": "CA", "Zip": "91709-1918", "AddressLine1": "14676 Pipeline Ave Ste Q", "AddressLine2": "", "Distance": 2.0, "Latitude": 33.98753, "Longitude": -117.7165}, {"Sequence": 26, "PersonId": 132325, "AddressId": 1472830, "Specialty": "General Practice", "Photo": "findadentist.ada.org/Images/Profile/ADA.png", "Name": "Dr. Tina M Cho", "Email": "", "Phone": "(909) 590-2221", "Address": "14270 Chino Hills Pkwy Ste D Chino Hills, CA 91709-4880", "City": "Chino Hills", "State": "CA", "Zip": "91709-4880", "AddressLine1": "14270 Chino Hills Pkwy Ste D", "AddressLine2": "", "Distance": 3.0, "Latitude": 33.99402, "Longitude": -117.75735}, {"Sequence": 27, "PersonId": 287021, "AddressId": 1627526, "Specialty": "General Practice", "Photo": "findadentist.ada.org/Images/Profile/ADA.png", "Name": "Dr Lisa Chen", "Email": "", "Phone": "(909) 465-0909", "Address": "3277 Grand Ave Ste E Chino Hills, CA 91709-1490", "City": "Chino Hills", "State": "CA", "Zip": "91709-1490", "AddressLine1": "3277 Grand Ave Ste E", "AddressLine2": "", "Distance": 2.9, "Latitude": 34.00066, "Longitude": -117.73365}, {"Sequence": 28, "PersonId": 133008, "AddressId": 1473513, "Specialty": "General Practice", "Photo": "findadentist.ada.org/Images/Profile/ADA.png", "Name": "Dr. Sung W Lee", "Email": "", "Phone": "(909) 393-1388", "Address": "15944 Los Serranos Country Club Dr Chino Hills, CA 91709-3993", "City": "Chino Hills", "State": "CA", "Zip": "91709-3993", "AddressLine1": "15944 Los Serranos Country Club Dr", "AddressLine2": "Ste 260", "Distance": 1.7, "Latitude": 33.96243, "Longitude": -117.69662}, {"Sequence": 29, "PersonId": 288741, "AddressId": 1629246, "Specialty": "General Practice", "Photo": "findadentist.ada.org/Images/Profile/ADA.png", "Name": "Dr Christine Sie", "Email": "", "Phone": "(909) 364-8424", "Address": "2140 Grand Ave Ste 225 Chino Hills, CA 91709-6804", "City": "Chino Hills", "State": "CA", "Zip": "91709-6804", "AddressLine1": "2140 Grand Ave Ste 225", "AddressLine2": "", "Distance": 3.2, "Latitude": 33.99684, "Longitude": -117.75881}, {"Sequence": 30, "PersonId": 289146, "AddressId": 2726225, "Specialty": "General Practice", "Photo": "findadentist.ada.org/Images/Profile/ADA.png", "Name": "Dr Peter C Liu", "Email": "", "Phone": "(909) 606-6888", "Address": "15942 Los Serranos Country Club Dr Ste F Chino Hills, CA 91709-4531", "City": "Chino Hills", "State": "CA", "Zip": "91709-4531", "AddressLine1": "15942 Los Serranos Country Club Dr Ste F", "AddressLine2": "", "Distance": 1.7, "Latitude": 33.9631, "Longitude": -117.69613}, {"Sequence": 31, "PersonId": 213962, "AddressId": 1554467, "Specialty": "General Practice", "Photo": "findadentist.ada.org/Images/Profile/ADA.png", "Name": "Dr. Hossein Abdolhosseini", "Email": "pinecenter@yahoo.com", "Phone": "(909) 597-2477", "Address": "5771 Pine Ave Ste S Chino Hills, CA 91709-6529", "City": "Chino Hills", "State": "CA", "Zip": "91709-6529", "AddressLine1": "5771 Pine Ave Ste S", "AddressLine2": null, "Distance": 2.8, "Latitude": 33.94676, "Longitude": -117.67873}]