[{"Sequence": 1, "PersonId": 288935, "AddressId": 2910234, "Specialty": "Prosthodontics", "Photo": "findadentist.ada.org/Images/Profile/288935-Dr-William Yuen-Siang-Hung.png", "Name": "Dr William Yuen-Siang Hung", "Email": "contact@myaplendental.com", "Phone": "(909) 902-0800", "Address": "14335 Pipeline Chino, CA 91710-5642", "City": "Chino", "State": "CA", "Zip": "91710-5642", "AddressLine1": "14335 Pipeline", "AddressLine2": "", "Distance": 2.4, "Latitude": 33.99329, "Longitude": -117.71483}, {"Sequence": 2, "PersonId": 191910, "AddressId": 1532415, "Specialty": "General Practice", "Photo": "findadentist.ada.org/Images/Profile/191910-Dr-Jennifer-Ramirez.png", "Name": "Dr. Jennifer A Ramirez", "Email": "", "Phone": "(661) 721-1800", "Address": "3991 Grand Ave Ste D Chino, CA 91710-5442", "City": "Chino", "State": "CA", "Zip": "91710-5442", "AddressLine1": "3991 Grand Ave Ste D", "AddressLine2": "", "Distance": 2.6, "Latitude": 33.992, "Longitude": -117.71682}, {"Sequence": 3, "PersonId": 133872, "AddressId": 2791621, "Specialty": "Orthodontics and Dentofacial Orthopedics", "Photo": "findadentist.ada.org/Images/Profile/133872-Dr-Mark-Wong.png", "Name": "Dr. Mark A Wong", "Email": "", "Phone": null, "Address": "13197 Central Ave Ste 103 Chino, CA 91710-4178", "City": "Chino", "State": "CA", "Zip": "91710-4178", "AddressLine1": "13197 Central Ave Ste 103", "AddressLine2": "", "Distance": 0.6, "Latitude": 34.01389, "Longitude": -117.68869}, {"Sequence": 4, "PersonId": 286879, "AddressId": 1627384, "Specialty": "General Practice", "Photo": "findadentist.ada.org/Images/Profile/286879-Dr-Rakesh-Patel.png", "Name": "Dr Rakesh P Patel", "Email": "rakeshpateldds@gmail.com", "Phone": "(909) 628-8109", "Address": "5263 Riverside Dr Chino, CA 91710-4151", "City": "Chino", "State": "CA", "Zip": "91710-4151", "AddressLine1": "5263 Riverside Dr", "AddressLine2": "", "Distance": 0.8, "Latitude": 34.01888, "Longitude": -117.6901}, {"Sequence": 5, "PersonId": 115922, "AddressId": 3026748, "Specialty": "General Practice", "Photo": "findadentist.ada.org/Images/Profile/115922-Dr-Richard-Shih.png", "Name": "Dr. Richard J Shih", "Email": "", "Phone": "(909) 628-2333", "Address": "13641 Central Ave Ste G Chino, CA 91710-5133", "City": "Chino", "State": "CA", "Zip": "91710-5133", "AddressLine1": "13641 Central Ave Ste G", "AddressLine2": "", "Distance": 0.7, "Latitude": 34.00591, "Longitude": -117.68814}, {"Sequence": 6, "PersonId": 286368, "AddressId": 3402634, "Specialty": "General Practice", "Photo": "findadentist.ada.org/Images/Profile/286368-Dr-Margareta-Gavrila.png", "Name": "Margareta M Gavrila DDS", "Email": "gavriladds@gmail.com", "Phone": "(909) 628-3912", "Address": "13197 Central Ave Ste 202 Chino, CA 91710-4178", "City": "Chino", "State": "CA", "Zip": "91710-4178", "AddressLine1": "13197 Central Ave Ste 202", "AddressLine2": "suite 202", "Distance": 0.6, "Latitude": 34.01388, "Longitude": -117.68869}, {"Sequence": 7, "PersonId": 206667, "AddressId": 1547172, "Specialty": "General Practice", "Photo": "findadentist.ada.org/Images/Profile/206667-Dr-Vijaya-Cherukuri.png", "Name": "Dr. Vijaya R Cherukuri", "Email": "lovemydentist@gmail.com", "Phone": "(909) 627-6699", "Address": "12850 10th St Ste B2 Chino, CA 91710-4295", "City": "Chino", "State": "CA", "Zip": "91710-4295", "AddressLine1": "12850 10th St Ste B2", "AddressLine2": "", "Distance": 0.7, "Latitude": 34.02011, "Longitude": -117.687}, {"Sequence": 8, "PersonId": 351070, "AddressId": 3496178, "Specialty": "General Practice", "Photo": "findadentist.ada.org/Images/Profile/351070-Dr-Bao-Tran-Truong.png", "Name": "Dr. Bao-Tran L Truong", "Email": "", "Phone": "(949) 610-3707", "Address": "4531 Philadelphia St Ste B107 Chino, CA 91710-2249", "City": "Chino", "State": "CA", "Zip": "91710-2249", "AddressLine1": "4531 Philadelphia St Ste B107", "AddressLine2": "", "Distance": 2.1, "Latitude": 34.0328, "Longitude": -117.70623}, {"Sequence": 9, "PersonId": 252965, "AddressId": 3571946, "Specialty": "General Practice", "Photo": "findadentist.ada.org/Images/Profile/252965-Dr-Tareq-Afifi.png", "Name": "Dr. Tareq Afifi", "Email": "cvsmilecenter@gmail.com", "Phone": "(909) 613-0111", "Address": "12850 10th Street Suite B-1 Chino, CA 91710", "City": "Chino", "State": "CA", "Zip": "91710", "AddressLine1": "12850 10th Street Suite B-1", "AddressLine2": "", "Distance": 0.7, "Latitude": 34.02005, "Longitude": -117.68695}, {"Sequence": 10, "PersonId": 144870, "AddressId": 1485375, "Specialty": "Pediatric Dentistry", "Photo": "findadentist.ada.org/Images/Profile/144870-Dr-Linda-Tran.png", "Name": "Dr. Linda L Tran", "Email": "", "Phone": "(909) 591-0077", "Address": "3991 Grand Ave Ste D Chino, CA 91710-5442", "City": "Chino", "State": "CA", "Zip": "91710-5442", "AddressLine1": "3991 Grand Ave Ste D", "AddressLine2": "", "Distance": 2.4, "Latitude": 33.99714, "Longitude": -117.71692}, {"Sequence": 11, "PersonId": 161664, "AddressId": 2766666, "Specialty": "General Practice", "Photo": "findadentist.ada.org/Images/Profile/161664-Dr-Alden-Yue.png", "Name": "Dr. Alden S Yue", "Email": "", "Phone": "(714) 978-3333", "Address": "12604 Central Ave Chino, CA 91710-3508", "City": "Chino", "State": "CA", "Zip": "91710-3508", "AddressLine1": "12604 Central Ave", "AddressLine2": "", "Distance": 1.0, "Latitude": 34.02403, "Longitude": -117.68944}, {"Sequence": 12, "PersonId": 287176, "AddressId": 1627681, "Specialty": "General Practice", "Photo": "findadentist.ada.org/Images/Profile/287176-Dr-Kathleen-Luciano.png", "Name": "Dr Kathleen M Luciano", "Email": "", "Phone": "(909) 628-6005", "Address": "12626 Central Ave Chino, CA 91710-3508", "City": "Chino", "State": "CA", "Zip": "91710-3508", "AddressLine1": "12626 Central Ave", "AddressLine2": "", "Distance": 1.1, "Latitude": 34.02401, "Longitude": -117.69019}, {"Sequence": 13, "PersonId": 219316, "AddressId": 1559821, "Specialty": "General Practice", "Photo": "findadentist.ada.org/Images/Profile/219316-Dr-Parvin-Karimi.png", "Name": "Dr. Parvin M Karimi", "Email": "", "Phone": "(909) 627-7977", "Address": "4673 Riverside Dr Ste D Chino, CA 91710-5905", "City": "Chino", "State": "CA", "Zip": "91710-5905", "AddressLine1": "4673 Riverside Dr Ste D", "AddressLine2": "", "Distance": 1.5, "Latitude": 34.01853, "Longitude": -117.7029}, {"Sequence": 14, "PersonId": 286360, "AddressId": 3402850, "Specialty": "General Practice", "Photo": "findadentist.ada.org/Images/Profile/286360-Dr-Supriya-Mhaskar.png", "Name": "Dr Supriya D Mhaskar", "Email": "familydentistry@aol.com", "Phone": "(909) 465-5551", "Address": "5436 Riverside Dr Chino, CA 91710-4206", "City": "Chino", "State": "CA", "Zip": "91710-4206", "AddressLine1": "5436 Riverside Dr", "AddressLine2": "Family Dental Center", "Distance": 0.7, "Latitude": 34.0194, "Longitude": -117.68638}, {"Sequence": 15, "PersonId": 283531, "AddressId": 1624036, "Specialty": "General Practice", "Photo": "findadentist.ada.org/Images/Profile/283531-Dr-Tracy-Ngo.png", "Name": "Dr Tracy D Ngo", "Email": "PROUDSMILEDENTISTRY@YAHOO.COM", "Phone": "(909) 591-8895", "Address": "12411 Central Ave Chino, CA 91710-2604", "City": "Chino", "State": "CA", "Zip": "91710-2604", "AddressLine1": "12411 Central Ave", "AddressLine2": "", "Distance": 1.3, "Latitude": 34.0278, "Longitude": -117.69008}, {"Sequence": 16, "PersonId": 238319, "AddressId": 3489750, "Specialty": "Endodontics", "Photo": "findadentist.ada.org/Images/Profile/238319-Dr-Tammam-Sheabar.png", "Name": "Dr. Tammam Sheabar", "Email": "", "Phone": "(909) 591-1745", "Address": "12604 Central Ave Chino, CA 91710", "City": "Chino", "State": "CA", "Zip": "91710", "AddressLine1": "12604 Central Ave", "AddressLine2": "", "Distance": 1.1, "Latitude": 34.02425, "Longitude": -117.6905}, {"Sequence": 17, "PersonId": 236906, "AddressId": 2879067, "Specialty": "General Practice", "Photo": "findadentist.ada.org/Images/Profile/236906-Dr-Mei-Lu.png", "Name": "Dr. Mei Lu", "Email": "meiludds@gmail.com", "Phone": "(909) 792-1093", "Address": "12540 10th St Chino, CA 91710-3503", "City": "Chino", "State": "CA", "Zip": "91710-3503", "AddressLine1": "12540 10th St", "AddressLine2": "Suite A", "Distance": 1.1, "Latitude": 34.02561, "Longitude": -117.6871}, {"Sequence": 18, "PersonId": 187291, "AddressId": 3473787, "Specialty": "General Practice", "Photo": "findadentist.ada.org/Images/Profile/187291-Dr-Ronald-Abaro.png", "Name": "Dr. Ronald C Abaro", "Email": "info@chinofamilydentalcare.com", "Phone": "(909) 591-0316", "Address": "12194 Central Ave Chino, CA 91710-2420", "City": "Chino", "State": "CA", "Zip": "91710-2420", "AddressLine1": "12194 Central Ave", "AddressLine2": "", "Distance": 1.5, "Latitude": 34.03191, "Longitude": -117.69046}, {"Sequence": 19, "PersonId": 217840, "AddressId": 1558345, "Specialty": "Prosthodontics", "Photo": "findadentist.ada.org/Images/Profile/217840-Dr-Alexander-Gavrila.png", "Name": "Dr. Alexander C Gavrila", "Email": "gavrila.prosthodontics@gmail.com", "Phone": "(909) 628-3912", "Address": "13197 Central Ave Ste 202 Chino, CA 91710-4178", "City": "Chino", "State": "CA", "Zip": "91710-4178", "AddressLine1": "13197 Central Ave Ste 202", "AddressLine2": "", "Distance": 0.6, "Latitude": 34.01389, "Longitude": -117.68869}, {"Sequence": 20, "PersonId": 236906, "AddressId": 2879067, "Specialty": "General Practice", "Photo": "findadentist.ada.org/Images/Profile/236906-Dr-Mei-Lu.png", "Name": "Dr. Mei Lu", "Email": "meiludds@gmail.com", "Phone": "(909) 627-0921", "Address": "12540 10th St Chino, CA 91710-3503", "City": "Chino", "State": "CA", "Zip": "91710-3503", "AddressLine1": "12540 10th St", "AddressLine2": "Suite A", "Distance": 1.1, "Latitude": 34.02561, "Longitude": -117.6871}, {"Sequence": 21, "PersonId": 276660, "AddressId": 1617165, "Specialty": "General Practice", "Photo": "findadentist.ada.org/Images/Profile/276660-Dr-Charles-Hart.png", "Name": "Dr Charles B Hart", "Email": "delicatesmileschino@gmail.com", "Phone": "(909) 902-9100", "Address": "4531 Philadelphia St Ste B Chino, CA 91710-2249", "City": "Chino", "State": "CA", "Zip": "91710-2249", "AddressLine1": "4531 Philadelphia St Ste B", "AddressLine2": "", "Distance": 2.1, "Latitude": 34.0328, "Longitude": -117.70623}, {"Sequence": 22, "PersonId": 286136, "AddressId": 1626641, "Specialty": "General Practice", "Photo": "findadentist.ada.org/Images/Profile/286136-Dr-Arthur-Forrest.png", "Name": "Dr. Arthur Forrest", "Email": "info@thecelebritysmile.com", "Phone": "(909) 627-8544", "Address": "13721 Roswell Ave Ste C Chino, CA 91710-5463", "City": "Chino", "State": "CA", "Zip": "91710-5463", "AddressLine1": "13721 Roswell Ave Ste C", "AddressLine2": null, "Distance": 2.5, "Latitude": 34.0035, "Longitude": -117.72137}, {"Sequence": 23, "PersonId": 198215, "AddressId": 2674859, "Specialty": "General Practice", "Photo": "findadentist.ada.org/Images/Profile/198215-Dr-Wilmer-Yabar.png", "Name": "Dr. Wilmer Yabar", "Email": "", "Phone": null, "Address": "5814 Riverside Dr Chino, CA 91710-4457", "City": "Chino", "State": "CA", "Zip": "91710-4457", "AddressLine1": "5814 Riverside Dr", "AddressLine2": "", "Distance": 0.5, "Latitude": 34.01962, "Longitude": -117.67821}, {"Sequence": 24, "PersonId": 287855, "AddressId": 3348130, "Specialty": "General Practice", "Photo": "findadentist.ada.org/Images/Profile/287855-Dr-Tarsem-Singhal.png", "Name": "Dr Tarsem L Singhal", "Email": "", "Phone": "(909) 548-6200", "Address": "5370 Schaefer Ave Ste C Chino, CA 91710-9008", "City": "Chino", "State": "CA", "Zip": "91710-9008", "AddressLine1": "5370 Schaefer Ave Ste C", "AddressLine2": "", "Distance": 0.7, "Latitude": 34.00511, "Longitude": -117.6877}, {"Sequence": 25, "PersonId": 244864, "AddressId": 3462957, "Specialty": "General Practice", "Photo": "findadentist.ada.org/Images/Profile/244864-Dr-Silverina-Chua.png", "Name": "Dr. Silverina O Chua", "Email": "silversmiledental@gmail.com", "Phone": "(909) 393-1600", "Address": "14683 Ramona Ave Chino, CA 91710-5648", "City": "Chino", "State": "CA", "Zip": "91710-5648", "AddressLine1": "14683 Ramona Ave", "AddressLine2": "", "Distance": 2.3, "Latitude": 33.98696, "Longitude": -117.70591}, {"Sequence": 26, "PersonId": 143147, "AddressId": 1483652, "Specialty": "Pediatric Dentistry", "Photo": "findadentist.ada.org/Images/Profile/143147-Dr-Johnny-Ma.png", "Name": "Dr. Johnny K Ma", "Email": "cvpedsdentistry@yahoo.com", "Phone": "(909) 548-6828", "Address": "13768 Roswell Ave Ste 221 Chino, CA 91710-1408", "City": "Chino", "State": "CA", "Zip": "91710-1408", "AddressLine1": "13768 Roswell Ave Ste 221", "AddressLine2": null, "Distance": 2.6, "Latitude": 34.00363, "Longitude": -117.72297}, {"Sequence": 27, "PersonId": 132959, "AddressId": 1473464, "Specialty": "General Practice", "Photo": "findadentist.ada.org/Images/Profile/ADA.png", "Name": "Dr. Bruce L Phung", "Email": "", "Phone": "(909) 613-1970", "Address": "3817 Grand Ave Ste D Chino, CA 91710-5443", "City": "Chino", "State": "CA", "Zip": "91710-5443", "AddressLine1": "3817 Grand Ave Ste D", "AddressLine2": "", "Distance": 2.6, "Latitude": 33.99886, "Longitude": -117.72131}, {"Sequence": 28, "PersonId": 211974, "AddressId": 2783437, "Specialty": "Orthodontics and Dentofacial Orthopedics", "Photo": "findadentist.ada.org/Images/Profile/ADA.png", "Name": "Dr. Joanne H Leung", "Email": "", "Phone": "(909) 902-0800", "Address": "14335 Pipeline Ave Chino, CA 91710-5642", "City": "Chino", "State": "CA", "Zip": "91710-5642", "AddressLine1": "14335 Pipeline Ave", "AddressLine2": "", "Distance": 2.4, "Latitude": 33.99329, "Longitude": -117.71483}, {"Sequence": 29, "PersonId": 226138, "AddressId": 1566643, "Specialty": "General Practice", "Photo": "findadentist.ada.org/Images/Profile/ADA.png", "Name": "Dr. Kangna N Garnier", "Email": "", "Phone": null, "Address": "13197 Central Ave Ste 103 Chino, CA 91710-4178", "City": "Chino", "State": "CA", "Zip": "91710-4178", "AddressLine1": "13197 Central Ave Ste 103", "AddressLine2": "", "Distance": 0.6, "Latitude": 34.01389, "Longitude": -117.68869}, {"Sequence": 30, "PersonId": 230321, "AddressId": 2826955, "Specialty": "General Practice", "Photo": "findadentist.ada.org/Images/Profile/ADA.png", "Name": "Dr. Jung Jin LeeYoon", "Email": "", "Phone": "(909) 613-0106", "Address": "12400 Central Ave Chino, CA 91710-2603", "City": "Chino", "State": "CA", "Zip": "91710-2603", "AddressLine1": "12400 Central Ave", "AddressLine2": "", "Distance": 1.3, "Latitude": 34.02788, "Longitude": -117.68964}, {"Sequence": 31, "PersonId": 213922, "AddressId": 2737640, "Specialty": "General Practice", "Photo": "findadentist.ada.org/Images/Profile/ADA.png", "Name": "Dr. Zainab M Hameed", "Email": "", "Phone": "(909) 793-8793", "Address": "12233 Central Ave Chino, CA 91710-2423", "City": "Chino", "State": "CA", "Zip": "91710-2423", "AddressLine1": "12233 Central Ave", "AddressLine2": "", "Distance": 1.5, "Latitude": 34.03161, "Longitude": -117.68907}, {"Sequence": 32, "PersonId": 187461, "AddressId": 2766382, "Specialty": "General Practice", "Photo": "findadentist.ada.org/Images/Profile/ADA.png", "Name": "Dr. Rick A Alpez", "Email": "", "Phone": "(909) 628-6701", "Address": "3935 Grand Ave Ste D Chino, CA 91710-5452", "City": "Chino", "State": "CA", "Zip": "91710-5452", "AddressLine1": "3935 Grand Ave Ste D", "AddressLine2": "", "Distance": 2.5, "Latitude": 33.99698, "Longitude": -117.7176}, {"Sequence": 33, "PersonId": 154074, "AddressId": 3437317, "Specialty": "General Practice", "Photo": "findadentist.ada.org/Images/Profile/ADA.png", "Name": "Dr. Sachin Singhal", "Email": "", "Phone": "(909) 548-6200", "Address": "5370 Schaefer Ave Ste C Chino, CA 91710-9008", "City": "Chino", "State": "CA", "Zip": "91710-9008", "AddressLine1": "5370 Schaefer Ave Ste C", "AddressLine2": "", "Distance": 0.7, "Latitude": 34.00511, "Longitude": -117.6877}, {"Sequence": 34, "PersonId": 241652, "AddressId": 2738739, "Specialty": "General Practice", "Photo": "findadentist.ada.org/Images/Profile/ADA.png", "Name": "Dr. Vanessa Valdez", "Email": "", "Phone": "(909) 591-9211", "Address": "4129 Riverside Dr Chino, CA 91710-3183", "City": "Chino", "State": "CA", "Zip": "91710-3183", "AddressLine1": "4129 Riverside Dr", "AddressLine2": "", "Distance": 2.1, "Latitude": 34.0189, "Longitude": -117.71494}, {"Sequence": 35, "PersonId": 238263, "AddressId": 1578768, "Specialty": "General Practice", "Photo": "findadentist.ada.org/Images/Profile/ADA.png", "Name": "Dr. Fenny Virgin", "Email": "", "Phone": "(909) 627-9996", "Address": "4036 GRAND AVENUE CHINO, CA 91710", "City": "CHINO", "State": "CA", "Zip": "91710", "AddressLine1": "4036 GRAND AVENUE", "AddressLine2": "SUITE D", "Distance": 2.4, "Latitude": 34.00034, "Longitude": -117.71797}, {"Sequence": 36, "PersonId": 189526, "AddressId": 1530031, "Specialty": "Orthodontics and Dentofacial Orthopedics", "Photo": "findadentist.ada.org/Images/Profile/ADA.png", "Name": "Dr. Thomas M Nguyen", "Email": "", "Phone": "(909) 548-0858", "Address": "4005 Grand Ave Ste B Chino, CA 91710-5474", "City": "Chino", "State": "CA", "Zip": "91710-5474", "AddressLine1": "4005 Grand Ave Ste B", "AddressLine2": null, "Distance": 2.4, "Latitude": 33.9968, "Longitude": -117.71658}, {"Sequence": 37, "PersonId": 145061, "AddressId": 1485566, "Specialty": "General Practice", "Photo": "findadentist.ada.org/Images/Profile/ADA.png", "Name": "Dr. Billy S Liang", "Email": "billyliangdds@yahoo.com", "Phone": "(909) 627-0913", "Address": "4091 Riverside Dr Ste 108 Chino, CA 91710-3195", "City": "Chino", "State": "CA", "Zip": "91710-3195", "AddressLine1": "4091 Riverside Dr Ste 108", "AddressLine2": null, "Distance": 2.2, "Latitude": 34.01857, "Longitude": -117.71593}, {"Sequence": 38, "PersonId": 290303, "AddressId": 1630808, "Specialty": "General Practice", "Photo": "findadentist.ada.org/Images/Profile/ADA.png", "Name": "Dr John F Ramos", "Email": "", "Phone": "(909) 613-1300", "Address": "5250 E Philadelphia St Ste O Chino, CA 91710-2483", "City": "Chino", "State": "CA", "Zip": "91710-2483", "AddressLine1": "5250 E Philadelphia St Ste O", "AddressLine2": "", "Distance": 1.7, "Latitude": 34.03463, "Longitude": -117.69094}, {"Sequence": 39, "PersonId": 216755, "AddressId": 1557260, "Specialty": "General Practice", "Photo": "findadentist.ada.org/Images/Profile/ADA.png", "Name": "Dr. Luzviminda M Dayrit", "Email": "", "Phone": "(909) 941-4200", "Address": "12920 Central Ave Chino, CA 91710-4121", "City": "Chino", "State": "CA", "Zip": "91710-4121", "AddressLine1": "12920 Central Ave", "AddressLine2": "", "Distance": 0.8, "Latitude": 34.01873, "Longitude": -117.68961}, {"Sequence": 40, "PersonId": 286185, "AddressId": 1626690, "Specialty": "General Practice", "Photo": "findadentist.ada.org/Images/Profile/ADA.png", "Name": "Dr Lucas B Setiady", "Email": "", "Phone": "(909) 627-0988", "Address": "12555 Central Ave Ste B Chino, CA 91710-3569", "City": "Chino", "State": "CA", "Zip": "91710-3569", "AddressLine1": "12555 Central Ave Ste B", "AddressLine2": "", "Distance": 1.1, "Latitude": 34.02525, "Longitude": -117.68907}, {"Sequence": 41, "PersonId": 168820, "AddressId": 1509325, "Specialty": "General Practice", "Photo": "findadentist.ada.org/Images/Profile/ADA.png", "Name": "Dr. Min Y Kim", "Email": "", "Phone": "(909) 591-0291", "Address": "12860 10th St Ste C Chino, CA 91710-4299", "City": "Chino", "State": "CA", "Zip": "91710-4299", "AddressLine1": "12860 10th St Ste C", "AddressLine2": "", "Distance": 0.7, "Latitude": 34.01988, "Longitude": -117.68692}, {"Sequence": 42, "PersonId": 115909, "AddressId": 1456414, "Specialty": "General Practice", "Photo": "findadentist.ada.org/Images/Profile/ADA.png", "Name": "Dr. Kyle Y Jeon", "Email": "", "Phone": "(909) 263-8838", "Address": "12530 10th St Ste B Chino, CA 91710-3520", "City": "Chino", "State": "CA", "Zip": "91710-3520", "AddressLine1": "12530 10th St Ste B", "AddressLine2": "", "Distance": 1.1, "Latitude": 34.0258, "Longitude": -117.68713}, {"Sequence": 43, "PersonId": 218736, "AddressId": 1559241, "Specialty": "General Practice", "Photo": "findadentist.ada.org/Images/Profile/ADA.png", "Name": "Dr. Brandon Chiu", "Email": "", "Phone": "(909) 590-8255", "Address": "13768 Roswell Ave Ste 211 Chino, CA 91710-1407", "City": "Chino", "State": "CA", "Zip": "91710-1407", "AddressLine1": "13768 Roswell Ave Ste 211", "AddressLine2": null, "Distance": 2.6, "Latitude": 34.00356, "Longitude": -117.72321}, {"Sequence": 44, "PersonId": 265496, "AddressId": 3401490, "Specialty": "General Practice", "Photo": "findadentist.ada.org/Images/Profile/ADA.png", "Name": "Dr. Anisha Sudan", "Email": "drsudan@chinodentalarts.com", "Phone": "(858) 373-7712", "Address": "4110 Edison Ave,  Ste # 107 B Chino, CA 91710", "City": "Chino", "State": "CA", "Zip": "91710", "AddressLine1": "4110 Edison Ave,  Ste # 107 B", "AddressLine2": "", "Distance": 2.2, "Latitude": 33.99776, "Longitude": -117.71396}, {"Sequence": 45, "PersonId": 126942, "AddressId": 1467447, "Specialty": "Endodontics", "Photo": "findadentist.ada.org/Images/Profile/ADA.png", "Name": "Dr. Jack T Yu", "Email": "", "Phone": "(909) 591-1055", "Address": "13768 Roswell Ave Ste 210 Chino, CA 91710-1407", "City": "Chino", "State": "CA", "Zip": "91710-1407", "AddressLine1": "13768 Roswell Ave Ste 210", "AddressLine2": "", "Distance": 2.6, "Latitude": 34.00363, "Longitude": -117.72298}, {"Sequence": 46, "PersonId": 241653, "AddressId": 2738740, "Specialty": "General Practice", "Photo": "findadentist.ada.org/Images/Profile/ADA.png", "Name": "Dr. Vivian Valdez", "Email": "Dmdvaldez@gmail.com", "Phone": null, "Address": "4129 Riverside Dr Chino, CA 91710-3183", "City": "Chino", "State": "CA", "Zip": "91710-3183", "AddressLine1": "4129 Riverside Dr", "AddressLine2": "", "Distance": 2.1, "Latitude": 34.01805, "Longitude": -117.71456}, {"Sequence": 47, "PersonId": 239745, "AddressId": 2813953, "Specialty": "General Practice", "Photo": "findadentist.ada.org/Images/Profile/ADA.png", "Name": "Dr. Julia Xiong", "Email": "", "Phone": "(562) 690-3551", "Address": "12194 Central Ave Chino, CA 91710", "City": "Chino", "State": "CA", "Zip": "91710", "AddressLine1": "12194 Central Ave", "AddressLine2": "", "Distance": 1.5, "Latitude": 34.03191, "Longitude": -117.69046}, {"Sequence": 48, "PersonId": 237425, "AddressId": 1577930, "Specialty": "General Practice", "Photo": "findadentist.ada.org/Images/Profile/ADA.png", "Name": "Dr. Seung-hwan Chung", "Email": "", "Phone": "(909) 628-5718", "Address": "13768 Roswell Ave Ste 119 Chino, CA 91710-1403", "City": "Chino", "State": "CA", "Zip": "91710-1403", "AddressLine1": "13768 Roswell Ave Ste 119", "AddressLine2": "", "Distance": 2.6, "Latitude": 34.00363, "Longitude": -117.72298}, {"Sequence": 49, "PersonId": 168885, "AddressId": 2727753, "Specialty": "Orthodontics and Dentofacial Orthopedics", "Photo": "findadentist.ada.org/Images/Profile/ADA.png", "Name": "Dr. Hongsheng Tong", "Email": "", "Phone": null, "Address": "14335 Pipeline Ave Ste A Chino, CA 91710-5642", "City": "Chino", "State": "CA", "Zip": "91710-5642", "AddressLine1": "14335 Pipeline Ave Ste A", "AddressLine2": "", "Distance": 2.4, "Latitude": 33.99329, "Longitude": -117.71483}, {"Sequence": 50, "PersonId": 280131, "AddressId": 1620636, "Specialty": "General Practice", "Photo": "findadentist.ada.org/Images/Profile/ADA.png", "Name": "Dr Indiana Robleto", "Email": "", "Phone": "(213) 465-0111", "Address": "12940 13th St Chino, CA 91710-4359", "City": "Chino", "State": "CA", "Zip": "91710-4359", "AddressLine1": "12940 13th St", "AddressLine2": "", "Distance": 0.5, "Latitude": 34.01838, "Longitude": -117.68326}, {"Sequence": 51, "PersonId": 190789, "AddressId": 1531294, "Specialty": "General Practice", "Photo": "findadentist.ada.org/Images/Profile/ADA.png", "Name": "Dr. Bijal B Joshi", "Email": "", "Phone": "(213) 268-0562", "Address": "12555 Central Ave Ste B Chino, CA 91710-3569", "City": "Chino", "State": "CA", "Zip": "91710-3569", "AddressLine1": "12555 Central Ave Ste B", "AddressLine2": "", "Distance": 1.1, "Latitude": 34.02522, "Longitude": -117.689}, {"Sequence": 52, "PersonId": 238116, "AddressId": 3062064, "Specialty": "General Practice", "Photo": "findadentist.ada.org/Images/Profile/ADA.png", "Name": "Dr. Olga L Reyes", "Email": "", "Phone": "(909) 247-1388", "Address": "4413 Riverside Dr. Chino, CA 91710", "City": "Chino", "State": "CA", "Zip": "91710", "AddressLine1": "4413 Riverside Dr.", "AddressLine2": "", "Distance": 1.8, "Latitude": 34.01863, "Longitude": -117.70877}]