[{"Sequence": 1, "PersonId": 218244, "AddressId": 2683662, "Specialty": "General Practice", "Photo": "findadentist.ada.org/Images/Profile/218244-Dr-Samuel-Hayatt.png", "Name": "Dr. Samuel Hayatt", "Email": "", "Phone": null, "Address": "1101 Broadway Chula Vista, CA 91911-2706", "City": "Chula Vista", "State": "CA", "Zip": "91911-2706", "AddressLine1": "1101 Broadway", "AddressLine2": "", "Distance": 2.2, "Latitude": 32.61006, "Longitude": -117.08096}, {"Sequence": 2, "PersonId": 206796, "AddressId": 3505273, "Specialty": "General Practice", "Photo": "findadentist.ada.org/Images/Profile/206796-Dr-Vivencio-Abante.png", "Name": "Dr. Vivencio B Abante", "Email": "info@abante.sdcoxnet.com", "Phone": "(619) 426-1130", "Address": "865 3rd Ave Ste 120 Chula Vista, CA 91911-1300", "City": "Chula Vista", "State": "CA", "Zip": "91911-1300", "AddressLine1": "865 3rd Ave Ste 120", "AddressLine2": "", "Distance": 2.0, "Latitude": 32.62211, "Longitude": -117.07181}, {"Sequence": 3, "PersonId": 236824, "AddressId": 1577329, "Specialty": "General Practice", "Photo": "findadentist.ada.org/Images/Profile/236824-Dr-Jose-Guzman.png", "Name": "Dr. Jose Guzman", "Email": "", "Phone": "(619) 423-5115", "Address": "2638 Main St Ste J Chula Vista, CA 91911-4623", "City": "Chula Vista", "State": "CA", "Zip": "91911-4623", "AddressLine1": "2638 Main St Ste J", "AddressLine2": "", "Distance": 2.0, "Latitude": 32.59526, "Longitude": -117.07683}, {"Sequence": 4, "PersonId": 244342, "AddressId": 2828093, "Specialty": "Pediatric Dentistry", "Photo": "findadentist.ada.org/Images/Profile/244342-Dr-Sameen-Zarrabi.png", "Name": "Dr. Sameen Zarrabi", "Email": "chulavistasmiles@yahoo.com", "Phone": "(702) 768-2206", "Address": "355 K St Ste A Chula Vista, CA 91911-1209", "City": "Chula Vista", "State": "CA", "Zip": "91911-1209", "AddressLine1": "355 K St Ste A", "AddressLine2": "", "Distance": 2.2, "Latitude": 32.62384, "Longitude": -117.0755}, {"Sequence": 5, "PersonId": 283814, "AddressId": 2717017, "Specialty": "Oral and Maxillofacial Surgery", "Photo": "findadentist.ada.org/Images/Profile/283814-Dr-Joel-Berger.png", "Name": "Dr Joel S Berger", "Email": "frontdesk@sandiegooms.com", "Phone": "(619) 482-6774", "Address": "752 Medical Center Ct Ste 205 Chula Vista, CA 91911-6660", "City": "Chula Vista", "State": "CA", "Zip": "91911-6660", "AddressLine1": "752 Medical Center Ct Ste 205", "AddressLine2": "", "Distance": 1.4, "Latitude": 32.61754, "Longitude": -117.02439}, {"Sequence": 6, "PersonId": 188164, "AddressId": 2765687, "Specialty": "General Practice", "Photo": "findadentist.ada.org/Images/Profile/ADA.png", "Name": "Dr. Hien P Nguyen", "Email": "PERFECTA314@YAHOO.COM", "Phone": "(619) 281-6777", "Address": "314 Palomar St Chula Vista, CA 91911-3111", "City": "Chula Vista", "State": "CA", "Zip": "91911-3111", "AddressLine1": "314 Palomar St", "AddressLine2": "", "Distance": 1.3, "Latitude": 32.6069, "Longitude": -117.0672}, {"Sequence": 7, "PersonId": 284487, "AddressId": 1624992, "Specialty": "General Practice", "Photo": "findadentist.ada.org/Images/Profile/ADA.png", "Name": "Dr Mark J Olson", "Email": "", "Phone": "(619) 216-9797", "Address": "752 Medical Center Ct Ste 212 Chula Vista, CA 91911-6660", "City": "Chula Vista", "State": "CA", "Zip": "91911-6660", "AddressLine1": "752 Medical Center Ct Ste 212", "AddressLine2": "", "Distance": 1.4, "Latitude": 32.61716, "Longitude": -117.02402}, {"Sequence": 8, "PersonId": 209314, "AddressId": 3445117, "Specialty": "General Practice", "Photo": "findadentist.ada.org/Images/Profile/ADA.png", "Name": "Dr. Melissa L Tillner", "Email": "", "Phone": null, "Address": "752 Medical Center Ct Ste 205 Chula Vista, CA 91911-6660", "City": "Chula Vista", "State": "CA", "Zip": "91911-6660", "AddressLine1": "752 Medical Center Ct Ste 205", "AddressLine2": "", "Distance": 1.4, "Latitude": 32.61716, "Longitude": -117.02402}, {"Sequence": 9, "PersonId": 198429, "AddressId": 1538934, "Specialty": "General Practice", "Photo": "findadentist.ada.org/Images/Profile/ADA.png", "Name": "Dr. Cindy T Luu", "Email": "perfecta314@yahoo.com", "Phone": "(619) 498-3888", "Address": "314 Palomar St Chula Vista, CA 91911-3111", "City": "Chula Vista", "State": "CA", "Zip": "91911-3111", "AddressLine1": "314 Palomar St", "AddressLine2": "", "Distance": 1.3, "Latitude": 32.6069, "Longitude": -117.0672}, {"Sequence": 10, "PersonId": 284067, "AddressId": 1624572, "Specialty": "General Practice", "Photo": "findadentist.ada.org/Images/Profile/ADA.png", "Name": "Dr. Barry J Slipock", "Email": "", "Phone": "(619) 421-5711", "Address": "750 Medical Center Ct Ste 10 Chula Vista, CA 91911-6634", "City": "Chula Vista", "State": "CA", "Zip": "91911-6634", "AddressLine1": "750 Medical Center Ct Ste 10", "AddressLine2": null, "Distance": 1.4, "Latitude": 32.61796, "Longitude": -117.02402}, {"Sequence": 11, "PersonId": 282748, "AddressId": 1623253, "Specialty": "General Practice", "Photo": "findadentist.ada.org/Images/Profile/ADA.png", "Name": "Dr Vytautas R Mockus", "Email": "", "Phone": "(619) 420-2604", "Address": "330 Oxford St Ste 212 Chula Vista, CA 91911-3119", "City": "Chula Vista", "State": "CA", "Zip": "91911-3119", "AddressLine1": "330 Oxford St Ste 212", "AddressLine2": "", "Distance": 1.5, "Latitude": 32.61027, "Longitude": -117.06925}, {"Sequence": 12, "PersonId": 219785, "AddressId": 2805889, "Specialty": "General Practice", "Photo": "findadentist.ada.org/Images/Profile/ADA.png", "Name": "Dr. Maung M Aye", "Email": "", "Phone": "(619) 427-2355", "Address": "285 Quintard St Chula Vista, CA 91911-4901", "City": "Chula Vista", "State": "CA", "Zip": "91911-4901", "AddressLine1": "285 Quintard St", "AddressLine2": "", "Distance": 1.2, "Latitude": 32.60324, "Longitude": -117.06431}, {"Sequence": 13, "PersonId": 335757, "AddressId": 2826672, "Specialty": "General Practice", "Photo": "findadentist.ada.org/Images/Profile/ADA.png", "Name": "Dr Fina Y Madrid", "Email": "", "Phone": null, "Address": "208 Tremont St Chula Vista, CA 91911-4911", "City": "Chula Vista", "State": "CA", "Zip": "91911-4911", "AddressLine1": "208 Tremont St", "AddressLine2": "", "Distance": 1.1, "Latitude": 32.5981, "Longitude": -117.06061}, {"Sequence": 14, "PersonId": 153984, "AddressId": 3438175, "Specialty": "General Practice", "Photo": "findadentist.ada.org/Images/Profile/ADA.png", "Name": "Dr. Nicolo Addario", "Email": "info@sunbowdentistry.com", "Phone": "(619) 656-1788", "Address": "1351 Medical Center Dr Chula Vista, CA 91911-6977", "City": "Chula Vista", "State": "CA", "Zip": "91911-6977", "AddressLine1": "1351 Medical Center Dr", "AddressLine2": "Suite B", "Distance": 1.2, "Latitude": 32.6161, "Longitude": -117.02656}, {"Sequence": 15, "PersonId": 188164, "AddressId": 2765788, "Specialty": "General Practice", "Photo": "findadentist.ada.org/Images/Profile/ADA.png", "Name": "Dr. Hien P Nguyen", "Email": "PERFECTA314@YAHOO.COM", "Phone": "(619) 498-3888", "Address": "314 TALLER ST CHULA VISTA, CA 91911", "City": "CHULA VISTA", "State": "CA", "Zip": "91911", "AddressLine1": "314 TALLER ST", "AddressLine2": "", "Distance": 10.7, "Latitude": 32.75514, "Longitude": -117.09252}, {"Sequence": 16, "PersonId": 284410, "AddressId": 1624915, "Specialty": "Pediatric Dentistry", "Photo": "findadentist.ada.org/Images/Profile/ADA.png", "Name": "Dr Guy C Lichty, II", "Email": "", "Phone": "(619) 421-9132", "Address": "1652 Point Sal Ct Chula Vista, CA 91911-6145", "City": "Chula Vista", "State": "CA", "Zip": "91911-6145", "AddressLine1": "1652 Point Sal Ct", "AddressLine2": "", "Distance": 1.1, "Latitude": 32.60203, "Longitude": -117.02653}, {"Sequence": 17, "PersonId": 237363, "AddressId": 1577868, "Specialty": "General Practice", "Photo": "findadentist.ada.org/Images/Profile/ADA.png", "Name": "Dr. Ray S Alcala", "Email": "melrosadental41@yahoo.com", "Phone": "(619) 409-1490", "Address": "1456 melrose chula vista, CA 91911", "City": "chula vista", "State": "CA", "Zip": "91911", "AddressLine1": "1456 melrose", "AddressLine2": "", "Distance": 10.6, "Latitude": 32.74946, "Longitude": -117.10621}]