[{"Sequence": 1, "PersonId": 237837, "AddressId": 1578342, "Specialty": "General Practice", "Photo": "findadentist.ada.org/Images/Profile/237837-Dr-Jaime-Loera.png", "Name": "Dr. Jaime A Loera", "Email": "team@dentalartsofpalmave.com", "Phone": "(619) 424-3456", "Address": "3388 Palm Ave Ste 101 San Diego, CA 92154-1662", "City": "San Diego", "State": "CA", "Zip": "92154-1662", "AddressLine1": "3388 Palm Ave Ste 101", "AddressLine2": "", "Distance": 9.2, "Latitude": 32.58445, "Longitude": -117.06001}, {"Sequence": 2, "PersonId": 283869, "AddressId": 1624374, "Specialty": "General Practice", "Photo": "findadentist.ada.org/Images/Profile/283869-Dr-Jose-Lopez.png", "Name": "Dr Jose L Lopez", "Email": "lopezsmile00@yahoo.com", "Phone": "(619) 423-1351", "Address": "3490 Palm Ave San Diego, CA 92154-1664", "City": "San Diego", "State": "CA", "Zip": "92154-1664", "AddressLine1": "3490 Palm Ave", "AddressLine2": "", "Distance": 9.2, "Latitude": 32.58404, "Longitude": -117.05955}, {"Sequence": 3, "PersonId": 272126, "AddressId": 3500892, "Specialty": "General Practice", "Photo": "findadentist.ada.org/Images/Profile/272126-Dr-Claudia-Le.png", "Name": "Dr. Claudia Le", "Email": "SouthlandPlazaDental@gmail.com", "Phone": "(619) 429-4030", "Address": "655 Saturn Blvd Ste G San Diego, CA 92154-4734", "City": "San Diego", "State": "CA", "Zip": "92154-4734", "AddressLine1": "655 Saturn Blvd Ste G", "AddressLine2": "", "Distance": 11.0, "Latitude": 32.58475, "Longitude": -117.09106}, {"Sequence": 4, "PersonId": 213280, "AddressId": 3556833, "Specialty": "Periodontics", "Photo": "findadentist.ada.org/Images/Profile/213280-Dr-Karen-Liu.png", "Name": "Dr. Karen Y Liu", "Email": "reception@toothfoundation.com", "Phone": "(619) 423-3602", "Address": "2930 Coronado Ave Ste C San Diego, CA 92154", "City": "San Diego", "State": "CA", "Zip": "92154", "AddressLine1": "2930 Coronado Ave Ste C", "AddressLine2": "", "Distance": 9.9, "Latitude": 32.5769, "Longitude": -117.07054}, {"Sequence": 5, "PersonId": 244634, "AddressId": 2804842, "Specialty": "General Practice", "Photo": "findadentist.ada.org/Images/Profile/244634-Dr-Tania-Bajars.png", "Name": "Dr. Tania I Bajars", "Email": "stbajars@att.net", "Phone": "(619) 423-3602", "Address": "2930 Coronado Ave Ste C San Diego, CA 92154-2188", "City": "San Diego", "State": "CA", "Zip": "92154-2188", "AddressLine1": "2930 Coronado Ave Ste C", "AddressLine2": "", "Distance": 9.9, "Latitude": 32.57689, "Longitude": -117.07057}, {"Sequence": 6, "PersonId": 283779, "AddressId": 1624284, "Specialty": "General Practice", "Photo": "findadentist.ada.org/Images/Profile/ADA.png", "Name": "Dr William Lin", "Email": "", "Phone": "(618) 429-4030", "Address": "655 Saturn Blvd  Ste G San Diego, CA 92154-4734", "City": "San Diego", "State": "CA", "Zip": "92154-4734", "AddressLine1": "655 Saturn Blvd  Ste G", "AddressLine2": "", "Distance": 11.0, "Latitude": 32.58475, "Longitude": -117.09106}, {"Sequence": 7, "PersonId": 268620, "AddressId": 3441765, "Specialty": "General Practice", "Photo": "findadentist.ada.org/Images/Profile/ADA.png", "Name": "Dr. Parissa Youssefi", "Email": "parissa875@gmail.com", "Phone": "(619) 662-4100", "Address": "1275 30th st San Diego, CA 92154", "City": "San Diego", "State": "CA", "Zip": "92154", "AddressLine1": "1275 30th st", "AddressLine2": "", "Distance": 9.8, "Latitude": 32.57318, "Longitude": -117.06818}]