[{"Sequence": 1, "PersonId": 189525, "AddressId": 1530030, "Specialty": "Orthodontics and Dentofacial Orthopedics", "Photo": "findadentist.ada.org/Images/Profile/189525-Dr-Henry-Nguyen.png", "Name": "Dr. Henry M Nguyen", "Email": "", "Phone": "(909) 646-9600", "Address": "15258 Summit Ave Ste 300 Fontana, CA 92336-0233", "City": "Fontana", "State": "CA", "Zip": "92336-0233", "AddressLine1": "15258 Summit Ave Ste 300", "AddressLine2": null, "Distance": 0.5, "Latitude": 34.1509, "Longitude": -117.4731}, {"Sequence": 2, "PersonId": 239400, "AddressId": 1579905, "Specialty": "General Practice", "Photo": "findadentist.ada.org/Images/Profile/239400-Dr-Sejal-Rajurkar.png", "Name": "Dr. Sejal S Rajurkar", "Email": "info@cherry-familydentistry.com", "Phone": "(909) 428-6890", "Address": "7798 Cherry Ave Fontana, CA 92336-1646", "City": "Fontana", "State": "CA", "Zip": "92336-1646", "AddressLine1": "7798 Cherry Ave", "AddressLine2": "", "Distance": 2.6, "Latitude": 34.11221, "Longitude": -117.48906}, {"Sequence": 3, "PersonId": 192743, "AddressId": 2808256, "Specialty": "Pediatric Dentistry", "Photo": "findadentist.ada.org/Images/Profile/192743-Dr-Nyasha-Scott.png", "Name": "Dr. Nyasha M Scott", "Email": "OFFICE@LITTLEHOUSEOFSMILES.COM", "Phone": "(909) 350-0770", "Address": "16465 Sierra Lakes Pkwy Ste 255 Fontana, CA 92336-1264", "City": "Fontana", "State": "CA", "Zip": "92336-1264", "AddressLine1": "16465 Sierra Lakes Pkwy Ste 255", "AddressLine2": "", "Distance": 1.4, "Latitude": 34.13741, "Longitude": -117.44545}, {"Sequence": 4, "PersonId": 130511, "AddressId": 1471016, "Specialty": "General Practice", "Photo": "findadentist.ada.org/Images/Profile/ADA.png", "Name": "Dr. Chirag P Vora", "Email": "", "Phone": "(909) 899-3940", "Address": "15032 Summit Ave Ste 410 Fontana, CA 92336-5393", "City": "Fontana", "State": "CA", "Zip": "92336-5393", "AddressLine1": "15032 Summit Ave Ste 410", "AddressLine2": null, "Distance": 0.6, "Latitude": 34.14842, "Longitude": -117.47674}, {"Sequence": 5, "PersonId": 229812, "AddressId": 1570317, "Specialty": "General Practice", "Photo": "findadentist.ada.org/Images/Profile/ADA.png", "Name": "Dr. Sarabjit s Massoun", "Email": "SPDENTALCARE@GMAIL.COM", "Phone": "(909) 357-3900", "Address": "16953 Sierra Lakes Pkwy # 110 Fontana, CA 92336-1272", "City": "Fontana", "State": "CA", "Zip": "92336-1272", "AddressLine1": "16953 Sierra Lakes Pkwy # 110", "AddressLine2": "", "Distance": 2.0, "Latitude": 34.13802, "Longitude": -117.43444}, {"Sequence": 6, "PersonId": 145918, "AddressId": 1486423, "Specialty": "General Practice", "Photo": "findadentist.ada.org/Images/Profile/ADA.png", "Name": "Dr. Hoan-Vu Truong", "Email": "", "Phone": null, "Address": "15290 Summit Ave Fontana, CA 92336-0240", "City": "Fontana", "State": "CA", "Zip": "92336-0240", "AddressLine1": "15290 Summit Ave", "AddressLine2": "", "Distance": 0.5, "Latitude": 34.15187, "Longitude": -117.47076}, {"Sequence": 7, "PersonId": 198552, "AddressId": 2836533, "Specialty": "Pediatric Dentistry", "Photo": "findadentist.ada.org/Images/Profile/ADA.png", "Name": "Dr. Jason S Ching", "Email": "", "Phone": "(909) 333-6875", "Address": "15218 Summit Ave Ste 150 Fontana, CA 92336-0266", "City": "Fontana", "State": "CA", "Zip": "92336-0266", "AddressLine1": "15218 Summit Ave Ste 150", "AddressLine2": "", "Distance": 0.6, "Latitude": 34.1509, "Longitude": -117.47546}, {"Sequence": 8, "PersonId": 286329, "AddressId": 2768619, "Specialty": "General Practice", "Photo": "findadentist.ada.org/Images/Profile/ADA.png", "Name": "Dr Jugal K Gupta", "Email": "", "Phone": "(909) 356-9752", "Address": "16049 Baseline Ave Ste 3 Fontana, CA 92336-1861", "City": "Fontana", "State": "CA", "Zip": "92336-1861", "AddressLine1": "16049 Baseline Ave Ste 3", "AddressLine2": "", "Distance": 1.9, "Latitude": 34.12075, "Longitude": -117.45438}]