[{"Sequence": 1, "PersonId": 149085, "AddressId": 1489590, "Specialty": "General Practice", "Photo": "findadentist.ada.org/Images/Profile/149085-Dr-Yuji-Kayahara.png", "Name": "Dr. Yuji Kayahara", "Email": "OCDENTIST@SBCGLOBAL.NET", "Phone": "(949) 830-1130", "Address": "24601 Raymond Way Ste 5 Lake Forest, CA 92630-4460", "City": "Lake Forest", "State": "CA", "Zip": "92630-4460", "AddressLine1": "24601 Raymond Way Ste 5", "AddressLine2": "", "Distance": 1.8, "Latitude": 33.62167, "Longitude": -117.70061}, {"Sequence": 2, "PersonId": 497561, "AddressId": 3537443, "Specialty": "General Practice", "Photo": "findadentist.ada.org/Images/Profile/497561-Dr-Eliza-Berris.png", "Name": "Dr Eliza Berris", "Email": "", "Phone": "(949) 837-2766", "Address": "23082 Ridge Route Dr Lake Forest, CA 92630-3431", "City": "Lake Forest", "State": "CA", "Zip": "92630-3431", "AddressLine1": "23082 Ridge Route Dr", "AddressLine2": "", "Distance": 1.6, "Latitude": 33.62937, "Longitude": -117.70448}, {"Sequence": 3, "PersonId": 127933, "AddressId": 1468438, "Specialty": "General Practice", "Photo": "findadentist.ada.org/Images/Profile/127933-Dr-Philip Phu-Nguyen.png", "Name": "Dr. Philip Phu Nguyen", "Email": "info@twinpeaksdentaloc.com", "Phone": "(949) 951-4885", "Address": "23635 El Toro Rd Ste H3 Lake Forest, CA 92630-4748", "City": "Lake Forest", "State": "CA", "Zip": "92630-4748", "AddressLine1": "23635 El Toro Rd Ste H3", "AddressLine2": null, "Distance": 2.1, "Latitude": 33.61958, "Longitude": -117.70377}, {"Sequence": 4, "PersonId": 249717, "AddressId": 2910294, "Specialty": "General Practice", "Photo": "findadentist.ada.org/Images/Profile/249717-Dr-Mohammad-Haider.png", "Name": "Dr. Mohammad S Haider", "Email": "manager@smileworksoc.com", "Phone": "(949) 472-4200", "Address": "20672 Lake Forest Dr # C Lake Forest, CA 92630-7700", "City": "Lake Forest", "State": "CA", "Zip": "92630-7700", "AddressLine1": "20672 Lake Forest Dr # C", "AddressLine2": "", "Distance": 1.6, "Latitude": 33.66201, "Longitude": -117.66687}, {"Sequence": 5, "PersonId": 280874, "AddressId": 1621379, "Specialty": "Oral and Maxillofacial Surgery", "Photo": "findadentist.ada.org/Images/Profile/280874-Dr-Robert-Wheeler.png", "Name": "Dr Robert T Wheeler, Jr.", "Email": "LFOFFICE@ORALSURGERYTEAM.COM", "Phone": "(949) 859-3822", "Address": "24400 Muirlands Blvd Ste C Lake Forest, CA 92630-3946", "City": "Lake Forest", "State": "CA", "Zip": "92630-3946", "AddressLine1": "24400 Muirlands Blvd Ste C", "AddressLine2": null, "Distance": 1.6, "Latitude": 33.62813, "Longitude": -117.70446}, {"Sequence": 6, "PersonId": 271222, "AddressId": 3486004, "Specialty": "General Practice", "Photo": "findadentist.ada.org/Images/Profile/271222-Dr-Ramin-Khoshsar.png", "Name": "Dr. Ramin Khoshsar", "Email": "", "Phone": "(949) 837-2766", "Address": "23082 Ridge Route Dr Lake Forest, CA 92630", "City": "Lake Forest", "State": "CA", "Zip": "92630", "AddressLine1": "23082 Ridge Route Dr", "AddressLine2": "", "Distance": 1.6, "Latitude": 33.62937, "Longitude": -117.70448}, {"Sequence": 7, "PersonId": 280606, "AddressId": 1621111, "Specialty": "General Practice", "Photo": "findadentist.ada.org/Images/Profile/280606-Dr-Steven-Kirsch.png", "Name": "Dr Steven P Kirsch", "Email": "92630DENTAL@GMAIL.COM", "Phone": "(949) 586-0270", "Address": "24400 Muirlands Blvd Ste D Lake Forest, CA 92630-3946", "City": "Lake Forest", "State": "CA", "Zip": "92630-3946", "AddressLine1": "24400 Muirlands Blvd Ste D", "AddressLine2": null, "Distance": 1.6, "Latitude": 33.62813, "Longitude": -117.70446}, {"Sequence": 8, "PersonId": 282788, "AddressId": 2696921, "Specialty": "General Practice", "Photo": "findadentist.ada.org/Images/Profile/282788-Dr-Prithvi-Dhani.png", "Name": "Dr Prithvi S Dhani", "Email": "everydaydental@gmail.com", "Phone": "(949) 297-8600", "Address": "26501 Rancho Pkwy S Ste 202 Lake Forest, CA 92630-8359", "City": "Lake Forest", "State": "CA", "Zip": "92630-8359", "AddressLine1": "26501 Rancho Pkwy S Ste 202", "AddressLine2": "", "Distance": 2.3, "Latitude": 33.67512, "Longitude": -117.67031}, {"Sequence": 9, "PersonId": 187965, "AddressId": 2787307, "Specialty": "General Practice", "Photo": "findadentist.ada.org/Images/Profile/187965-Dr-Alison-Wight.png", "Name": "Dr. Alison J Wight", "Email": "alisonwightddsinc@live.com", "Phone": "(949) 770-2077", "Address": "22992 El Toro Rd Lake Forest, CA 92630-4961", "City": "Lake Forest", "State": "CA", "Zip": "92630-4961", "AddressLine1": "22992 El Toro Rd", "AddressLine2": "", "Distance": 1.1, "Latitude": 33.62958, "Longitude": -117.68901}, {"Sequence": 10, "PersonId": 134600, "AddressId": 2835585, "Specialty": "Endodontics", "Photo": "findadentist.ada.org/Images/Profile/134600-Dr-Douglas-Szeto.png", "Name": "Dr. Douglas Szeto", "Email": "", "Phone": "(949) 305-0202", "Address": "22982 El Toro Rd # 100 Lake Forest, CA 92630-4961", "City": "Lake Forest", "State": "CA", "Zip": "92630-4961", "AddressLine1": "22982 El Toro Rd # 100", "AddressLine2": "", "Distance": 1.2, "Latitude": 33.62849, "Longitude": -117.68981}, {"Sequence": 11, "PersonId": 215252, "AddressId": 2908379, "Specialty": "General Practice", "Photo": "findadentist.ada.org/Images/Profile/215252-Dr-Joseph-Shilkofski.png", "Name": "Dr. Joseph A Shilkofski", "Email": "stunningsmilesoflakeforest@gmail.com", "Phone": "(949) 900-1742", "Address": "24432 Muirlands Blvd Ste 123 Lake Forest, CA 92630-3939", "City": "Lake Forest", "State": "CA", "Zip": "92630-3939", "AddressLine1": "24432 Muirlands Blvd Ste 123", "AddressLine2": "", "Distance": 1.6, "Latitude": 33.62706, "Longitude": -117.70351}, {"Sequence": 12, "PersonId": 218751, "AddressId": 1559256, "Specialty": "General Practice", "Photo": "findadentist.ada.org/Images/Profile/218751-Dr-Lukasz-Gorski.png", "Name": "Dr. Lukasz Gorski", "Email": "GORSKIDDSOFFICE@GMAIL.COM", "Phone": "(714) 668-0558", "Address": "23832 Rockfield Blvd Lake Forest, CA 92630-2871", "City": "Lake Forest", "State": "CA", "Zip": "92630-2871", "AddressLine1": "23832 Rockfield Blvd", "AddressLine2": "Ste 265", "Distance": 12.3, "Latitude": 33.69964, "Longitude": -117.88743}, {"Sequence": 13, "PersonId": 115921, "AddressId": 2766600, "Specialty": "General Practice", "Photo": "findadentist.ada.org/Images/Profile/115921-Dr-Foroud-Tale-Yazdi.png", "Name": "Dr. Foroud Tale-Yazdi", "Email": "", "Phone": "(949) 581-1000", "Address": "25411 Trabuco Rd Ste 112 Lake Forest, CA 92630-2777", "City": "Lake Forest", "State": "CA", "Zip": "92630-2777", "AddressLine1": "25411 Trabuco Rd Ste 112", "AddressLine2": "", "Distance": 0.3, "Latitude": 33.6485, "Longitude": -117.68645}, {"Sequence": 14, "PersonId": 215201, "AddressId": 1555706, "Specialty": "General Practice", "Photo": "findadentist.ada.org/Images/Profile/215201-Dr-Elmira-Elahi.png", "Name": "Dr. Elmira Elahi", "Email": "STUNNINGSMILESOFLAKEFOREST@GMAIL.COM", "Phone": "(949) 900-1740", "Address": "24432 Muirlands Blvd Ste 123 Lake Forest, CA 92630-3939", "City": "Lake Forest", "State": "CA", "Zip": "92630-3939", "AddressLine1": "24432 Muirlands Blvd Ste 123", "AddressLine2": null, "Distance": 1.6, "Latitude": 33.62697, "Longitude": -117.70361}, {"Sequence": 15, "PersonId": 281256, "AddressId": 1621761, "Specialty": "General Practice", "Photo": "findadentist.ada.org/Images/Profile/281256-Dr-Scott-West.png", "Name": "Dr Scott E West", "Email": "sewestdds@gmail.com", "Phone": "(949) 829-6700", "Address": "22672 Lambert St Ste 603 Lake Forest, CA 92630-1613", "City": "Lake Forest", "State": "CA", "Zip": "92630-1613", "AddressLine1": "22672 Lambert St Ste 603", "AddressLine2": null, "Distance": 1.8, "Latitude": 33.63355, "Longitude": -117.7132}, {"Sequence": 16, "PersonId": 133034, "AddressId": 2766619, "Specialty": "General Practice", "Photo": "findadentist.ada.org/Images/Profile/ADA.png", "Name": "Dr. Oanh T Ly", "Email": "info@twinpeaksdentaloc.com", "Phone": null, "Address": "23635 El Toro Rd Ste H3 Lake Forest, CA 92630-4748", "City": "Lake Forest", "State": "CA", "Zip": "92630-4748", "AddressLine1": "23635 El Toro Rd Ste H3", "AddressLine2": "", "Distance": 2.0, "Latitude": 33.62008, "Longitude": -117.70422}, {"Sequence": 17, "PersonId": 281536, "AddressId": 1622041, "Specialty": "General Practice", "Photo": "findadentist.ada.org/Images/Profile/ADA.png", "Name": "Dr Mandeep Bal", "Email": "", "Phone": "(949) 855-3368", "Address": "24531 Trabuco Rd Ste H Lake Forest, CA 92630-2162", "City": "Lake Forest", "State": "CA", "Zip": "92630-2162", "AddressLine1": "24531 Trabuco Rd Ste H", "AddressLine2": null, "Distance": 1.2, "Latitude": 33.65563, "Longitude": -117.70152}, {"Sequence": 18, "PersonId": 333455, "AddressId": 3416617, "Specialty": "General Practice", "Photo": "findadentist.ada.org/Images/Profile/ADA.png", "Name": "Dr Sandra Y. Rodriguez", "Email": "lakeforest@dentalmagicoc.com", "Phone": "(949) 916-8922", "Address": "20025 Lake Forest Dr. Lake Forest, CA 92630", "City": "Lake Forest", "State": "CA", "Zip": "92630", "AddressLine1": "20025 Lake Forest Dr.", "AddressLine2": "Ste. 105", "Distance": 2.2, "Latitude": 33.67071, "Longitude": -117.66162}, {"Sequence": 19, "PersonId": 187580, "AddressId": 1528085, "Specialty": "General Practice", "Photo": "findadentist.ada.org/Images/Profile/ADA.png", "Name": "Dr. Jennifer B Eli", "Email": "", "Phone": "(949) 770-2077", "Address": "22421 El Toro Rd Ste E Lake Forest, CA 92630-5049", "City": "Lake Forest", "State": "CA", "Zip": "92630-5049", "AddressLine1": "22421 El Toro Rd Ste E", "AddressLine2": "", "Distance": 0.6, "Latitude": 33.63696, "Longitude": -117.68171}, {"Sequence": 20, "PersonId": 280870, "AddressId": 1621375, "Specialty": "General Practice", "Photo": "findadentist.ada.org/Images/Profile/ADA.png", "Name": "Dr Brent Bowling", "Email": "", "Phone": "(949) 581-8760", "Address": "24400 Muirlands Blvd Ste A Lake Forest, CA 92630-3946", "City": "Lake Forest", "State": "CA", "Zip": "92630-3946", "AddressLine1": "24400 Muirlands Blvd Ste A", "AddressLine2": "", "Distance": 1.6, "Latitude": 33.62813, "Longitude": -117.70446}, {"Sequence": 21, "PersonId": 282290, "AddressId": 3323309, "Specialty": "General Practice", "Photo": "findadentist.ada.org/Images/Profile/ADA.png", "Name": "Dr Jeanette H Thai", "Email": "dental@jeanettethaidds.com", "Phone": "(949) 837-8482", "Address": "24432 Muirlands Blvd Ste 201 Lake Forest, CA 92630-3939", "City": "Lake Forest", "State": "CA", "Zip": "92630-3939", "AddressLine1": "24432 Muirlands Blvd Ste 201", "AddressLine2": "", "Distance": 1.6, "Latitude": 33.62697, "Longitude": -117.70361}, {"Sequence": 22, "PersonId": 134020, "AddressId": 2978653, "Specialty": "General Practice", "Photo": "findadentist.ada.org/Images/Profile/ADA.png", "Name": "Dr. Hossein Jahangiri", "Email": "", "Phone": "(949) 830-3743", "Address": "23361 el toro rd #117 Lake Forest, CA 92630-4810", "City": "Lake Forest", "State": "CA", "Zip": "92630-4810", "AddressLine1": "23361 el toro rd #117", "AddressLine2": "", "Distance": 1.6, "Latitude": 33.62396, "Longitude": -117.69711}, {"Sequence": 23, "PersonId": 230596, "AddressId": 1571101, "Specialty": "General Practice", "Photo": "findadentist.ada.org/Images/Profile/ADA.png", "Name": "Dr. Daisy P Alvarenga", "Email": "", "Phone": "(949) 340-0266", "Address": "23772 Mercury Rd Lake Forest, CA 92630-2810", "City": "Lake Forest", "State": "CA", "Zip": "92630-2810", "AddressLine1": "23772 Mercury Rd", "AddressLine2": "", "Distance": 2.2, "Latitude": 33.62454, "Longitude": -117.71457}, {"Sequence": 24, "PersonId": 187624, "AddressId": 1528129, "Specialty": "Orthodontics and Dentofacial Orthopedics", "Photo": "findadentist.ada.org/Images/Profile/ADA.png", "Name": "Dr. John T Eli", "Email": "", "Phone": "(949) 855-8480", "Address": "21791 Lake Forest Drive Lake Forest, CA 92630-2756", "City": "Lake Forest", "State": "CA", "Zip": "92630-2756", "AddressLine1": "21791 Lake Forest Drive", "AddressLine2": "Ste 204", "Distance": 0.3, "Latitude": 33.64619, "Longitude": -117.68862}, {"Sequence": 25, "PersonId": 194841, "AddressId": 1535346, "Specialty": "General Practice", "Photo": "findadentist.ada.org/Images/Profile/ADA.png", "Name": "Dr. Diem C Chang", "Email": "", "Phone": "(949) 525-2788", "Address": "23331 El Toro Rd Ste 102 Lake Forest, CA 92630-4809", "City": "Lake Forest", "State": "CA", "Zip": "92630-4809", "AddressLine1": "23331 El Toro Rd Ste 102", "AddressLine2": "", "Distance": 1.6, "Latitude": 33.62419, "Longitude": -117.69686}, {"Sequence": 26, "PersonId": 220928, "AddressId": 1561433, "Specialty": "General Practice", "Photo": "findadentist.ada.org/Images/Profile/ADA.png", "Name": "Dr. Andrew B Shi", "Email": "andrewbshi@yahoo.com", "Phone": "(949) 770-4734", "Address": "22421 El Toro Rd Ste E Lake Forest, CA 92630-5049", "City": "Lake Forest", "State": "CA", "Zip": "92630-5049", "AddressLine1": "22421 El Toro Rd Ste E", "AddressLine2": "", "Distance": 0.6, "Latitude": 33.63696, "Longitude": -117.68171}, {"Sequence": 27, "PersonId": 211946, "AddressId": 1552451, "Specialty": "General Practice", "Photo": "findadentist.ada.org/Images/Profile/ADA.png", "Name": "Dr. Sooji H Lee", "Email": "INFO@SMILEONYOUDENTISTRY.COM", "Phone": "(949) 716-4892", "Address": "20671 Lake Forest Dr Lake Forest, CA 92630-7746", "City": "Lake Forest", "State": "CA", "Zip": "92630-7746", "AddressLine1": "20671 Lake Forest Dr", "AddressLine2": "Ste B103", "Distance": 1.5, "Latitude": 33.66229, "Longitude": -117.66791}, {"Sequence": 28, "PersonId": 224707, "AddressId": 1565212, "Specialty": "General Practice", "Photo": "findadentist.ada.org/Images/Profile/ADA.png", "Name": "Dr. Katayoon Mortazavi", "Email": "", "Phone": null, "Address": "24401 Muirlands Blvd Ste D Lake Forest, CA 92630-3950", "City": "Lake Forest", "State": "CA", "Zip": "92630-3950", "AddressLine1": "24401 Muirlands Blvd Ste D", "AddressLine2": "", "Distance": 1.6, "Latitude": 33.62844, "Longitude": -117.70375}, {"Sequence": 29, "PersonId": 225198, "AddressId": 1565703, "Specialty": "Endodontics", "Photo": "findadentist.ada.org/Images/Profile/ADA.png", "Name": "Dr. Sandra J Sarmiento DeCardenas", "Email": "CS.DENTAL@HOTMAIL.COM", "Phone": "(949) 454-2440", "Address": "24400 Muirlands Blvd Ste E Lake Forest, CA 92630-3946", "City": "Lake Forest", "State": "CA", "Zip": "92630-3946", "AddressLine1": "24400 Muirlands Blvd Ste E", "AddressLine2": "", "Distance": 1.6, "Latitude": 33.62813, "Longitude": -117.70446}, {"Sequence": 30, "PersonId": 218775, "AddressId": 1559280, "Specialty": "General Practice", "Photo": "findadentist.ada.org/Images/Profile/ADA.png", "Name": "Dr. Ha N Lee", "Email": "infoleedds@gmail.com", "Phone": "(949) 588-8888", "Address": "24864 Muirlands Blvd Lake Forest, CA 92630-4812", "City": "Lake Forest", "State": "CA", "Zip": "92630-4812", "AddressLine1": "24864 Muirlands Blvd", "AddressLine2": "", "Distance": 1.7, "Latitude": 33.62238, "Longitude": -117.6965}]