[{"Sequence": 1, "PersonId": 282256, "AddressId": 1622761, "Specialty": "Periodontics", "Photo": "findadentist.ada.org/Images/Profile/282256-Dr-Jim-Mata.png", "Name": "Dr Jim Mata", "Email": "", "Phone": "(714) 556-5156", "Address": "3620 S Bristol St Ste 306 Santa Ana, CA 92704-7316", "City": "Santa Ana", "State": "CA", "Zip": "92704-7316", "AddressLine1": "3620 S Bristol St Ste 306", "AddressLine2": "", "Distance": 2.1, "Latitude": 33.69964, "Longitude": -117.88743}, {"Sequence": 2, "PersonId": 168995, "AddressId": 3473761, "Specialty": "General Practice", "Photo": "findadentist.ada.org/Images/Profile/168995-Dr-Kent-Do.png", "Name": "Dr. Kent N Do", "Email": "info@socosmiles.com", "Phone": "(714) 557-5437", "Address": "3620 S Bristol St Ste 207 Santa Ana, CA 92704-7315", "City": "Santa Ana", "State": "CA", "Zip": "92704-7315", "AddressLine1": "3620 S Bristol St Ste 207", "AddressLine2": "", "Distance": 2.1, "Latitude": 33.69964, "Longitude": -117.88743}, {"Sequence": 3, "PersonId": 198385, "AddressId": 1538890, "Specialty": "General Practice", "Photo": "findadentist.ada.org/Images/Profile/198385-Dr-Michelle-Bui.png", "Name": "Dr. Michelle Bui", "Email": "mtbui2008@gmail.com", "Phone": "(714) 775-0202", "Address": "642 S Harbor Blvd Santa Ana, CA 92704-1383", "City": "Santa Ana", "State": "CA", "Zip": "92704-1383", "AddressLine1": "642 S Harbor Blvd", "AddressLine2": "", "Distance": 1.3, "Latitude": 33.7389, "Longitude": -117.92099}, {"Sequence": 4, "PersonId": 282310, "AddressId": 3474859, "Specialty": "General Practice", "Photo": "findadentist.ada.org/Images/Profile/282310-Dr-Peter-Le.png", "Name": "Dr Peter V Le", "Email": "peterledds0909@gmail.com", "Phone": "(714) 549-0909", "Address": "3739 S Plaza Dr Santa Ana, CA 92704-7463", "City": "Santa Ana", "State": "CA", "Zip": "92704-7463", "AddressLine1": "3739 S Plaza Dr", "AddressLine2": "", "Distance": 2.2, "Latitude": 33.69713, "Longitude": -117.88828}, {"Sequence": 5, "PersonId": 134380, "AddressId": 3305871, "Specialty": "General Practice", "Photo": "findadentist.ada.org/Images/Profile/134380-Dr-Thanh-Dinh.png", "Name": "Dr. Thanh T Dinh", "Email": "", "Phone": "(714) 662-2360", "Address": "2414 S Fairview St Ste 101 Santa Ana, CA 92704-5318", "City": "Santa Ana", "State": "CA", "Zip": "92704-5318", "AddressLine1": "2414 S Fairview St Ste 101", "AddressLine2": "", "Distance": 0.7, "Latitude": 33.71437, "Longitude": -117.90844}, {"Sequence": 6, "PersonId": 212007, "AddressId": 3537409, "Specialty": "Periodontics", "Photo": "findadentist.ada.org/Images/Profile/212007-Dr-Jeremy-Owyoung.png", "Name": "Dr. Jeremy B Owyoung", "Email": "dentalsolutionshayward@gmail.com", "Phone": "(714) 957-6030", "Address": "3500 S Bristol St Ste 100 Santa Ana, CA 92704", "City": "Santa Ana", "State": "CA", "Zip": "92704", "AddressLine1": "3500 S Bristol St Ste 100", "AddressLine2": "", "Distance": 2.1, "Latitude": 33.70041, "Longitude": -117.88615}, {"Sequence": 7, "PersonId": 213777, "AddressId": 1554282, "Specialty": "General Practice", "Photo": "findadentist.ada.org/Images/Profile/213777-Dr-Blanca-Zamora.png", "Name": "Dr. Blanca E Zamora", "Email": "contact@lucerodental.com", "Phone": "(714) 557-0201", "Address": "2740 S Bristol St Ste 206 Santa Ana, CA 92704-6233", "City": "Santa Ana", "State": "CA", "Zip": "92704-6233", "AddressLine1": "2740 S Bristol St Ste 206", "AddressLine2": "", "Distance": 1.6, "Latitude": 33.70999, "Longitude": -117.88593}, {"Sequence": 8, "PersonId": 282388, "AddressId": 1622893, "Specialty": "General Practice", "Photo": "findadentist.ada.org/Images/Profile/282388-Dr-Jerome-Peterson.png", "Name": "Dr Jerome N Peterson", "Email": "JeromePetersonDDS@gmail.com", "Phone": "(714) 557-7744", "Address": "3620 S Bristol St Ste 302 Santa Ana, CA 92704-7316", "City": "Santa Ana", "State": "CA", "Zip": "92704-7316", "AddressLine1": "3620 S Bristol St Ste 302", "AddressLine2": "", "Distance": 2.1, "Latitude": 33.69964, "Longitude": -117.88743}, {"Sequence": 9, "PersonId": 134310, "AddressId": 1474815, "Specialty": "General Practice", "Photo": "findadentist.ada.org/Images/Profile/134310-Dr-Paul-Chon.png", "Name": "Dr. Paul P Chon", "Email": "OFFICE@PAULCHONDDS.COM", "Phone": "(714) 545-0453", "Address": "3620 S Bristol St Ste 206 Santa Ana, CA 92704-7315", "City": "Santa Ana", "State": "CA", "Zip": "92704-7315", "AddressLine1": "3620 S Bristol St Ste 206", "AddressLine2": "", "Distance": 2.1, "Latitude": 33.69964, "Longitude": -117.88743}, {"Sequence": 10, "PersonId": 329823, "AddressId": 1670328, "Specialty": "General Practice", "Photo": "findadentist.ada.org/Images/Profile/329823-Dr-Elizabeth-Tran.png", "Name": "Dr Elizabeth L Tran", "Email": "smoothdentalgroupdmd@gmail.com", "Phone": "(714) 850-9121", "Address": "2657 W Edinger Ave Santa Ana, CA 92704-3521", "City": "Santa Ana", "State": "CA", "Zip": "92704-3521", "AddressLine1": "2657 W Edinger Ave", "AddressLine2": null, "Distance": 0.3, "Latitude": 33.72791, "Longitude": -117.9049}, {"Sequence": 11, "PersonId": 209786, "AddressId": 2767049, "Specialty": "General Practice", "Photo": "findadentist.ada.org/Images/Profile/209786-Dr-Christopher-Nguyen.png", "Name": "Dr. Christopher T Nguyen", "Email": "drsocaldental@gmail.com", "Phone": "(714) 638-7554", "Address": "2618 S Bristol St Santa Ana, CA 92704-5761", "City": "Santa Ana", "State": "CA", "Zip": "92704-5761", "AddressLine1": "2618 S Bristol St", "AddressLine2": "", "Distance": 1.5, "Latitude": 33.71182, "Longitude": -117.88633}, {"Sequence": 12, "PersonId": 210123, "AddressId": 2821753, "Specialty": "General Practice", "Photo": "findadentist.ada.org/Images/Profile/210123-Dr-Briana-Chavez.png", "Name": "Dr. Briana M Chavez", "Email": "", "Phone": "(714) 439-9800", "Address": "3620 S Bristol St Ste 304 Santa Ana, CA 92704-7316", "City": "Santa Ana", "State": "CA", "Zip": "92704-7316", "AddressLine1": "3620 S Bristol St Ste 304", "AddressLine2": "Ste 304", "Distance": 2.1, "Latitude": 33.69972, "Longitude": -117.88737}, {"Sequence": 13, "PersonId": 281609, "AddressId": 2766517, "Specialty": "Orthodontics and Dentofacial Orthopedics", "Photo": "findadentist.ada.org/Images/Profile/281609-Dr-Gordon-Kilmer.png", "Name": "Dr Gordon S Kilmer", "Email": "", "Phone": "(714) 957-6030", "Address": "3500 S Bristol St Ste 100 Santa Ana, CA 92704-7319", "City": "Santa Ana", "State": "CA", "Zip": "92704-7319", "AddressLine1": "3500 S Bristol St Ste 100", "AddressLine2": "", "Distance": 2.1, "Latitude": 33.70041, "Longitude": -117.88615}, {"Sequence": 14, "PersonId": 209786, "AddressId": 2767049, "Specialty": "General Practice", "Photo": "findadentist.ada.org/Images/Profile/209786-Dr-Christopher-Nguyen.png", "Name": "Dr. Christopher T Nguyen", "Email": "drsocaldental@gmail.com", "Phone": "(714) 540-7101", "Address": "2618 S Bristol St Santa Ana, CA 92704-5761", "City": "Santa Ana", "State": "CA", "Zip": "92704-5761", "AddressLine1": "2618 S Bristol St", "AddressLine2": "", "Distance": 1.5, "Latitude": 33.71182, "Longitude": -117.88633}, {"Sequence": 15, "PersonId": 254286, "AddressId": 3512387, "Specialty": "General Practice", "Photo": "findadentist.ada.org/Images/Profile/254286-Dr-Diana-Zardouz.png", "Name": "Dr. Diana S Zardouz", "Email": "southcoastdentalcenter@gmail.com", "Phone": "(714) 556-1717", "Address": "3500 S Bristol St Ste 101 Santa Ana, CA 92704-7319", "City": "Santa Ana", "State": "CA", "Zip": "92704-7319", "AddressLine1": "3500 S Bristol St Ste 101", "AddressLine2": "", "Distance": 2.1, "Latitude": 33.70041, "Longitude": -117.88615}, {"Sequence": 16, "PersonId": 252131, "AddressId": 1592636, "Specialty": "General Practice", "Photo": "findadentist.ada.org/Images/Profile/252131-Dr-Amitiss-Nasiri-Ansari.png", "Name": "Dr. Amitiss Nasiri-Ansari", "Email": "amitissdds@hotmail.com", "Phone": "(714) 556-7277", "Address": "2781 W MacArthur Blvd Santa Ana, CA 92704-8300", "City": "Santa Ana", "State": "CA", "Zip": "92704-8300", "AddressLine1": "2781 W MacArthur Blvd", "AddressLine2": "", "Distance": 1.6, "Latitude": 33.70141, "Longitude": -117.90692}, {"Sequence": 17, "PersonId": 133946, "AddressId": 3095843, "Specialty": "General Practice", "Photo": "findadentist.ada.org/Images/Profile/133946-Dr-Shahin-Mahallati.png", "Name": "Dr. Shahin H Mahallati", "Email": "Staff@ocbaydental.com", "Phone": "(714) 540-2836", "Address": "3620 S Bristol St Ste 307 Santa Ana, CA 92704-7316", "City": "Santa Ana", "State": "CA", "Zip": "92704-7316", "AddressLine1": "3620 S Bristol St Ste 307", "AddressLine2": "", "Distance": 2.1, "Latitude": 33.69963, "Longitude": -117.8876}, {"Sequence": 18, "PersonId": 281883, "AddressId": 3009154, "Specialty": "General Practice", "Photo": "findadentist.ada.org/Images/Profile/281883-Dr-Martha-Lucero.png", "Name": "Dr Martha R Lucero", "Email": "contact@lucerodental.com", "Phone": "(714) 557-0201", "Address": "2740 S Bristol St Ste 206 Santa Ana, CA 92704-6233", "City": "Santa Ana", "State": "CA", "Zip": "92704-6233", "AddressLine1": "2740 S Bristol St Ste 206", "AddressLine2": "", "Distance": 1.6, "Latitude": 33.71002, "Longitude": -117.88602}, {"Sequence": 19, "PersonId": 265685, "AddressId": 3401334, "Specialty": "General Practice", "Photo": "findadentist.ada.org/Images/Profile/265685-Dr-Dich-Lu.png", "Name": "Dr. Dich Lu", "Email": "info@healthysmilesdc.com", "Phone": "(714) 432-0979", "Address": "3620 S Bristol St - Suite 103 Santa Ana, CA 92704-7314", "City": "Santa Ana", "State": "CA", "Zip": "92704-7314", "AddressLine1": "3620 S Bristol St - Suite 103", "AddressLine2": "", "Distance": 2.1, "Latitude": 33.69964, "Longitude": -117.88743}, {"Sequence": 20, "PersonId": 135365, "AddressId": 1475870, "Specialty": "General Practice", "Photo": "findadentist.ada.org/Images/Profile/ADA.png", "Name": "Dr. Sepehr A Saeedi", "Email": "", "Phone": "(714) 546-9999", "Address": "3930 S Bristol St Ste 201 Santa Ana, CA 92704-7431", "City": "Santa Ana", "State": "CA", "Zip": "92704-7431", "AddressLine1": "3930 S Bristol St Ste 201", "AddressLine2": null, "Distance": 2.4, "Latitude": 33.69487, "Longitude": -117.88591}, {"Sequence": 21, "PersonId": 281995, "AddressId": 1622500, "Specialty": "General Practice", "Photo": "findadentist.ada.org/Images/Profile/ADA.png", "Name": "Dr Hiroshi Murotani", "Email": "", "Phone": "(714) 641-0681", "Address": "3620 S Bristol St Ste 209 Santa Ana, CA 92704-7315", "City": "Santa Ana", "State": "CA", "Zip": "92704-7315", "AddressLine1": "3620 S Bristol St Ste 209", "AddressLine2": "", "Distance": 2.1, "Latitude": 33.69964, "Longitude": -117.88743}, {"Sequence": 22, "PersonId": 281368, "AddressId": 2812801, "Specialty": "General Practice", "Photo": "findadentist.ada.org/Images/Profile/ADA.png", "Name": "Dr Laurence W Dotson", "Email": "", "Phone": "(714) 557-7744", "Address": "3620 S Bristol St Ste 302 Santa Ana, CA 92704-7316", "City": "Santa Ana", "State": "CA", "Zip": "92704-7316", "AddressLine1": "3620 S Bristol St Ste 302", "AddressLine2": "", "Distance": 2.1, "Latitude": 33.69964, "Longitude": -117.88743}, {"Sequence": 23, "PersonId": 289032, "AddressId": 1629537, "Specialty": "General Practice", "Photo": "findadentist.ada.org/Images/Profile/ADA.png", "Name": "Dr Lyndon T Phan", "Email": "", "Phone": "(714) 839-9925", "Address": "794 S Harbor Blvd Santa Ana, CA 92704-2339", "City": "Santa Ana", "State": "CA", "Zip": "92704-2339", "AddressLine1": "794 S Harbor Blvd", "AddressLine2": "", "Distance": 1.1, "Latitude": 33.73705, "Longitude": -117.92019}, {"Sequence": 24, "PersonId": 282436, "AddressId": 1622941, "Specialty": "General Practice", "Photo": "findadentist.ada.org/Images/Profile/ADA.png", "Name": "Dr Randy Fong", "Email": "", "Phone": "(714) 549-1903", "Address": "3620 S Bristol St Ste 208 Santa Ana, CA 92704-7315", "City": "Santa Ana", "State": "CA", "Zip": "92704-7315", "AddressLine1": "3620 S Bristol St Ste 208", "AddressLine2": "", "Distance": 2.1, "Latitude": 33.69964, "Longitude": -117.88743}, {"Sequence": 25, "PersonId": 287927, "AddressId": 1628432, "Specialty": "General Practice", "Photo": "findadentist.ada.org/Images/Profile/ADA.png", "Name": "Dr Vanessa L Bechtol", "Email": "novocaine456@hotmail.com", "Phone": "(714) 549-1409", "Address": "3620 S BRISTOL ST STE 210 Santa Ana, CA 92704-6210", "City": "Santa Ana", "State": "CA", "Zip": "92704-6210", "AddressLine1": "3620 S BRISTOL ST STE 210", "AddressLine2": "", "Distance": 1.6, "Latitude": 33.71036, "Longitude": -117.88593}, {"Sequence": 26, "PersonId": 196336, "AddressId": 2766393, "Specialty": "General Practice", "Photo": "findadentist.ada.org/Images/Profile/ADA.png", "Name": "Dr. Eric Olguin", "Email": "eolg@sbcglobal.net", "Phone": "(714) 775-7722", "Address": "3750 W Mcfadden Ave Ste D Santa Ana, CA 92704-1388", "City": "Santa Ana", "State": "CA", "Zip": "92704-1388", "AddressLine1": "3750 W Mcfadden Ave Ste D", "AddressLine2": "", "Distance": 1.1, "Latitude": 33.73687, "Longitude": -117.91917}, {"Sequence": 27, "PersonId": 282431, "AddressId": 1622936, "Specialty": "General Practice", "Photo": "findadentist.ada.org/Images/Profile/ADA.png", "Name": "Dr Elisa M. Lobue-Campbell", "Email": "", "Phone": "(714) 241-7027", "Address": "3930 S Bristol St Ste 202 Santa Ana, CA 92704-7431", "City": "Santa Ana", "State": "CA", "Zip": "92704-7431", "AddressLine1": "3930 S Bristol St Ste 202", "AddressLine2": "", "Distance": 2.4, "Latitude": 33.69487, "Longitude": -117.88591}, {"Sequence": 28, "PersonId": 239775, "AddressId": 2738603, "Specialty": "General Practice", "Photo": "findadentist.ada.org/Images/Profile/ADA.png", "Name": "Dr. Scarlet S Saini", "Email": "", "Phone": null, "Address": "2206 S Bristol St Santa Ana, CA 92704-5125", "City": "Santa Ana", "State": "CA", "Zip": "92704-5125", "AddressLine1": "2206 S Bristol St", "AddressLine2": "", "Distance": 1.4, "Latitude": 33.71713, "Longitude": -117.88532}, {"Sequence": 29, "PersonId": 187422, "AddressId": 1527927, "Specialty": "General Practice", "Photo": "findadentist.ada.org/Images/Profile/ADA.png", "Name": "Dr. Shireen Dejbakhsh", "Email": "", "Phone": "(626) 422-0501", "Address": "3620 S Bristol St Ste 202 Santa Ana, CA 92704-7315", "City": "Santa Ana", "State": "CA", "Zip": "92704-7315", "AddressLine1": "3620 S Bristol St Ste 202", "AddressLine2": "", "Distance": 2.1, "Latitude": 33.69964, "Longitude": -117.88743}, {"Sequence": 30, "PersonId": 290016, "AddressId": 1630521, "Specialty": "General Practice", "Photo": "findadentist.ada.org/Images/Profile/ADA.png", "Name": "Dr Phuong P Tran", "Email": "", "Phone": "(714) 902-9300", "Address": "1103 S Harbor Blvd Ste D Santa Ana, CA 92704-2347", "City": "Santa Ana", "State": "CA", "Zip": "92704-2347", "AddressLine1": "1103 S Harbor Blvd Ste D", "AddressLine2": null, "Distance": 0.9, "Latitude": 33.73389, "Longitude": -117.91915}, {"Sequence": 31, "PersonId": 281860, "AddressId": 1622365, "Specialty": "General Practice", "Photo": "findadentist.ada.org/Images/Profile/ADA.png", "Name": "Dr Nancy N Dinh", "Email": "", "Phone": "(714) 751-4072", "Address": "2619 W Edinger Ave Ste A3 Santa Ana, CA 92704-3501", "City": "Santa Ana", "State": "CA", "Zip": "92704-3501", "AddressLine1": "2619 W Edinger Ave Ste A3", "AddressLine2": null, "Distance": 0.3, "Latitude": 33.72757, "Longitude": -117.90445}, {"Sequence": 32, "PersonId": 207321, "AddressId": 3468307, "Specialty": "General Practice", "Photo": "findadentist.ada.org/Images/Profile/ADA.png", "Name": "Dr. Josephine S Dumalaog", "Email": "admin@drcruzdds.com", "Phone": "(714) 556-1000", "Address": "2406 W Edinger Ave Se A Santa Ana, CA 92704-3544", "City": "Santa Ana", "State": "CA", "Zip": "92704-3544", "AddressLine1": "2406 W Edinger Ave Se A", "AddressLine2": "", "Distance": 0.4, "Latitude": 33.72697, "Longitude": -117.9014}, {"Sequence": 33, "PersonId": 282309, "AddressId": 3303560, "Specialty": "General Practice", "Photo": "findadentist.ada.org/Images/Profile/ADA.png", "Name": "Dr Bich-Thuy Hoang", "Email": "", "Phone": "(562) 861-0985", "Address": "3739 S Plaza Dr Santa Ana, CA 92704-7463", "City": "Santa Ana", "State": "CA", "Zip": "92704-7463", "AddressLine1": "3739 S Plaza Dr", "AddressLine2": "", "Distance": 2.2, "Latitude": 33.69713, "Longitude": -117.88828}, {"Sequence": 34, "PersonId": 187397, "AddressId": 2771134, "Specialty": "General Practice", "Photo": "findadentist.ada.org/Images/Profile/ADA.png", "Name": "Dr. Karen E Anderson", "Email": "", "Phone": null, "Address": "1610 W Edinger Ave Ste C Santa Ana, CA 92704-4339", "City": "Santa Ana", "State": "CA", "Zip": "92704-4339", "AddressLine1": "1610 W Edinger Ave Ste C", "AddressLine2": "", "Distance": 1.0, "Latitude": 33.7269, "Longitude": -117.88953}, {"Sequence": 35, "PersonId": 206315, "AddressId": 2766407, "Specialty": "General Practice", "Photo": "findadentist.ada.org/Images/Profile/ADA.png", "Name": "Dr. Brian Haig", "Email": "BRIANRHAIGDDS@YAHOO.COM", "Phone": "(714) 979-7277", "Address": "3620 S Bristol St Ste 301 Santa Ana, CA 92704-7316", "City": "Santa Ana", "State": "CA", "Zip": "92704-7316", "AddressLine1": "3620 S Bristol St Ste 301", "AddressLine2": "", "Distance": 2.1, "Latitude": 33.69964, "Longitude": -117.88743}, {"Sequence": 36, "PersonId": 281369, "AddressId": 1621874, "Specialty": "General Practice", "Photo": "findadentist.ada.org/Images/Profile/ADA.png", "Name": "Dr Michael S Kim", "Email": "", "Phone": "(714) 549-2135", "Address": "2800 W Warner Ave Ste G Santa Ana, CA 92704-5466", "City": "Santa Ana", "State": "CA", "Zip": "92704-5466", "AddressLine1": "2800 W Warner Ave Ste G", "AddressLine2": "", "Distance": 0.7, "Latitude": 33.71478, "Longitude": -117.90683}, {"Sequence": 37, "PersonId": 282048, "AddressId": 1622553, "Specialty": "General Practice", "Photo": "findadentist.ada.org/Images/Profile/ADA.png", "Name": "Dr Raymond G Ching", "Email": "Raymondching@mail.com", "Phone": "(714) 540-9434", "Address": "3620 S Bristol St Ste 105 Santa Ana, CA 92704-7314", "City": "Santa Ana", "State": "CA", "Zip": "92704-7314", "AddressLine1": "3620 S Bristol St Ste 105", "AddressLine2": "", "Distance": 2.1, "Latitude": 33.69964, "Longitude": -117.88743}, {"Sequence": 38, "PersonId": 282341, "AddressId": 1622846, "Specialty": "General Practice", "Photo": "findadentist.ada.org/Images/Profile/ADA.png", "Name": "Dr Christine T Tram", "Email": "", "Phone": "(714) 546-0450", "Address": "2414 S Fairview St Ste 109 Santa Ana, CA 92704-5318", "City": "Santa Ana", "State": "CA", "Zip": "92704-5318", "AddressLine1": "2414 S Fairview St Ste 109", "AddressLine2": "", "Distance": 0.7, "Latitude": 33.71437, "Longitude": -117.90844}, {"Sequence": 39, "PersonId": 282327, "AddressId": 1622832, "Specialty": "General Practice", "Photo": "findadentist.ada.org/Images/Profile/ADA.png", "Name": "Dr. Anh P Nguyen", "Email": "", "Phone": "(714) 619-6280", "Address": "2144 S Bristol St Santa Ana, CA 92704-5123", "City": "Santa Ana", "State": "CA", "Zip": "92704-5123", "AddressLine1": "2144 S Bristol St", "AddressLine2": "", "Distance": 1.3, "Latitude": 33.71773, "Longitude": -117.88661}, {"Sequence": 40, "PersonId": 282479, "AddressId": 1622984, "Specialty": "General Practice", "Photo": "findadentist.ada.org/Images/Profile/ADA.png", "Name": "Dr Katie K Tran", "Email": "", "Phone": "(714) 850-1211", "Address": "1212 S Bristol St Santa Ana, CA 92704-3476", "City": "Santa Ana", "State": "CA", "Zip": "92704-3476", "AddressLine1": "1212 S Bristol St", "AddressLine2": "", "Distance": 1.3, "Latitude": 33.73195, "Longitude": -117.88594}, {"Sequence": 41, "PersonId": 213223, "AddressId": 1553728, "Specialty": "General Practice", "Photo": "findadentist.ada.org/Images/Profile/ADA.png", "Name": "Dr. Jimmy B Tran", "Email": "", "Phone": "(714) 557-7744", "Address": "3620 S. Bristol St. Santa Ana, CA 92704", "City": "Santa Ana", "State": "CA", "Zip": "92704", "AddressLine1": "3620 S. Bristol St.", "AddressLine2": "Suite 302", "Distance": 2.1, "Latitude": 33.69963, "Longitude": -117.8876}, {"Sequence": 42, "PersonId": 217308, "AddressId": 3551026, "Specialty": "General Practice", "Photo": "findadentist.ada.org/Images/Profile/ADA.png", "Name": "Dr. Bojun Park", "Email": "parks.northgate.dental@gmail.com", "Phone": "(877) 697-2464", "Address": "1112 S. Bristol St. Santa Ana, CA 92704", "City": "Santa Ana", "State": "CA", "Zip": "92704", "AddressLine1": "1112 S. Bristol St.", "AddressLine2": "", "Distance": 1.4, "Latitude": 33.73395, "Longitude": -117.88608}, {"Sequence": 43, "PersonId": 281603, "AddressId": 1622108, "Specialty": "General Practice", "Photo": "findadentist.ada.org/Images/Profile/ADA.png", "Name": "Dr Phuongly T Bui", "Email": "", "Phone": "(714) 839-9925", "Address": "794 S Harbor Blvd Santa Ana, CA 92704-2339", "City": "Santa Ana", "State": "CA", "Zip": "92704-2339", "AddressLine1": "794 S Harbor Blvd", "AddressLine2": "", "Distance": 1.1, "Latitude": 33.73705, "Longitude": -117.92019}, {"Sequence": 44, "PersonId": 220927, "AddressId": 1561432, "Specialty": "General Practice", "Photo": "findadentist.ada.org/Images/Profile/ADA.png", "Name": "Dr. Tamer W Shalaby", "Email": "INFO@BRISTOL-DENTAL.COM", "Phone": "(714) 754-1888", "Address": "2835 S Bristol St Ste A Santa Ana, CA 92704", "City": "Santa Ana", "State": "CA", "Zip": "92704", "AddressLine1": "2835 S Bristol St Ste A", "AddressLine2": "", "Distance": 1.7, "Latitude": 33.70885, "Longitude": -117.88486}, {"Sequence": 45, "PersonId": 126714, "AddressId": 2718723, "Specialty": "General Practice", "Photo": "findadentist.ada.org/Images/Profile/ADA.png", "Name": "Dr. Majid Kashani", "Email": "", "Phone": null, "Address": "2781 W Macarthur Blvd Ste N Santa Ana, CA 92704-7095", "City": "Santa Ana", "State": "CA", "Zip": "92704-7095", "AddressLine1": "2781 W Macarthur Blvd Ste N", "AddressLine2": "", "Distance": 1.6, "Latitude": 33.70141, "Longitude": -117.90692}, {"Sequence": 46, "PersonId": 217308, "AddressId": 3551026, "Specialty": "General Practice", "Photo": "findadentist.ada.org/Images/Profile/ADA.png", "Name": "Dr. Bojun Park", "Email": "parks.northgate.dental@gmail.com", "Phone": "(714) 668-9884", "Address": "1112 S. Bristol St. Santa Ana, CA 92704", "City": "Santa Ana", "State": "CA", "Zip": "92704", "AddressLine1": "1112 S. Bristol St.", "AddressLine2": "", "Distance": 1.4, "Latitude": 33.73395, "Longitude": -117.88608}, {"Sequence": 47, "PersonId": 282157, "AddressId": 1622662, "Specialty": "General Practice", "Photo": "findadentist.ada.org/Images/Profile/ADA.png", "Name": "Dr Navid Ghods", "Email": "NAVIDG@HOTMAIL.COM", "Phone": "(714) 424-0046", "Address": "3620 S Bristol St Ste 104 Santa Ana, CA 92704-7314", "City": "Santa Ana", "State": "CA", "Zip": "92704-7314", "AddressLine1": "3620 S Bristol St Ste 104", "AddressLine2": null, "Distance": 2.1, "Latitude": 33.69964, "Longitude": -117.88743}, {"Sequence": 48, "PersonId": 144588, "AddressId": 1485093, "Specialty": "General Practice", "Photo": "findadentist.ada.org/Images/Profile/ADA.png", "Name": "Dr. Vina D Tran", "Email": "", "Phone": "(714) 549-1788", "Address": "3310 S Bristol St Santa Ana, CA 92704-8201", "City": "Santa Ana", "State": "CA", "Zip": "92704-8201", "AddressLine1": "3310 S Bristol St", "AddressLine2": "", "Distance": 1.9, "Latitude": 33.70348, "Longitude": -117.88624}, {"Sequence": 49, "PersonId": 135631, "AddressId": 1476136, "Specialty": "Pediatric Dentistry", "Photo": "findadentist.ada.org/Images/Profile/ADA.png", "Name": "Dr. Trina Melancon", "Email": "", "Phone": "(714) 546-9999", "Address": "3930 S Bristol St Ste 201 Santa Ana, CA 92704-7431", "City": "Santa Ana", "State": "CA", "Zip": "92704-7431", "AddressLine1": "3930 S Bristol St Ste 201", "AddressLine2": "", "Distance": 2.4, "Latitude": 33.69487, "Longitude": -117.88591}, {"Sequence": 50, "PersonId": 207229, "AddressId": 1547734, "Specialty": "General Practice", "Photo": "findadentist.ada.org/Images/Profile/ADA.png", "Name": "Dr. Edwin P Cruz", "Email": "", "Phone": "(714) 556-1000", "Address": "2406 W Edinger Ave Ste A Santa Ana, CA 92704-3544", "City": "Santa Ana", "State": "CA", "Zip": "92704-3544", "AddressLine1": "2406 W Edinger Ave Ste A", "AddressLine2": "", "Distance": 0.4, "Latitude": 33.72695, "Longitude": -117.90128}]