[{"Sequence": 1, "PersonId": 201055, "AddressId": 2722677, "Specialty": "General Practice", "Photo": "findadentist.ada.org/Images/Profile/201055-Dr-Noemi-Taguinod.png", "Name": "Dr. Noemi G Taguinod", "Email": "ntdentalcorp@gmail.com", "Phone": null, "Address": "408 S Beach Blvd Ste 113 Anaheim, CA 92804-1876", "City": "Anaheim", "State": "CA", "Zip": "92804-1876", "AddressLine1": "408 S Beach Blvd Ste 113", "AddressLine2": "", "Distance": 1.6, "Latitude": 33.8271, "Longitude": -117.99277}, {"Sequence": 2, "PersonId": 123701, "AddressId": 2766610, "Specialty": "General Practice", "Photo": "findadentist.ada.org/Images/Profile/123701-Dr-Behnaz-Nonahal.png", "Name": "Dr. Behnaz Nonahal", "Email": "help@adentist4me.com", "Phone": "(714) 527-7775", "Address": "8516 Katella Ave Anaheim, CA 92804-6233", "City": "Anaheim", "State": "CA", "Zip": "92804-6233", "AddressLine1": "8516 Katella Ave", "AddressLine2": "", "Distance": 1.8, "Latitude": 33.80257, "Longitude": -117.98402}, {"Sequence": 3, "PersonId": 198765, "AddressId": 1539270, "Specialty": "General Practice", "Photo": "findadentist.ada.org/Images/Profile/198765-Dr-Trang Khanh-Vu.png", "Name": "Dr. Trang Khanh T Vu", "Email": "", "Phone": "(714) 484-4636", "Address": "3340 W Ball Rd Ste G Anaheim, CA 92804-3729", "City": "Anaheim", "State": "CA", "Zip": "92804-3729", "AddressLine1": "3340 W Ball Rd Ste G", "AddressLine2": null, "Distance": 2.4, "Latitude": 33.81695, "Longitude": -118.00685}, {"Sequence": 4, "PersonId": 168821, "AddressId": 1509326, "Specialty": "General Practice", "Photo": "findadentist.ada.org/Images/Profile/ADA.png", "Name": "Dr. Tu V Huynh", "Email": "", "Phone": "(714) 535-0998", "Address": "111 S Brookhurst St Anaheim, CA 92804-2407", "City": "Anaheim", "State": "CA", "Zip": "92804-2407", "AddressLine1": "111 S Brookhurst St", "AddressLine2": "", "Distance": 0.7, "Latitude": 33.83206, "Longitude": -117.9595}, {"Sequence": 5, "PersonId": 247450, "AddressId": 2773675, "Specialty": "General Practice", "Photo": "findadentist.ada.org/Images/Profile/ADA.png", "Name": "Dr. PhuongThao N Tran", "Email": "", "Phone": null, "Address": "1316 S Magnolia Ave Anaheim, CA 92804-5118", "City": "Anaheim", "State": "CA", "Zip": "92804-5118", "AddressLine1": "1316 S Magnolia Ave", "AddressLine2": "", "Distance": 0.8, "Latitude": 33.81487, "Longitude": -117.9758}, {"Sequence": 6, "PersonId": 281689, "AddressId": 1622194, "Specialty": "General Practice", "Photo": "findadentist.ada.org/Images/Profile/ADA.png", "Name": "Dr Koren I Ikeda", "Email": "", "Phone": "(714) 761-0564", "Address": "930 S Knott Ave Ste I Anaheim, CA 92804-3653", "City": "Anaheim", "State": "CA", "Zip": "92804-3653", "AddressLine1": "930 S Knott Ave Ste I", "AddressLine2": null, "Distance": 2.6, "Latitude": 33.81787, "Longitude": -118.01034}, {"Sequence": 7, "PersonId": 237418, "AddressId": 1577923, "Specialty": "General Practice", "Photo": "findadentist.ada.org/Images/Profile/ADA.png", "Name": "Dr. Nonelle Chin", "Email": "", "Phone": "(714) 527-4404", "Address": "910 S Knott Ave Ste 102 Anaheim, CA 92804-8675", "City": "Anaheim", "State": "CA", "Zip": "92804-8675", "AddressLine1": "910 S Knott Ave Ste 102", "AddressLine2": "", "Distance": 2.6, "Latitude": 33.81843, "Longitude": -118.01043}, {"Sequence": 8, "PersonId": 281879, "AddressId": 1622384, "Specialty": "Orthodontics and Dentofacial Orthopedics", "Photo": "findadentist.ada.org/Images/Profile/ADA.png", "Name": "Dr P Siriwat", "Email": "PENNYBRACES@SBCGLOBAL.NET", "Phone": "(714) 527-9006", "Address": "515 S Beach Blvd Ste C Anaheim, CA 92804-1812", "City": "Anaheim", "State": "CA", "Zip": "92804-1812", "AddressLine1": "515 S Beach Blvd Ste C", "AddressLine2": "", "Distance": 1.6, "Latitude": 33.8256, "Longitude": -117.99385}, {"Sequence": 9, "PersonId": 275881, "AddressId": 1616386, "Specialty": "Orthodontics and Dentofacial Orthopedics", "Photo": "findadentist.ada.org/Images/Profile/ADA.png", "Name": "Dr. Flora Y Chen", "Email": "", "Phone": "(714) 220-5888", "Address": "3356 W Ball Rd Ste 118 Anaheim, CA 92804-3727", "City": "Anaheim", "State": "CA", "Zip": "92804-3727", "AddressLine1": "3356 W Ball Rd Ste 118", "AddressLine2": "", "Distance": 2.4, "Latitude": 33.81679, "Longitude": -118.00753}, {"Sequence": 10, "PersonId": 205773, "AddressId": 1546278, "Specialty": "General Practice", "Photo": "findadentist.ada.org/Images/Profile/ADA.png", "Name": "Dr. William Wu", "Email": "", "Phone": null, "Address": "10600 Katella Ave Anaheim, CA 92804-6607", "City": "Anaheim", "State": "CA", "Zip": "92804-6607", "AddressLine1": "10600 Katella Ave", "AddressLine2": "", "Distance": 1.8, "Latitude": 33.80275, "Longitude": -117.94841}, {"Sequence": 11, "PersonId": 230985, "AddressId": 1571490, "Specialty": "General Practice", "Photo": "findadentist.ada.org/Images/Profile/ADA.png", "Name": "Dr. Jiachang Zhang", "Email": "", "Phone": "(714) 927-1222", "Address": "408 S Beach Blvd Ste B Anaheim, CA 92804-1853", "City": "Anaheim", "State": "CA", "Zip": "92804-1853", "AddressLine1": "408 S Beach Blvd Ste B", "AddressLine2": null, "Distance": 1.6, "Latitude": 33.8271, "Longitude": -117.99277}, {"Sequence": 12, "PersonId": 192170, "AddressId": 1532675, "Specialty": "General Practice", "Photo": "findadentist.ada.org/Images/Profile/ADA.png", "Name": "Dr. Kim Bui", "Email": "caredentalinc@yahoo.com", "Phone": "(714) 995-3415", "Address": "3203 W Ball Rd Anaheim, CA 92804-3705", "City": "Anaheim", "State": "CA", "Zip": "92804-3705", "AddressLine1": "3203 W Ball Rd", "AddressLine2": "", "Distance": 2.1, "Latitude": 33.81764, "Longitude": -118.00235}, {"Sequence": 13, "PersonId": 281682, "AddressId": 1622187, "Specialty": "General Practice", "Photo": "findadentist.ada.org/Images/Profile/ADA.png", "Name": "Dr Ronald T Takata", "Email": "", "Phone": "(714) 761-0564", "Address": "930 S Knott Ave Ste I Anaheim, CA 92804-3653", "City": "Anaheim", "State": "CA", "Zip": "92804-3653", "AddressLine1": "930 S Knott Ave Ste I", "AddressLine2": null, "Distance": 2.6, "Latitude": 33.81787, "Longitude": -118.01034}, {"Sequence": 14, "PersonId": 257156, "AddressId": 2817766, "Specialty": "General Practice", "Photo": "findadentist.ada.org/Images/Profile/ADA.png", "Name": "Dr. Andrew Vu", "Email": "", "Phone": null, "Address": "1316 S Magnolia Ave Anaheim, CA 92804-5118", "City": "Anaheim", "State": "CA", "Zip": "92804-5118", "AddressLine1": "1316 S Magnolia Ave", "AddressLine2": "", "Distance": 0.7, "Latitude": 33.81674, "Longitude": -117.97581}, {"Sequence": 15, "PersonId": 282124, "AddressId": 1622629, "Specialty": "General Practice", "Photo": "findadentist.ada.org/Images/Profile/ADA.png", "Name": "Dr Michael S Morrill", "Email": "", "Phone": "(714) 991-3433", "Address": "10722 Katella Ave Ste 1 Anaheim, CA 92804-8104", "City": "Anaheim", "State": "CA", "Zip": "92804-8104", "AddressLine1": "10722 Katella Ave Ste 1", "AddressLine2": null, "Distance": 1.8, "Latitude": 33.80283, "Longitude": -117.94603}, {"Sequence": 16, "PersonId": 135876, "AddressId": 1476381, "Specialty": "Pediatric Dentistry", "Photo": "findadentist.ada.org/Images/Profile/ADA.png", "Name": "Dr. Peter Chen", "Email": "", "Phone": "(949) 786-0583", "Address": "408 S Beach Blvd Ste 201 Anaheim, CA 92804-1800", "City": "Anaheim", "State": "CA", "Zip": "92804-1800", "AddressLine1": "408 S Beach Blvd Ste 201", "AddressLine2": "", "Distance": 1.6, "Latitude": 33.8271, "Longitude": -117.99277}, {"Sequence": 17, "PersonId": 282024, "AddressId": 1622529, "Specialty": "General Practice", "Photo": "findadentist.ada.org/Images/Profile/ADA.png", "Name": "Dr Huyen-Trang Ton", "Email": "trangton63@gmail.com", "Phone": "(714) 778-4767", "Address": "2247 W Ball Rd Anaheim, CA 92804-5314", "City": "Anaheim", "State": "CA", "Zip": "92804-5314", "AddressLine1": "2247 W Ball Rd", "AddressLine2": "", "Distance": 0.4, "Latitude": 33.81854, "Longitude": -117.96161}, {"Sequence": 18, "PersonId": 212317, "AddressId": 1552822, "Specialty": "General Practice", "Photo": "findadentist.ada.org/Images/Profile/ADA.png", "Name": "Dr. Maysoon M Saeed", "Email": "", "Phone": "(714) 758-0778", "Address": "710 S Brookhurst St Ste K Anaheim, CA 92804-4321", "City": "Anaheim", "State": "CA", "Zip": "92804-4321", "AddressLine1": "710 S Brookhurst St Ste K", "AddressLine2": "", "Distance": 0.4, "Latitude": 33.82203, "Longitude": -117.95836}, {"Sequence": 19, "PersonId": 291851, "AddressId": 1632356, "Specialty": "General Practice", "Photo": "findadentist.ada.org/Images/Profile/ADA.png", "Name": "Dr James K Lin", "Email": "", "Phone": "(714) 758-7777", "Address": "10600 Katella Ave Anaheim, CA 92804-6607", "City": "Anaheim", "State": "CA", "Zip": "92804-6607", "AddressLine1": "10600 Katella Ave", "AddressLine2": null, "Distance": 1.8, "Latitude": 33.80275, "Longitude": -117.94841}, {"Sequence": 20, "PersonId": 131955, "AddressId": 2901369, "Specialty": "General Practice", "Photo": "findadentist.ada.org/Images/Profile/ADA.png", "Name": "Dr. Henry H Tran", "Email": "", "Phone": "(760) 439-0025", "Address": "545 S Knott Ave Anaheim, CA 92804-2807", "City": "Anaheim", "State": "CA", "Zip": "92804-2807", "AddressLine1": "545 S Knott Ave", "AddressLine2": "", "Distance": 2.6, "Latitude": 33.82488, "Longitude": -118.01137}, {"Sequence": 21, "PersonId": 151208, "AddressId": 1491713, "Specialty": "General Practice", "Photo": "findadentist.ada.org/Images/Profile/ADA.png", "Name": "Dr. Quang D Huynh", "Email": "Drqdds@hotmail.com", "Phone": "(714) 952-3746", "Address": "321 S Magnolia Ave Anaheim, CA 92804-2115", "City": "Anaheim", "State": "CA", "Zip": "92804-2115", "AddressLine1": "321 S Magnolia Ave", "AddressLine2": "", "Distance": 0.6, "Latitude": 33.82759, "Longitude": -117.97605}, {"Sequence": 22, "PersonId": 281478, "AddressId": 2875029, "Specialty": "General Practice", "Photo": "findadentist.ada.org/Images/Profile/ADA.png", "Name": "Dr J Scott Sellens", "Email": "", "Phone": "(714) 774-9239", "Address": "710 S Brookhurst St Anaheim, CA 92804-4321", "City": "Anaheim", "State": "CA", "Zip": "92804-4321", "AddressLine1": "710 S Brookhurst St", "AddressLine2": "Suite N", "Distance": 0.5, "Latitude": 33.82181, "Longitude": -117.95818}, {"Sequence": 23, "PersonId": 134581, "AddressId": 1475086, "Specialty": "Pediatric Dentistry", "Photo": "findadentist.ada.org/Images/Profile/ADA.png", "Name": "Dr. Kathy Ying", "Email": "", "Phone": "(714) 229-8100", "Address": "408 S Beach Blvd Ste 201 Anaheim, CA 92804-1800", "City": "Anaheim", "State": "CA", "Zip": "92804-1800", "AddressLine1": "408 S Beach Blvd Ste 201", "AddressLine2": "", "Distance": 1.6, "Latitude": 33.82712, "Longitude": -117.99288}, {"Sequence": 24, "PersonId": 151017, "AddressId": 1491522, "Specialty": "Prosthodontics", "Photo": "findadentist.ada.org/Images/Profile/ADA.png", "Name": "Dr. Elaine Tamiko", "Email": "", "Phone": "(714) 904-9371", "Address": "2247 W Ball Rd Anaheim, CA 92804-5314", "City": "Anaheim", "State": "CA", "Zip": "92804-5314", "AddressLine1": "2247 W Ball Rd", "AddressLine2": "", "Distance": 0.4, "Latitude": 33.81837, "Longitude": -117.96174}]