[{"Sequence": 1, "PersonId": 266698, "AddressId": 3061826, "Specialty": "General Practice", "Photo": "findadentist.ada.org/Images/Profile/266698-Dr-Lawryn -Monterroso.png", "Name": "Dr. Lawryn A Monterroso", "Email": "vicki@drhardt.com", "Phone": "(559) 784-6523", "Address": "174 N Villa St Porterville, CA 93257-3218", "City": "Porterville", "State": "CA", "Zip": "93257-3218", "AddressLine1": "174 N Villa St", "AddressLine2": "", "Distance": 0.8, "Latitude": 36.06891, "Longitude": -119.03056}, {"Sequence": 2, "PersonId": 182643, "AddressId": 1523148, "Specialty": "General Practice", "Photo": "findadentist.ada.org/Images/Profile/182643-Dr-Richard-Hardt.png", "Name": "Dr. Richard A Hardt", "Email": "vicki@drhardt.com", "Phone": "(559) 784-6523", "Address": "174 N Villa Porterville, CA 93257", "City": "Porterville", "State": "CA", "Zip": "93257", "AddressLine1": "174 N Villa", "AddressLine2": "", "Distance": 0.8, "Latitude": 36.06891, "Longitude": -119.03056}, {"Sequence": 3, "PersonId": 218943, "AddressId": 1559448, "Specialty": "General Practice", "Photo": "findadentist.ada.org/Images/Profile/218943-Dr-Rene-Herrera.png", "Name": "Dr. Rene Herrera", "Email": "", "Phone": "(559) 781-2729", "Address": "141 E Putnam Ave Porterville, CA 93257-3832", "City": "Porterville", "State": "CA", "Zip": "93257-3832", "AddressLine1": "141 E Putnam Ave", "AddressLine2": "", "Distance": 0.3, "Latitude": 36.06924, "Longitude": -119.01336}, {"Sequence": 4, "PersonId": 198233, "AddressId": 3403235, "Specialty": "General Practice", "Photo": "findadentist.ada.org/Images/Profile/198233-Dr-Gregory-Bower.png", "Name": "Dr. Gregory D Bower", "Email": "svdentalgroup@gmail.com", "Phone": "(559) 784-1922", "Address": "821 W. Morton Ave Porterville, CA 93257", "City": "Porterville", "State": "CA", "Zip": "93257", "AddressLine1": "821 W. Morton Ave", "AddressLine2": "", "Distance": 1.2, "Latitude": 36.07283, "Longitude": -119.03556}, {"Sequence": 5, "PersonId": 182583, "AddressId": 1523088, "Specialty": "General Practice", "Photo": "findadentist.ada.org/Images/Profile/182583-Dr-Cameron-Torabi.png", "Name": "Dr. Cameron S Torabi", "Email": "", "Phone": "(559) 781-1122", "Address": "131 E Mill Ave Porterville, CA 93257-3831", "City": "Porterville", "State": "CA", "Zip": "93257-3831", "AddressLine1": "131 E Mill Ave", "AddressLine2": "", "Distance": 0.3, "Latitude": 36.06855, "Longitude": -119.01356}, {"Sequence": 6, "PersonId": 182712, "AddressId": 1523217, "Specialty": "General Practice", "Photo": "findadentist.ada.org/Images/Profile/182712-Dr-Steven-Lewis.png", "Name": "Dr. Steven E Lewis", "Email": "", "Phone": "(559) 781-0223", "Address": "140 N Villa St Porterville, CA 93257-3218", "City": "Porterville", "State": "CA", "Zip": "93257-3218", "AddressLine1": "140 N Villa St", "AddressLine2": "", "Distance": 0.8, "Latitude": 36.06852, "Longitude": -119.03046}, {"Sequence": 7, "PersonId": 182699, "AddressId": 2773225, "Specialty": "Pediatric Dentistry", "Photo": "findadentist.ada.org/Images/Profile/182699-Dr-George-Wilson.png", "Name": "Dr. George M Wilson", "Email": "", "Phone": "(559) 781-9117", "Address": "380 W Putnam Ave Porterville, CA 93257-3323", "City": "Porterville", "State": "CA", "Zip": "93257-3323", "AddressLine1": "380 W Putnam Ave", "AddressLine2": "", "Distance": 0.6, "Latitude": 36.06969, "Longitude": -119.02548}, {"Sequence": 8, "PersonId": 284745, "AddressId": 1625250, "Specialty": "General Practice", "Photo": "findadentist.ada.org/Images/Profile/284745-Dr-Elwin-Hutchins.png", "Name": "Dr Elwin R Hutchins", "Email": "", "Phone": "(559) 564-8878", "Address": "350 N 2nd St Porterville, CA 93257-3847", "City": "Porterville", "State": "CA", "Zip": "93257-3847", "AddressLine1": "350 N 2nd St", "AddressLine2": "", "Distance": 0.5, "Latitude": 36.07199, "Longitude": -119.01487}, {"Sequence": 9, "PersonId": 258666, "AddressId": 1599171, "Specialty": "General Practice", "Photo": "findadentist.ada.org/Images/Profile/ADA.png", "Name": "Dr. Chitra V Shanmugham", "Email": "", "Phone": "(951) 249-5650", "Address": "1213 W Henderson Ave Porterville, CA 93257-1454", "City": "Porterville", "State": "CA", "Zip": "93257-1454", "AddressLine1": "1213 W Henderson Ave", "AddressLine2": "", "Distance": 1.8, "Latitude": 36.08008, "Longitude": -119.04429}, {"Sequence": 10, "PersonId": 182544, "AddressId": 3403274, "Specialty": "General Practice", "Photo": "findadentist.ada.org/Images/Profile/ADA.png", "Name": "Dr. Jonathan M Richey", "Email": "svdentalgroup@gmail.com", "Phone": "(559) 784-1922", "Address": "821 W. Morton Porterville, CA 93257", "City": "Porterville", "State": "CA", "Zip": "93257", "AddressLine1": "821 W. Morton", "AddressLine2": "", "Distance": 1.2, "Latitude": 36.07283, "Longitude": -119.03556}, {"Sequence": 11, "PersonId": 144994, "AddressId": 1485499, "Specialty": "General Practice", "Photo": "findadentist.ada.org/Images/Profile/ADA.png", "Name": "Dr. Todd M Yost", "Email": "", "Phone": "(559) 784-0894", "Address": "240 W Cherry Ave Porterville, CA 93257-3402", "City": "Porterville", "State": "CA", "Zip": "93257-3402", "AddressLine1": "240 W Cherry Ave", "AddressLine2": "", "Distance": 0.4, "Latitude": 36.06915, "Longitude": -119.02188}, {"Sequence": 12, "PersonId": 252368, "AddressId": 1592873, "Specialty": "Dental Public Health", "Photo": "findadentist.ada.org/Images/Profile/ADA.png", "Name": "Dr. Preeti Prakash", "Email": "", "Phone": null, "Address": "2524 W Memory Ln Porterville, CA 93257-6929", "City": "Porterville", "State": "CA", "Zip": "93257-6929", "AddressLine1": "2524 W Memory Ln", "AddressLine2": null, "Distance": 3.3, "Latitude": 36.07846, "Longitude": -119.0738}, {"Sequence": 13, "PersonId": 214237, "AddressId": 1554742, "Specialty": "General Practice", "Photo": "findadentist.ada.org/Images/Profile/ADA.png", "Name": "Dr. Sung-Ho Kim", "Email": "", "Phone": "(559) 781-3641", "Address": "663 N Westwood St Ste B Porterville, CA 93257-6930", "City": "Porterville", "State": "CA", "Zip": "93257-6930", "AddressLine1": "663 N Westwood St Ste B", "AddressLine2": "", "Distance": 3.1, "Latitude": 36.07743, "Longitude": -119.07086}, {"Sequence": 14, "PersonId": 219931, "AddressId": 1560436, "Specialty": "General Practice", "Photo": "findadentist.ada.org/Images/Profile/ADA.png", "Name": "Dr. Mohamed Abdel A Gouda", "Email": "galaxydental827@gmail.com", "Phone": "(559) 782-9297", "Address": "827 W Henderson Ave Porterville, CA 93257-1742", "City": "Porterville", "State": "CA", "Zip": "93257-1742", "AddressLine1": "827 W Henderson Ave", "AddressLine2": "", "Distance": 1.5, "Latitude": 36.08041, "Longitude": -119.03562}]