[{"Sequence": 1, "PersonId": 289742, "AddressId": 2718165, "Specialty": "Orthodontics and Dentofacial Orthopedics", "Photo": "findadentist.ada.org/Images/Profile/289742-Dr-Gilbert-Snow.png", "Name": "Dr Gilbert H Snow", "Email": "", "Phone": "(661) 945-2771", "Address": "161 E Avenue J Ste C Lancaster, CA 93535-3520", "City": "Lancaster", "State": "CA", "Zip": "93535-3520", "AddressLine1": "161 E Avenue J Ste C", "AddressLine2": "", "Distance": 14.5, "Latitude": 34.68981, "Longitude": -118.12825}, {"Sequence": 2, "PersonId": 289245, "AddressId": 1629750, "Specialty": "General Practice", "Photo": "findadentist.ada.org/Images/Profile/289245-Dr-Bradford-Boyd.png", "Name": "Dr Bradford M Boyd", "Email": "debbie@avdentalwellness.com", "Phone": "(661) 942-1179", "Address": "151 E Avenue J Ste A Lancaster, CA 93535-3520", "City": "Lancaster", "State": "CA", "Zip": "93535-3520", "AddressLine1": "151 E Avenue J Ste A", "AddressLine2": "", "Distance": 14.5, "Latitude": 34.68989, "Longitude": -118.12866}, {"Sequence": 3, "PersonId": 257736, "AddressId": 2961182, "Specialty": "General Practice", "Photo": "findadentist.ada.org/Images/Profile/257736-Dr-Christy-Lee.png", "Name": "Dr. Christy A Lee", "Email": "debbie@avdentalwellness.com", "Phone": "(661) 942-1179", "Address": "151 E Avenue J Ste A Lancaster, CA 93535-3520", "City": "Lancaster", "State": "CA", "Zip": "93535-3520", "AddressLine1": "151 E Avenue J Ste A", "AddressLine2": "", "Distance": 14.5, "Latitude": 34.68995, "Longitude": -118.12864}, {"Sequence": 4, "PersonId": 218790, "AddressId": 1559295, "Specialty": "Orthodontics and Dentofacial Orthopedics", "Photo": "findadentist.ada.org/Images/Profile/218790-Dr-Raphael-Separzadeh.png", "Name": "Dr. Raphael Separzadeh", "Email": "info@northridgedentalgroup.com", "Phone": null, "Address": "44407 Challenger Way Lancaster, CA 93535-3237", "City": "Lancaster", "State": "CA", "Zip": "93535-3237", "AddressLine1": "44407 Challenger Way", "AddressLine2": "", "Distance": 13.6, "Latitude": 34.68989, "Longitude": -118.11305}, {"Sequence": 5, "PersonId": 290634, "AddressId": 1631139, "Specialty": "General Practice", "Photo": "findadentist.ada.org/Images/Profile/290634-Dr-Michael-Simmons.png", "Name": "Dr Michael Simmons", "Email": "Info@DrMichaelSimmons.com", "Phone": "(818) 300-0070", "Address": "1029 Elizabeth Lake Rd Palmdale, CA 93551-3810", "City": "Palmdale", "State": "CA", "Zip": "93551-3810", "AddressLine1": "1029 Elizabeth Lake Rd", "AddressLine2": "", "Distance": 18.3, "Latitude": 34.58749, "Longitude": -118.14861}, {"Sequence": 6, "PersonId": 289990, "AddressId": 2697046, "Specialty": "General Practice", "Photo": "findadentist.ada.org/Images/Profile/289990-Dr-Robert-Khanian.png", "Name": "Dr Robert Khanian", "Email": "RobertKhanian@att.net", "Phone": "(661) 722-7722", "Address": "4023 W Avenue L Lancaster, CA 93536-4213", "City": "Lancaster", "State": "CA", "Zip": "93536-4213", "AddressLine1": "4023 W Avenue L", "AddressLine2": "", "Distance": 19.0, "Latitude": 34.66178, "Longitude": -118.20233}, {"Sequence": 7, "PersonId": 137728, "AddressId": 2759554, "Specialty": "General Practice", "Photo": "findadentist.ada.org/Images/Profile/137728-Dr-Chris-Khatchaturian.png", "Name": "Dr. Chris Khatchaturian", "Email": "smilepalmdale@yahoo.com", "Phone": "(661) 947-9990", "Address": "2508 E Palmdale Blvd Palmdale, CA 93550-4860", "City": "Palmdale", "State": "CA", "Zip": "93550-4860", "AddressLine1": "2508 E Palmdale Blvd", "AddressLine2": "", "Distance": 15.7, "Latitude": 34.57983, "Longitude": -118.08478}, {"Sequence": 8, "PersonId": 290533, "AddressId": 2890321, "Specialty": "Orthodontics and Dentofacial Orthopedics", "Photo": "findadentist.ada.org/Images/Profile/290533-Dr-Timothy-Buckley.png", "Name": "Dr Timothy F Buckley", "Email": "info@buckleysbraces.com", "Phone": "(661) 267-1234", "Address": "41253 12th St W Ste A Palmdale, CA 93551-1413", "City": "Palmdale", "State": "CA", "Zip": "93551-1413", "AddressLine1": "41253 12th St W Ste A", "AddressLine2": "", "Distance": 17.0, "Latitude": 34.63265, "Longitude": -118.15225}, {"Sequence": 9, "PersonId": 144955, "AddressId": 2723243, "Specialty": "General Practice", "Photo": "findadentist.ada.org/Images/Profile/144955-Dr-Michelle-Marconnette.png", "Name": "Dr. Michelle R Marconnette", "Email": "dr.mmarconnette@gmail.com", "Phone": "(661) 949-6133", "Address": "43967 N 15th St West Lancaster, CA 93534-4673", "City": "Lancaster", "State": "CA", "Zip": "93534-4673", "AddressLine1": "43967 N 15th St West", "AddressLine2": "", "Distance": 16.2, "Latitude": 34.68142, "Longitude": -118.157}, {"Sequence": 10, "PersonId": 286199, "AddressId": 1626704, "Specialty": "Periodontics", "Photo": "findadentist.ada.org/Images/Profile/286199-Dr-Shalini-Singh.png", "Name": "Dr Shalini Singh", "Email": "", "Phone": "(661) 723-9414", "Address": "44443 16th St W Lancaster, CA 93534-2885", "City": "Lancaster", "State": "CA", "Zip": "93534-2885", "AddressLine1": "44443 16th St W", "AddressLine2": "Ste 103", "Distance": 16.2, "Latitude": 34.6908, "Longitude": -118.15817}, {"Sequence": 11, "PersonId": 244631, "AddressId": 3548526, "Specialty": "General Practice", "Photo": "findadentist.ada.org/Images/Profile/244631-Dr-Sachin-Saharan.png", "Name": "Dr. Sachin Saharan", "Email": "elitedental201@gmail.com", "Phone": "(661) 723-1461", "Address": "44439 17Th St W Ste 201 Lancaster, CA 93534", "City": "Lancaster", "State": "CA", "Zip": "93534", "AddressLine1": "44439 17Th St W Ste 201", "AddressLine2": "", "Distance": 16.3, "Latitude": 34.69085, "Longitude": -118.16168}, {"Sequence": 12, "PersonId": 290333, "AddressId": 1630838, "Specialty": "General Practice", "Photo": "findadentist.ada.org/Images/Profile/290333-Dr-Tab-Boyle.png", "Name": "Dr Tab A Boyle", "Email": "", "Phone": "(661) 940-6350", "Address": "44950 Valley Central Way Ste 1-107 Lancaster, CA 93536-7209", "City": "Lancaster", "State": "CA", "Zip": "93536-7209", "AddressLine1": "44950 Valley Central Way Ste 1-107", "AddressLine2": null, "Distance": 17.0, "Latitude": 34.69915, "Longitude": -118.17395}, {"Sequence": 13, "PersonId": 433837, "AddressId": 3459888, "Specialty": "General Practice", "Photo": "findadentist.ada.org/Images/Profile/433837-Dr-Monika-Kasprzak.png", "Name": "Dr Monika Kasprzak", "Email": "", "Phone": "(213) 425-7796", "Address": "868 Auto Center Dr Ste D Palmdale, CA 93551-4690", "City": "Palmdale", "State": "CA", "Zip": "93551-4690", "AddressLine1": "868 Auto Center Dr Ste D", "AddressLine2": "", "Distance": 18.1, "Latitude": 34.59106, "Longitude": -118.14691}, {"Sequence": 14, "PersonId": 273586, "AddressId": 1614091, "Specialty": "General Practice", "Photo": "findadentist.ada.org/Images/Profile/273586-Dr-Michael-Giovannini.png", "Name": "Dr. Michael P Giovannini", "Email": "", "Phone": "(661) 265-8884", "Address": "1051 W Avenue M14 Ste C Palmdale, CA 93551-1434", "City": "Palmdale", "State": "CA", "Zip": "93551-1434", "AddressLine1": "1051 W Avenue M14 Ste C", "AddressLine2": "", "Distance": 16.8, "Latitude": 34.63351, "Longitude": -118.14957}, {"Sequence": 15, "PersonId": 213293, "AddressId": 3537670, "Specialty": "Orthodontics and Dentofacial Orthopedics", "Photo": "findadentist.ada.org/Images/Profile/213293-Dr-Senan-Ziadeh.png", "Name": "Dr. Senan K Ziadeh", "Email": "", "Phone": "(661) 272-9091", "Address": "38745 N Tierra Subida Ave Ste 150 Palmdale, CA 93551", "City": "Palmdale", "State": "CA", "Zip": "93551", "AddressLine1": "38745 N Tierra Subida Ave Ste 150", "AddressLine2": "", "Distance": 18.4, "Latitude": 34.58668, "Longitude": -118.14916}, {"Sequence": 16, "PersonId": 238521, "AddressId": 2802300, "Specialty": "General Practice", "Photo": "findadentist.ada.org/Images/Profile/238521-Dr-Ana Marie-Collantes.png", "Name": "Dr. Ana Marie T Collantes", "Email": "", "Phone": "(661) 945-2645", "Address": "44810 Elm Ave Lancaster, CA 93534-3106", "City": "Lancaster", "State": "CA", "Zip": "93534-3106", "AddressLine1": "44810 Elm Ave", "AddressLine2": "", "Distance": 15.2, "Latitude": 34.69642, "Longitude": -118.14178}, {"Sequence": 17, "PersonId": 290594, "AddressId": 1631099, "Specialty": "General Practice", "Photo": "findadentist.ada.org/Images/Profile/290594-Dr-Alan-Stott.png", "Name": "Dr. Alan L Stott", "Email": "", "Phone": "(661) 945-2733", "Address": "44439 17th St W Ste 204 Lancaster, CA 93534-2856", "City": "Lancaster", "State": "CA", "Zip": "93534-2856", "AddressLine1": "44439 17th St W Ste 204", "AddressLine2": "", "Distance": 16.3, "Latitude": 34.69076, "Longitude": -118.16163}, {"Sequence": 18, "PersonId": 237841, "AddressId": 1578346, "Specialty": "General Practice", "Photo": "findadentist.ada.org/Images/Profile/237841-Dr-Lawrence-Lozada.png", "Name": "Dr. Lawrence L Lozada", "Email": "email@drrandylozada.com", "Phone": "(661) 799-3920", "Address": "945 W Avenue J Lancaster, CA 93534-3428", "City": "Lancaster", "State": "CA", "Zip": "93534-3428", "AddressLine1": "945 W Avenue J", "AddressLine2": null, "Distance": 15.6, "Latitude": 34.68969, "Longitude": -118.14723}, {"Sequence": 19, "PersonId": 339277, "AddressId": 3525679, "Specialty": "General Practice", "Photo": "findadentist.ada.org/Images/Profile/339277-Dr-Behzad-Danesh-Panahi.png", "Name": "Dr. Behzad Danesh-Panahi", "Email": "", "Phone": "(661) 839-7630", "Address": "43531 10th Street W Lancaster, CA 93534", "City": "Lancaster", "State": "CA", "Zip": "93534", "AddressLine1": "43531 10th Street W", "AddressLine2": "", "Distance": 15.8, "Latitude": 34.67412, "Longitude": -118.1482}, {"Sequence": 20, "PersonId": 145174, "AddressId": 2704789, "Specialty": "General Practice", "Photo": "findadentist.ada.org/Images/Profile/145174-Dr-Yoonho-Chang.png", "Name": "Dr. Yoonho Chang", "Email": "", "Phone": "(661) 272-9091", "Address": "38745 Tierra Subida Ave Ste 150 Palmdale, CA 93551-4567", "City": "Palmdale", "State": "CA", "Zip": "93551-4567", "AddressLine1": "38745 Tierra Subida Ave Ste 150", "AddressLine2": "", "Distance": 18.4, "Latitude": 34.58668, "Longitude": -118.14916}, {"Sequence": 21, "PersonId": 245889, "AddressId": 3303777, "Specialty": "General Practice", "Photo": "findadentist.ada.org/Images/Profile/245889-Dr-Yara-Lopez.png", "Name": "Dr. Yara S Lopez", "Email": "LOPEZDREAMSMILES@GMAIL.COM", "Phone": "(661) 441-4115", "Address": "40112 170th St E Ste C Palmdale, CA 93591-3154", "City": "Palmdale", "State": "CA", "Zip": "93591-3154", "AddressLine1": "40112 170th St E Ste C", "AddressLine2": "", "Distance": 10.4, "Latitude": 34.58714, "Longitude": -117.82673}, {"Sequence": 22, "PersonId": 290344, "AddressId": 3516064, "Specialty": "General Practice", "Photo": "findadentist.ada.org/Images/Profile/290344-Dr-Rami-Haddad.png", "Name": "Dr Rami M Haddad", "Email": "RM.Haddad73@yahoo.com", "Phone": "(661) 942-6522", "Address": "44811 Date Ave Ste A Lancaster, CA 93534-3147", "City": "Lancaster", "State": "CA", "Zip": "93534-3147", "AddressLine1": "44811 Date Ave Ste A", "AddressLine2": "", "Distance": 15.1, "Latitude": 34.69641, "Longitude": -118.14102}, {"Sequence": 23, "PersonId": 290031, "AddressId": 1630536, "Specialty": "General Practice", "Photo": "findadentist.ada.org/Images/Profile/290031-Dr-Sami-Ourshano-Olghi.png", "Name": "Sami Ourshano-Olghi", "Email": "sami@samidds.com", "Phone": "(818) 616-3900", "Address": "16101 Ventura Blvd Suite 345 Encino, CA 91436", "City": "Encino", "State": "CA", "Zip": "91436", "AddressLine1": "16101 Ventura Blvd Suite 345", "AddressLine2": "", "Distance": 17.0, "Latitude": 34.68976, "Longitude": -118.17326}, {"Sequence": 24, "PersonId": 199515, "AddressId": 3548527, "Specialty": "Endodontics", "Photo": "findadentist.ada.org/Images/Profile/199515-Dr-Ji Ho-Baag.png", "Name": "Dr. Ji Ho Baag", "Email": "elitedental201@gmail.com", "Phone": "(661) 723-1461", "Address": "44439 17Th St W Ste 201 Lancaster, CA 93534", "City": "Lancaster", "State": "CA", "Zip": "93534", "AddressLine1": "44439 17Th St W Ste 201", "AddressLine2": "", "Distance": 16.3, "Latitude": 34.69085, "Longitude": -118.16168}, {"Sequence": 25, "PersonId": 206703, "AddressId": 1547208, "Specialty": "General Practice", "Photo": "findadentist.ada.org/Images/Profile/206703-Dr-Irmino-Angeles.png", "Name": "Dr. Irmino G Angeles", "Email": "info@angelesdental.com", "Phone": "(661) 266-7778", "Address": "39575 Trade Center Dr Ste D Palmdale, CA 93551-3783", "City": "Palmdale", "State": "CA", "Zip": "93551-3783", "AddressLine1": "39575 Trade Center Dr Ste D", "AddressLine2": null, "Distance": 17.6, "Latitude": 34.60051, "Longitude": -118.144}, {"Sequence": 26, "PersonId": 210023, "AddressId": 3525683, "Specialty": "Periodontics", "Photo": "findadentist.ada.org/Images/Profile/210023-Dr-James-Jun.png", "Name": "Dr. James Jun", "Email": "", "Phone": "(661) 839-7630", "Address": "43531 10th Street W Lancaster, CA 93534", "City": "Lancaster", "State": "CA", "Zip": "93534", "AddressLine1": "43531 10th Street W", "AddressLine2": "", "Distance": 15.8, "Latitude": 34.67412, "Longitude": -118.1482}, {"Sequence": 27, "PersonId": 289742, "AddressId": 2772524, "Specialty": "Orthodontics and Dentofacial Orthopedics", "Photo": "findadentist.ada.org/Images/Profile/289742-Dr-Gilbert-Snow.png", "Name": "Dr Gilbert H Snow", "Email": "", "Phone": "(661) 273-1750", "Address": "868 Auto Center Dr # C Palmdale, CA 93551-3780", "City": "Palmdale", "State": "CA", "Zip": "93551-3780", "AddressLine1": "868 Auto Center Dr # C", "AddressLine2": "", "Distance": 18.1, "Latitude": 34.59106, "Longitude": -118.14691}, {"Sequence": 28, "PersonId": 145174, "AddressId": 2704789, "Specialty": "General Practice", "Photo": "findadentist.ada.org/Images/Profile/145174-Dr-Yoonho-Chang.png", "Name": "Dr. Yoonho Chang", "Email": "", "Phone": "(760) 242-8881", "Address": "38745 Tierra Subida Ave Ste 150 Palmdale, CA 93551-4567", "City": "Palmdale", "State": "CA", "Zip": "93551-4567", "AddressLine1": "38745 Tierra Subida Ave Ste 150", "AddressLine2": "", "Distance": 18.4, "Latitude": 34.58668, "Longitude": -118.14916}, {"Sequence": 29, "PersonId": 289962, "AddressId": 1630467, "Specialty": "General Practice", "Photo": "findadentist.ada.org/Images/Profile/289962-Dr-Douglas-Weber.png", "Name": "Dr Douglas B Weber", "Email": "appt@dweberdds.com", "Phone": "(661) 945-3661", "Address": "44404 16th St W Ste 201 Lancaster, CA 93534-2839", "City": "Lancaster", "State": "CA", "Zip": "93534-2839", "AddressLine1": "44404 16th St W Ste 201", "AddressLine2": "", "Distance": 16.2, "Latitude": 34.68981, "Longitude": -118.15816}, {"Sequence": 30, "PersonId": 188010, "AddressId": 3521362, "Specialty": "Endodontics", "Photo": "findadentist.ada.org/Images/Profile/188010-Dr-Raymond-Grigorian.png", "Name": "Dr. Raymond Grigorian", "Email": "", "Phone": "(661) 265-7800", "Address": "755 W Rancho Vista Blvd Palmdale, CA 93551", "City": "Palmdale", "State": "CA", "Zip": "93551", "AddressLine1": "755 W Rancho Vista Blvd", "AddressLine2": "", "Distance": 17.6, "Latitude": 34.6025, "Longitude": -118.1455}, {"Sequence": 31, "PersonId": 245621, "AddressId": 1586126, "Specialty": "General Practice", "Photo": "findadentist.ada.org/Images/Profile/245621-Dr-Amalia-Osma.png", "Name": "Dr. Amalia S Osma", "Email": "truecarefamilydentalplace@yahoo.com", "Phone": "(661) 533-3800", "Address": "37935 47th St. East #A-22 Palmdale, CA 93552-3737", "City": "Palmdale", "State": "CA", "Zip": "93552-3737", "AddressLine1": "37935 47th St. East #A-22", "AddressLine2": "", "Distance": 14.6, "Latitude": 34.5711, "Longitude": -118.04566}, {"Sequence": 32, "PersonId": 290337, "AddressId": 1630842, "Specialty": "General Practice", "Photo": "findadentist.ada.org/Images/Profile/290337-Dr-Les-Kurian.png", "Name": "Dr Les A Kurian", "Email": "les@kuriandental.com", "Phone": "(661) 948-2828", "Address": "1654 W Avenue J Lancaster, CA 93534-2814", "City": "Lancaster", "State": "CA", "Zip": "93534-2814", "AddressLine1": "1654 W Avenue J", "AddressLine2": "", "Distance": 16.3, "Latitude": 34.68899, "Longitude": -118.16048}, {"Sequence": 33, "PersonId": 239676, "AddressId": 3548529, "Specialty": "Orthodontics and Dentofacial Orthopedics", "Photo": "findadentist.ada.org/Images/Profile/239676-Dr-Paul-Lee.png", "Name": "Dr. Paul C Lee", "Email": "elitedental201@gmail.com", "Phone": "(661) 723-1461", "Address": "44439 17Th St W Ste 201 Lancaster, CA 93534", "City": "Lancaster", "State": "CA", "Zip": "93534", "AddressLine1": "44439 17Th St W Ste 201", "AddressLine2": "", "Distance": 16.3, "Latitude": 34.69085, "Longitude": -118.16168}, {"Sequence": 34, "PersonId": 290500, "AddressId": 1631005, "Specialty": "General Practice", "Photo": "findadentist.ada.org/Images/Profile/290500-Dr-Alan-Taylor.png", "Name": "Dr. Alan Taylor", "Email": "", "Phone": "(661) 265-7397", "Address": "450 W Palmdale Blvd Ste D Palmdale, CA 93551-3104", "City": "Palmdale", "State": "CA", "Zip": "93551-3104", "AddressLine1": "450 W Palmdale Blvd Ste D", "AddressLine2": "Ste-D", "Distance": 19.7, "Latitude": 34.59416, "Longitude": -118.18248}, {"Sequence": 35, "PersonId": 133630, "AddressId": 2771423, "Specialty": "General Practice", "Photo": "findadentist.ada.org/Images/Profile/133630-Dr-Nader-Niknam.png", "Name": "Dr. Nader Niknam", "Email": "drnikman@yahoo.com", "Phone": "(310) 312-0505", "Address": "4023 W Avenue L Lancaster, CA 93536-4213", "City": "Lancaster", "State": "CA", "Zip": "93536-4213", "AddressLine1": "4023 W Avenue L", "AddressLine2": "", "Distance": 19.0, "Latitude": 34.66178, "Longitude": -118.20233}, {"Sequence": 36, "PersonId": 244631, "AddressId": 1585136, "Specialty": "General Practice", "Photo": "findadentist.ada.org/Images/Profile/244631-Dr-Sachin-Saharan.png", "Name": "Dr. Sachin Saharan", "Email": "elitedental201@gmail.com", "Phone": "(661) 726-7600", "Address": "1314 W Avenue J Lancaster, CA 93534-2936", "City": "Lancaster", "State": "CA", "Zip": "93534-2936", "AddressLine1": "1314 W Avenue J", "AddressLine2": "", "Distance": 16.0, "Latitude": 34.68893, "Longitude": -118.15512}, {"Sequence": 37, "PersonId": 290571, "AddressId": 2946769, "Specialty": "General Practice", "Photo": "findadentist.ada.org/Images/Profile/290571-Dr-Melissa-Nabors.png", "Name": "Dr Melissa C Nabors", "Email": "", "Phone": "(661) 948-0557", "Address": "43700 17th St W Ste 201 Lancaster, CA 93534-4661", "City": "Lancaster", "State": "CA", "Zip": "93534-4661", "AddressLine1": "43700 17th St W Ste 201", "AddressLine2": "", "Distance": 16.5, "Latitude": 34.67699, "Longitude": -118.16076}, {"Sequence": 38, "PersonId": 201990, "AddressId": 1542495, "Specialty": "General Practice", "Photo": "findadentist.ada.org/Images/Profile/201990-Dr-Roland-Markarian.png", "Name": "Dr. Roland Markarian", "Email": "", "Phone": "(661) 948-8100", "Address": "803 W Avenue J Lancaster, CA 93534-3426", "City": "Lancaster", "State": "CA", "Zip": "93534-3426", "AddressLine1": "803 W Avenue J", "AddressLine2": "", "Distance": 15.3, "Latitude": 34.68994, "Longitude": -118.14356}, {"Sequence": 39, "PersonId": 289382, "AddressId": 1629887, "Specialty": "General Practice", "Photo": "findadentist.ada.org/Images/Profile/289382-Dr-Robert-Haze.png", "Name": "Dr Robert Haze", "Email": "valleywidedental@yahoo.com", "Phone": "(661) 267-4000", "Address": "1021 W Avenue  M14 Palmdale, CA 93551-1440", "City": "Palmdale", "State": "CA", "Zip": "93551-1440", "AddressLine1": "1021 W Avenue  M14", "AddressLine2": "", "Distance": 16.8, "Latitude": 34.63352, "Longitude": -118.14862}, {"Sequence": 40, "PersonId": 289383, "AddressId": 3419107, "Specialty": "General Practice", "Photo": "findadentist.ada.org/Images/Profile/289383-Dr-Nishan-Matossian.png", "Name": "Dr Nishan W Matossian", "Email": "office@glendalepdc.com", "Phone": "(818) 240-1760", "Address": "821 N. Pacific Ave. Glendale, CA 91203-1027", "City": "Glendale", "State": "CA", "Zip": "91203-1027", "AddressLine1": "821 N. Pacific Ave.", "AddressLine2": "", "Distance": 15.3, "Latitude": 34.58064, "Longitude": -118.07581}, {"Sequence": 41, "PersonId": 133383, "AddressId": 2692820, "Specialty": "General Practice", "Photo": "findadentist.ada.org/Images/Profile/133383-Dr-Neal-Green.png", "Name": "Dr. Neal C Green", "Email": "", "Phone": "(661) 266-2890", "Address": "2321 E Avenue S Ste E4 Palmdale, CA 93550-6213", "City": "Palmdale", "State": "CA", "Zip": "93550-6213", "AddressLine1": "2321 E Avenue S Ste E4", "AddressLine2": "", "Distance": 12.4, "Latitude": 34.68974, "Longitude": -118.0913}, {"Sequence": 42, "PersonId": 133957, "AddressId": 1474462, "Specialty": "General Practice", "Photo": "findadentist.ada.org/Images/Profile/133957-Dr-Brian-Lee.png", "Name": "Dr. Brian Y Lee", "Email": "drbrianyleedds@gmail.com", "Phone": "(661) 948-7722", "Address": "1629 W Avenue J Ste 103 Lancaster, CA 93534-2850", "City": "Lancaster", "State": "CA", "Zip": "93534-2850", "AddressLine1": "1629 W Avenue J Ste 103", "AddressLine2": "", "Distance": 16.2, "Latitude": 34.69001, "Longitude": -118.15962}, {"Sequence": 43, "PersonId": 272157, "AddressId": 3521367, "Specialty": "General Practice", "Photo": "findadentist.ada.org/Images/Profile/272157-Dr-Chandni-Patel.png", "Name": "Dr. Chandni H Patel", "Email": "", "Phone": "(661) 265-7800", "Address": "755 W Rancho Vista Blvd Palmdale, CA 93551", "City": "Palmdale", "State": "CA", "Zip": "93551", "AddressLine1": "755 W Rancho Vista Blvd", "AddressLine2": "", "Distance": 17.6, "Latitude": 34.6025, "Longitude": -118.1455}, {"Sequence": 44, "PersonId": 132966, "AddressId": 1473471, "Specialty": "General Practice", "Photo": "findadentist.ada.org/Images/Profile/132966-Dr-Michael-Kuo.png", "Name": "Dr. Michael M Kuo", "Email": "", "Phone": "(661) 267-5700", "Address": "39522 10th St W Ste C Palmdale, CA 93551-3757", "City": "Palmdale", "State": "CA", "Zip": "93551-3757", "AddressLine1": "39522 10th St W Ste C", "AddressLine2": "", "Distance": 17.7, "Latitude": 34.60065, "Longitude": -118.14645}, {"Sequence": 45, "PersonId": 182325, "AddressId": 1522830, "Specialty": "General Practice", "Photo": "findadentist.ada.org/Images/Profile/182325-Dr-Yasser-Sadek.png", "Name": "Dr. Yasser E Sadek", "Email": "yasseresadek@yahoo.com", "Phone": "(661) 266-0300", "Address": "247 E Palmdale Blvd Ste B Palmdale, CA 93550-4567", "City": "Palmdale", "State": "CA", "Zip": "93550-4567", "AddressLine1": "247 E Palmdale Blvd Ste B", "AddressLine2": "", "Distance": 17.5, "Latitude": 34.5803, "Longitude": -118.12588}, {"Sequence": 46, "PersonId": 206047, "AddressId": 1546552, "Specialty": "General Practice", "Photo": "findadentist.ada.org/Images/Profile/206047-Dr-Tamara-Vwich.png", "Name": "Dr. Tamara B Vwich", "Email": "info@ranchovistadentist.com", "Phone": "(661) 266-9785", "Address": "3011 Rancho Vista Blvd Ste I Palmdale, CA 93551-4821", "City": "Palmdale", "State": "CA", "Zip": "93551-4821", "AddressLine1": "3011 Rancho Vista Blvd Ste I", "AddressLine2": null, "Distance": 19.5, "Latitude": 34.60344, "Longitude": -118.18357}, {"Sequence": 47, "PersonId": 216671, "AddressId": 3293855, "Specialty": "Pediatric Dentistry", "Photo": "findadentist.ada.org/Images/Profile/ADA.png", "Name": "Dr. Jung H Yu", "Email": "", "Phone": "(661) 225-9964", "Address": "41253 12th St W Ste C Palmdale, CA 93551-1413", "City": "Palmdale", "State": "CA", "Zip": "93551-1413", "AddressLine1": "41253 12th St W Ste C", "AddressLine2": "", "Distance": 17.0, "Latitude": 34.6327, "Longitude": -118.1523}, {"Sequence": 48, "PersonId": 113668, "AddressId": 3036325, "Specialty": "Oral and Maxillofacial Surgery", "Photo": "findadentist.ada.org/Images/Profile/ADA.png", "Name": "Dr. Christopher Kang", "Email": "", "Phone": "(661) 266-8840", "Address": "1137 W Avenue M14 Ste 101 Palmdale, CA 93551-1429", "City": "Palmdale", "State": "CA", "Zip": "93551-1429", "AddressLine1": "1137 W Avenue M14 Ste 101", "AddressLine2": "", "Distance": 16.9, "Latitude": 34.63305, "Longitude": -118.15041}, {"Sequence": 49, "PersonId": 289943, "AddressId": 1630448, "Specialty": "Oral and Maxillofacial Surgery", "Photo": "findadentist.ada.org/Images/Profile/ADA.png", "Name": "Dr David Stephens", "Email": "", "Phone": "(818) 270-0713", "Address": "1021 W Avenue M14 Palmdale, CA 93551-1440", "City": "Palmdale", "State": "CA", "Zip": "93551-1440", "AddressLine1": "1021 W Avenue M14", "AddressLine2": null, "Distance": 16.8, "Latitude": 34.63352, "Longitude": -118.14862}, {"Sequence": 50, "PersonId": 289985, "AddressId": 2726418, "Specialty": "General Practice", "Photo": "findadentist.ada.org/Images/Profile/ADA.png", "Name": "Dr Robert Sarkissian", "Email": "RSDDS235@GMAIL.COM", "Phone": "(818) 718-6464", "Address": "445 W Palmdale Blvd Ste D Palmdale, CA 93551-4509", "City": "Palmdale", "State": "CA", "Zip": "93551-4509", "AddressLine1": "445 W Palmdale Blvd Ste D", "AddressLine2": "", "Distance": 17.9, "Latitude": 34.58338, "Longitude": -118.13732}, {"Sequence": 51, "PersonId": 329839, "AddressId": 3398838, "Specialty": "General Practice", "Photo": "findadentist.ada.org/Images/Profile/ADA.png", "Name": "Dr. Albert  Zargarian", "Email": "", "Phone": "(661) 729-2990", "Address": "2014 W Ave K Lancaster, CA 93536", "City": "Lancaster", "State": "CA", "Zip": "93536", "AddressLine1": "2014 W Ave K", "AddressLine2": "SMILE DENTAL - Albert Zargarian", "Distance": 13.6, "Latitude": 34.68805, "Longitude": -118.11149}, {"Sequence": 52, "PersonId": 219612, "AddressId": 1560117, "Specialty": "General Practice", "Photo": "findadentist.ada.org/Images/Profile/ADA.png", "Name": "Dr. Silvia T Borisson", "Email": "", "Phone": "(661) 285-4001", "Address": "4654 E Avenue S Ste A Palmdale, CA 93552-4454", "City": "Palmdale", "State": "CA", "Zip": "93552-4454", "AddressLine1": "4654 E Avenue S Ste A", "AddressLine2": null, "Distance": 10.3, "Latitude": 34.60197, "Longitude": -117.96947}, {"Sequence": 53, "PersonId": 290287, "AddressId": 3304000, "Specialty": "Pediatric Dentistry", "Photo": "findadentist.ada.org/Images/Profile/ADA.png", "Name": "Dr Heidi Hame", "Email": "HAMEHEIDI@GMAIL.COM", "Phone": "(661) 949-0120", "Address": "43731 N 15th St W Ste C Lancaster, CA 93534", "City": "Lancaster", "State": "CA", "Zip": "93534", "AddressLine1": "43731 N 15th St W Ste C", "AddressLine2": "", "Distance": 16.3, "Latitude": 34.677, "Longitude": -118.15719}, {"Sequence": 54, "PersonId": 290618, "AddressId": 2832083, "Specialty": "General Practice", "Photo": "findadentist.ada.org/Images/Profile/ADA.png", "Name": "Dr Matthew C Baker", "Email": "", "Phone": "(661) 945-2616", "Address": "868 Auto Center Dr Ste D Palmdale, CA 93551-3780", "City": "Palmdale", "State": "CA", "Zip": "93551-3780", "AddressLine1": "868 Auto Center Dr Ste D", "AddressLine2": "", "Distance": 18.1, "Latitude": 34.59106, "Longitude": -118.14691}, {"Sequence": 55, "PersonId": 150650, "AddressId": 2699989, "Specialty": "General Practice", "Photo": "findadentist.ada.org/Images/Profile/ADA.png", "Name": "Dr. Rosemary Navarro", "Email": "navarrodentistry@gmail.com", "Phone": null, "Address": "300 E Palmdale Blvd Palmdale, CA 93550-4517", "City": "Palmdale", "State": "CA", "Zip": "93550-4517", "AddressLine1": "300 E Palmdale Blvd", "AddressLine2": "", "Distance": 17.5, "Latitude": 34.57961, "Longitude": -118.12464}, {"Sequence": 56, "PersonId": 260831, "AddressId": 3158891, "Specialty": "General Practice", "Photo": "findadentist.ada.org/Images/Profile/ADA.png", "Name": "Dr. Kasra Tajik", "Email": "NHMODERNSMILES@GMAIL.COM", "Phone": "(818) 763-9353", "Address": "10545 Victory Blvd North Hollywood, CA 91606", "City": "North Hollywood", "State": "CA", "Zip": "91606", "AddressLine1": "10545 Victory Blvd", "AddressLine2": "", "Distance": 14.4, "Latitude": 34.57617, "Longitude": -118.04687}, {"Sequence": 57, "PersonId": 351208, "AddressId": 2828943, "Specialty": "General Practice", "Photo": "findadentist.ada.org/Images/Profile/ADA.png", "Name": "Dr Vanessa Andrade Sanderson", "Email": "SMILEDENT93536@YAHOO.COM", "Phone": "(661) 729-2990", "Address": "2014 W Avenue K Lancaster, CA 93536-5229", "City": "Lancaster", "State": "CA", "Zip": "93536-5229", "AddressLine1": "2014 W Avenue K", "AddressLine2": "", "Distance": 16.8, "Latitude": 34.67465, "Longitude": -118.16611}, {"Sequence": 58, "PersonId": 238781, "AddressId": 1579286, "Specialty": "Endodontics", "Photo": "findadentist.ada.org/Images/Profile/ADA.png", "Name": "Dr. Bilal Shammout", "Email": "", "Phone": "(661) 948-2721", "Address": "44215 15th St W Ste 313 Lancaster, CA 93534-5505", "City": "Lancaster", "State": "CA", "Zip": "93534-5505", "AddressLine1": "44215 15th St W Ste 313", "AddressLine2": "", "Distance": 16.2, "Latitude": 34.68664, "Longitude": -118.15862}, {"Sequence": 59, "PersonId": 274776, "AddressId": 1615281, "Specialty": "General Practice", "Photo": "findadentist.ada.org/Images/Profile/ADA.png", "Name": "Dr. Richard Frederick", "Email": "BLVDDENTIAL@SBCGOLBAL.NET", "Phone": "(661) 947-7737", "Address": "937 E Palmdale Blvd Palmdale, CA 93550-4711", "City": "Palmdale", "State": "CA", "Zip": "93550-4711", "AddressLine1": "937 E Palmdale Blvd", "AddressLine2": "", "Distance": 17.0, "Latitude": 34.5796, "Longitude": -118.11295}, {"Sequence": 60, "PersonId": 134371, "AddressId": 1474876, "Specialty": "General Practice", "Photo": "findadentist.ada.org/Images/Profile/ADA.png", "Name": "Dr. Khanh Ly", "Email": "", "Phone": "(661) 274-8800", "Address": "2541 E Avenue S Ste B Palmdale, CA 93550-6402", "City": "Palmdale", "State": "CA", "Zip": "93550-6402", "AddressLine1": "2541 E Avenue S Ste B", "AddressLine2": null, "Distance": 16.7, "Latitude": 34.55811, "Longitude": -118.08381}, {"Sequence": 61, "PersonId": 290161, "AddressId": 1630666, "Specialty": "General Practice", "Photo": "findadentist.ada.org/Images/Profile/ADA.png", "Name": "Dr L G Koven", "Email": "", "Phone": "(909) 624-9087", "Address": "1021 W Avenue M14 Palmdale, CA 93551-1440", "City": "Palmdale", "State": "CA", "Zip": "93551-1440", "AddressLine1": "1021 W Avenue M14", "AddressLine2": "", "Distance": 16.8, "Latitude": 34.63348, "Longitude": -118.14862}, {"Sequence": 62, "PersonId": 289953, "AddressId": 1630458, "Specialty": "General Practice", "Photo": "findadentist.ada.org/Images/Profile/ADA.png", "Name": "Dr David M Kern", "Email": "davidmkerndds@att.net", "Phone": "(661) 267-2021", "Address": "41307 12th St W Ste 100 Palmdale, CA 93551-1454", "City": "Palmdale", "State": "CA", "Zip": "93551-1454", "AddressLine1": "41307 12th St W Ste 100", "AddressLine2": null, "Distance": 17.0, "Latitude": 34.63331, "Longitude": -118.15234}, {"Sequence": 63, "PersonId": 191425, "AddressId": 1531930, "Specialty": "General Practice", "Photo": "findadentist.ada.org/Images/Profile/ADA.png", "Name": "Dr. Andre Kanarki", "Email": "bestdentist@qnet.com", "Phone": "(661) 274-1866", "Address": "1543 E Palmdale Blvd Ste B Palmdale, CA 93550-2000", "City": "Palmdale", "State": "CA", "Zip": "93550-2000", "AddressLine1": "1543 E Palmdale Blvd Ste B", "AddressLine2": "", "Distance": 16.4, "Latitude": 34.58035, "Longitude": -118.10156}, {"Sequence": 64, "PersonId": 289873, "AddressId": 3534470, "Specialty": "General Practice", "Photo": "findadentist.ada.org/Images/Profile/ADA.png", "Name": "Dr Richard D Rojas", "Email": "rrojas4785@aol.com", "Phone": "(661) 942-2391 x320", "Address": "2051 E. Palmdale Blvd. Palmdale, CA 93550-4866", "City": "Palmdale", "State": "CA", "Zip": "93550-4866", "AddressLine1": "2051 E. Palmdale Blvd.", "AddressLine2": "", "Distance": 16.0, "Latitude": 34.58007, "Longitude": -118.09203}, {"Sequence": 65, "PersonId": 190489, "AddressId": 2772389, "Specialty": "Endodontics", "Photo": "findadentist.ada.org/Images/Profile/ADA.png", "Name": "Dr. Peter C Cho", "Email": "IEDENTALSPECIALTYGROUP@GMAIL.COM", "Phone": "(661) 948-2721", "Address": "44215 15th St W Ste 313 Lancaster, CA 93534-5505", "City": "Lancaster", "State": "CA", "Zip": "93534-5505", "AddressLine1": "44215 15th St W Ste 313", "AddressLine2": "", "Distance": 16.2, "Latitude": 34.68664, "Longitude": -118.15853}, {"Sequence": 66, "PersonId": 290260, "AddressId": 1630765, "Specialty": "General Practice", "Photo": "findadentist.ada.org/Images/Profile/ADA.png", "Name": "Dr Eric Y Siani", "Email": "EYSIANIDMD@ATT.NET", "Phone": "(661) 947-6782", "Address": "619 W Avenue Q Ste A Palmdale, CA 93551-3889", "City": "Palmdale", "State": "CA", "Zip": "93551-3889", "AddressLine1": "619 W Avenue Q Ste A", "AddressLine2": "", "Distance": 18.0, "Latitude": 34.58781, "Longitude": -118.14184}, {"Sequence": 67, "PersonId": 194856, "AddressId": 2721089, "Specialty": "Endodontics", "Photo": "findadentist.ada.org/Images/Profile/ADA.png", "Name": "Dr. Jason S Gim", "Email": "endodj@gmail.com", "Phone": "(661) 266-2604", "Address": "41253 12th St W Ste B Palmdale, CA 93551-1413", "City": "Palmdale", "State": "CA", "Zip": "93551-1413", "AddressLine1": "41253 12th St W Ste B", "AddressLine2": "", "Distance": 17.0, "Latitude": 34.6327, "Longitude": -118.1523}, {"Sequence": 68, "PersonId": 289288, "AddressId": 1629793, "Specialty": "General Practice", "Photo": "findadentist.ada.org/Images/Profile/ADA.png", "Name": "Dr Edward D Baker", "Email": "", "Phone": "(661) 942-1181", "Address": "1669 W Avenue J # 305 Lancaster, CA 93534-2870", "City": "Lancaster", "State": "CA", "Zip": "93534-2870", "AddressLine1": "1669 W Avenue J # 305", "AddressLine2": "", "Distance": 16.3, "Latitude": 34.68977, "Longitude": -118.16088}, {"Sequence": 69, "PersonId": 289091, "AddressId": 2837226, "Specialty": "Oral and Maxillofacial Surgery", "Photo": "findadentist.ada.org/Images/Profile/ADA.png", "Name": "Dr Nicholas G Salaita", "Email": "", "Phone": "(661) 942-4353", "Address": "44441 16th St W Ste 103 Lancaster, CA 93534-2873", "City": "Lancaster", "State": "CA", "Zip": "93534-2873", "AddressLine1": "44441 16th St W Ste 103", "AddressLine2": "", "Distance": 16.2, "Latitude": 34.69064, "Longitude": -118.1589}, {"Sequence": 70, "PersonId": 289948, "AddressId": 2898936, "Specialty": "General Practice", "Photo": "findadentist.ada.org/Images/Profile/ADA.png", "Name": "Dr Jeffrey H Stein", "Email": "", "Phone": "(818) 949-1894", "Address": "44503 16th St W Ste 103 Lancaster, CA 93534-2886", "City": "Lancaster", "State": "CA", "Zip": "93534-2886", "AddressLine1": "44503 16th St W Ste 103", "AddressLine2": "", "Distance": 16.2, "Latitude": 34.69179, "Longitude": -118.15854}, {"Sequence": 71, "PersonId": 290280, "AddressId": 1630785, "Specialty": "Periodontics", "Photo": "findadentist.ada.org/Images/Profile/ADA.png", "Name": "Dr Gerald S Simmons", "Email": "", "Phone": "(661) 947-3163", "Address": "1029 Elizabeth Lake Rd Palmdale, CA 93551-3810", "City": "Palmdale", "State": "CA", "Zip": "93551-3810", "AddressLine1": "1029 Elizabeth Lake Rd", "AddressLine2": "", "Distance": 18.3, "Latitude": 34.58746, "Longitude": -118.14862}]