[{"Sequence": 1, "PersonId": 273586, "AddressId": 1614091, "Specialty": "General Practice", "Photo": "findadentist.ada.org/Images/Profile/273586-Dr-Michael-Giovannini.png", "Name": "Dr. Michael P Giovannini", "Email": "", "Phone": "(661) 265-8884", "Address": "1051 W Avenue M14 Ste C Palmdale, CA 93551-1434", "City": "Palmdale", "State": "CA", "Zip": "93551-1434", "AddressLine1": "1051 W Avenue M14 Ste C", "AddressLine2": "", "Distance": 3.3, "Latitude": 34.63351, "Longitude": -118.14957}, {"Sequence": 2, "PersonId": 290500, "AddressId": 1631005, "Specialty": "General Practice", "Photo": "findadentist.ada.org/Images/Profile/290500-Dr-Alan-Taylor.png", "Name": "Dr. Alan Taylor", "Email": "", "Phone": "(661) 265-7397", "Address": "450 W Palmdale Blvd Ste D Palmdale, CA 93551-3104", "City": "Palmdale", "State": "CA", "Zip": "93551-3104", "AddressLine1": "450 W Palmdale Blvd Ste D", "AddressLine2": "Ste-D", "Distance": 0.0, "Latitude": 34.59416, "Longitude": -118.18248}, {"Sequence": 3, "PersonId": 289742, "AddressId": 2772524, "Specialty": "Orthodontics and Dentofacial Orthopedics", "Photo": "findadentist.ada.org/Images/Profile/289742-Dr-Gilbert-Snow.png", "Name": "Dr Gilbert H Snow", "Email": "", "Phone": "(661) 273-1750", "Address": "868 Auto Center Dr # C Palmdale, CA 93551-3780", "City": "Palmdale", "State": "CA", "Zip": "93551-3780", "AddressLine1": "868 Auto Center Dr # C", "AddressLine2": "", "Distance": 2.0, "Latitude": 34.59106, "Longitude": -118.14691}, {"Sequence": 4, "PersonId": 145174, "AddressId": 2704789, "Specialty": "General Practice", "Photo": "findadentist.ada.org/Images/Profile/145174-Dr-Yoonho-Chang.png", "Name": "Dr. Yoonho Chang", "Email": "", "Phone": "(661) 272-9091", "Address": "38745 Tierra Subida Ave Ste 150 Palmdale, CA 93551-4567", "City": "Palmdale", "State": "CA", "Zip": "93551-4567", "AddressLine1": "38745 Tierra Subida Ave Ste 150", "AddressLine2": "", "Distance": 2.0, "Latitude": 34.58668, "Longitude": -118.14916}, {"Sequence": 5, "PersonId": 206703, "AddressId": 1547208, "Specialty": "General Practice", "Photo": "findadentist.ada.org/Images/Profile/206703-Dr-Irmino-Angeles.png", "Name": "Dr. Irmino G Angeles", "Email": "info@angelesdental.com", "Phone": "(661) 266-7778", "Address": "39575 Trade Center Dr Ste D Palmdale, CA 93551-3783", "City": "Palmdale", "State": "CA", "Zip": "93551-3783", "AddressLine1": "39575 Trade Center Dr Ste D", "AddressLine2": null, "Distance": 2.2, "Latitude": 34.60051, "Longitude": -118.144}, {"Sequence": 6, "PersonId": 289382, "AddressId": 1629887, "Specialty": "General Practice", "Photo": "findadentist.ada.org/Images/Profile/289382-Dr-Robert-Haze.png", "Name": "Dr Robert Haze", "Email": "valleywidedental@yahoo.com", "Phone": "(661) 267-4000", "Address": "1021 W Avenue  M14 Palmdale, CA 93551-1440", "City": "Palmdale", "State": "CA", "Zip": "93551-1440", "AddressLine1": "1021 W Avenue  M14", "AddressLine2": "", "Distance": 3.3, "Latitude": 34.63352, "Longitude": -118.14862}, {"Sequence": 7, "PersonId": 145174, "AddressId": 2704789, "Specialty": "General Practice", "Photo": "findadentist.ada.org/Images/Profile/145174-Dr-Yoonho-Chang.png", "Name": "Dr. Yoonho Chang", "Email": "", "Phone": "(760) 242-8881", "Address": "38745 Tierra Subida Ave Ste 150 Palmdale, CA 93551-4567", "City": "Palmdale", "State": "CA", "Zip": "93551-4567", "AddressLine1": "38745 Tierra Subida Ave Ste 150", "AddressLine2": "", "Distance": 2.0, "Latitude": 34.58668, "Longitude": -118.14916}, {"Sequence": 8, "PersonId": 206047, "AddressId": 1546552, "Specialty": "General Practice", "Photo": "findadentist.ada.org/Images/Profile/206047-Dr-Tamara-Vwich.png", "Name": "Dr. Tamara B Vwich", "Email": "info@ranchovistadentist.com", "Phone": "(661) 266-9785", "Address": "3011 Rancho Vista Blvd Ste I Palmdale, CA 93551-4821", "City": "Palmdale", "State": "CA", "Zip": "93551-4821", "AddressLine1": "3011 Rancho Vista Blvd Ste I", "AddressLine2": null, "Distance": 0.6, "Latitude": 34.60344, "Longitude": -118.18357}, {"Sequence": 9, "PersonId": 132966, "AddressId": 1473471, "Specialty": "General Practice", "Photo": "findadentist.ada.org/Images/Profile/132966-Dr-Michael-Kuo.png", "Name": "Dr. Michael M Kuo", "Email": "", "Phone": "(661) 267-5700", "Address": "39522 10th St W Ste C Palmdale, CA 93551-3757", "City": "Palmdale", "State": "CA", "Zip": "93551-3757", "AddressLine1": "39522 10th St W Ste C", "AddressLine2": "", "Distance": 2.1, "Latitude": 34.60065, "Longitude": -118.14645}, {"Sequence": 10, "PersonId": 290533, "AddressId": 2890321, "Specialty": "Orthodontics and Dentofacial Orthopedics", "Photo": "findadentist.ada.org/Images/Profile/290533-Dr-Timothy-Buckley.png", "Name": "Dr Timothy F Buckley", "Email": "info@buckleysbraces.com", "Phone": "(661) 267-1234", "Address": "41253 12th St W Ste A Palmdale, CA 93551-1413", "City": "Palmdale", "State": "CA", "Zip": "93551-1413", "AddressLine1": "41253 12th St W Ste A", "AddressLine2": "", "Distance": 3.2, "Latitude": 34.63265, "Longitude": -118.15225}, {"Sequence": 11, "PersonId": 213293, "AddressId": 3537670, "Specialty": "Orthodontics and Dentofacial Orthopedics", "Photo": "findadentist.ada.org/Images/Profile/213293-Dr-Senan-Ziadeh.png", "Name": "Dr. Senan K Ziadeh", "Email": "", "Phone": "(661) 272-9091", "Address": "38745 N Tierra Subida Ave Ste 150 Palmdale, CA 93551", "City": "Palmdale", "State": "CA", "Zip": "93551", "AddressLine1": "38745 N Tierra Subida Ave Ste 150", "AddressLine2": "", "Distance": 2.0, "Latitude": 34.58668, "Longitude": -118.14916}, {"Sequence": 12, "PersonId": 272157, "AddressId": 3521367, "Specialty": "General Practice", "Photo": "findadentist.ada.org/Images/Profile/272157-Dr-Chandni-Patel.png", "Name": "Dr. Chandni H Patel", "Email": "", "Phone": "(661) 265-7800", "Address": "755 W Rancho Vista Blvd Palmdale, CA 93551", "City": "Palmdale", "State": "CA", "Zip": "93551", "AddressLine1": "755 W Rancho Vista Blvd", "AddressLine2": "", "Distance": 2.2, "Latitude": 34.6025, "Longitude": -118.1455}, {"Sequence": 13, "PersonId": 433837, "AddressId": 3459888, "Specialty": "General Practice", "Photo": "findadentist.ada.org/Images/Profile/433837-Dr-Monika-Kasprzak.png", "Name": "Dr Monika Kasprzak", "Email": "", "Phone": "(213) 425-7796", "Address": "868 Auto Center Dr Ste D Palmdale, CA 93551-4690", "City": "Palmdale", "State": "CA", "Zip": "93551-4690", "AddressLine1": "868 Auto Center Dr Ste D", "AddressLine2": "", "Distance": 2.0, "Latitude": 34.59106, "Longitude": -118.14691}, {"Sequence": 14, "PersonId": 290634, "AddressId": 1631139, "Specialty": "General Practice", "Photo": "findadentist.ada.org/Images/Profile/290634-Dr-Michael-Simmons.png", "Name": "Dr Michael Simmons", "Email": "Info@DrMichaelSimmons.com", "Phone": "(818) 300-0070", "Address": "1029 Elizabeth Lake Rd Palmdale, CA 93551-3810", "City": "Palmdale", "State": "CA", "Zip": "93551-3810", "AddressLine1": "1029 Elizabeth Lake Rd", "AddressLine2": "", "Distance": 2.0, "Latitude": 34.58749, "Longitude": -118.14861}, {"Sequence": 15, "PersonId": 188010, "AddressId": 3521362, "Specialty": "Endodontics", "Photo": "findadentist.ada.org/Images/Profile/188010-Dr-Raymond-Grigorian.png", "Name": "Dr. Raymond Grigorian", "Email": "", "Phone": "(661) 265-7800", "Address": "755 W Rancho Vista Blvd Palmdale, CA 93551", "City": "Palmdale", "State": "CA", "Zip": "93551", "AddressLine1": "755 W Rancho Vista Blvd", "AddressLine2": "", "Distance": 2.2, "Latitude": 34.6025, "Longitude": -118.1455}, {"Sequence": 16, "PersonId": 290618, "AddressId": 2832083, "Specialty": "General Practice", "Photo": "findadentist.ada.org/Images/Profile/ADA.png", "Name": "Dr Matthew C Baker", "Email": "", "Phone": "(661) 945-2616", "Address": "868 Auto Center Dr Ste D Palmdale, CA 93551-3780", "City": "Palmdale", "State": "CA", "Zip": "93551-3780", "AddressLine1": "868 Auto Center Dr Ste D", "AddressLine2": "", "Distance": 2.0, "Latitude": 34.59106, "Longitude": -118.14691}, {"Sequence": 17, "PersonId": 290280, "AddressId": 1630785, "Specialty": "Periodontics", "Photo": "findadentist.ada.org/Images/Profile/ADA.png", "Name": "Dr Gerald S Simmons", "Email": "", "Phone": "(661) 947-3163", "Address": "1029 Elizabeth Lake Rd Palmdale, CA 93551-3810", "City": "Palmdale", "State": "CA", "Zip": "93551-3810", "AddressLine1": "1029 Elizabeth Lake Rd", "AddressLine2": "", "Distance": 2.0, "Latitude": 34.58746, "Longitude": -118.14862}, {"Sequence": 18, "PersonId": 113668, "AddressId": 3036325, "Specialty": "Oral and Maxillofacial Surgery", "Photo": "findadentist.ada.org/Images/Profile/ADA.png", "Name": "Dr. Christopher Kang", "Email": "", "Phone": "(661) 266-8840", "Address": "1137 W Avenue M14 Ste 101 Palmdale, CA 93551-1429", "City": "Palmdale", "State": "CA", "Zip": "93551-1429", "AddressLine1": "1137 W Avenue M14 Ste 101", "AddressLine2": "", "Distance": 3.2, "Latitude": 34.63305, "Longitude": -118.15041}, {"Sequence": 19, "PersonId": 289943, "AddressId": 1630448, "Specialty": "Oral and Maxillofacial Surgery", "Photo": "findadentist.ada.org/Images/Profile/ADA.png", "Name": "Dr David Stephens", "Email": "", "Phone": "(818) 270-0713", "Address": "1021 W Avenue M14 Palmdale, CA 93551-1440", "City": "Palmdale", "State": "CA", "Zip": "93551-1440", "AddressLine1": "1021 W Avenue M14", "AddressLine2": null, "Distance": 3.3, "Latitude": 34.63352, "Longitude": -118.14862}, {"Sequence": 20, "PersonId": 289985, "AddressId": 2726418, "Specialty": "General Practice", "Photo": "findadentist.ada.org/Images/Profile/ADA.png", "Name": "Dr Robert Sarkissian", "Email": "RSDDS235@GMAIL.COM", "Phone": "(818) 718-6464", "Address": "445 W Palmdale Blvd Ste D Palmdale, CA 93551-4509", "City": "Palmdale", "State": "CA", "Zip": "93551-4509", "AddressLine1": "445 W Palmdale Blvd Ste D", "AddressLine2": "", "Distance": 2.7, "Latitude": 34.58338, "Longitude": -118.13732}, {"Sequence": 21, "PersonId": 216671, "AddressId": 3293855, "Specialty": "Pediatric Dentistry", "Photo": "findadentist.ada.org/Images/Profile/ADA.png", "Name": "Dr. Jung H Yu", "Email": "", "Phone": "(661) 225-9964", "Address": "41253 12th St W Ste C Palmdale, CA 93551-1413", "City": "Palmdale", "State": "CA", "Zip": "93551-1413", "AddressLine1": "41253 12th St W Ste C", "AddressLine2": "", "Distance": 3.2, "Latitude": 34.6327, "Longitude": -118.1523}, {"Sequence": 22, "PersonId": 290260, "AddressId": 1630765, "Specialty": "General Practice", "Photo": "findadentist.ada.org/Images/Profile/ADA.png", "Name": "Dr Eric Y Siani", "Email": "EYSIANIDMD@ATT.NET", "Phone": "(661) 947-6782", "Address": "619 W Avenue Q Ste A Palmdale, CA 93551-3889", "City": "Palmdale", "State": "CA", "Zip": "93551-3889", "AddressLine1": "619 W Avenue Q Ste A", "AddressLine2": "", "Distance": 2.4, "Latitude": 34.58781, "Longitude": -118.14184}, {"Sequence": 23, "PersonId": 290161, "AddressId": 1630666, "Specialty": "General Practice", "Photo": "findadentist.ada.org/Images/Profile/ADA.png", "Name": "Dr L G Koven", "Email": "", "Phone": "(909) 624-9087", "Address": "1021 W Avenue M14 Palmdale, CA 93551-1440", "City": "Palmdale", "State": "CA", "Zip": "93551-1440", "AddressLine1": "1021 W Avenue M14", "AddressLine2": "", "Distance": 3.3, "Latitude": 34.63348, "Longitude": -118.14862}, {"Sequence": 24, "PersonId": 289953, "AddressId": 1630458, "Specialty": "General Practice", "Photo": "findadentist.ada.org/Images/Profile/ADA.png", "Name": "Dr David M Kern", "Email": "davidmkerndds@att.net", "Phone": "(661) 267-2021", "Address": "41307 12th St W Ste 100 Palmdale, CA 93551-1454", "City": "Palmdale", "State": "CA", "Zip": "93551-1454", "AddressLine1": "41307 12th St W Ste 100", "AddressLine2": null, "Distance": 3.2, "Latitude": 34.63331, "Longitude": -118.15234}, {"Sequence": 25, "PersonId": 194856, "AddressId": 2721089, "Specialty": "Endodontics", "Photo": "findadentist.ada.org/Images/Profile/ADA.png", "Name": "Dr. Jason S Gim", "Email": "endodj@gmail.com", "Phone": "(661) 266-2604", "Address": "41253 12th St W Ste B Palmdale, CA 93551-1413", "City": "Palmdale", "State": "CA", "Zip": "93551-1413", "AddressLine1": "41253 12th St W Ste B", "AddressLine2": "", "Distance": 3.2, "Latitude": 34.6327, "Longitude": -118.1523}]