[{"Sequence": 1, "PersonId": 202948, "AddressId": 2710363, "Specialty": "Orthodontics and Dentofacial Orthopedics", "Photo": "findadentist.ada.org/Images/Profile/202948-Dr-Aubrey-Barrett.png", "Name": "Dr. Aubrey A Barrett", "Email": "", "Phone": "(510) 527-7111", "Address": "300 E Leland Rd Ste 205 Pittsburg, CA 94565-4962", "City": "Pittsburg", "State": "CA", "Zip": "94565-4962", "AddressLine1": "300 E Leland Rd Ste 205", "AddressLine2": "", "Distance": 2.1, "Latitude": 38.01107, "Longitude": -121.8879}, {"Sequence": 2, "PersonId": 208204, "AddressId": 3527052, "Specialty": "General Practice", "Photo": "findadentist.ada.org/Images/Profile/208204-Dr-Rita-Patel.png", "Name": "Dr. Rita S Patel", "Email": "", "Phone": "(925) 709-0200", "Address": "538 Bailey Rd Bay Point, CA 94565-4304", "City": "Bay Point", "State": "CA", "Zip": "94565-4304", "AddressLine1": "538 Bailey Rd", "AddressLine2": "", "Distance": 1.0, "Latitude": 38.01767, "Longitude": -121.94309}, {"Sequence": 3, "PersonId": 213801, "AddressId": 2900832, "Specialty": "General Practice", "Photo": "findadentist.ada.org/Images/Profile/213801-Dr-Mercedes-Roberts.png", "Name": "Dr. Mercedes Roberts", "Email": "robertsdds@att.net", "Phone": "(925) 432-2995", "Address": "130 E Leland Rd Ste D Pittsburg, CA 94565-4954", "City": "Pittsburg", "State": "CA", "Zip": "94565-4954", "AddressLine1": "130 E Leland Rd Ste D", "AddressLine2": "", "Distance": 1.9, "Latitude": 38.01112, "Longitude": -121.89051}, {"Sequence": 4, "PersonId": 181350, "AddressId": 1521855, "Specialty": "General Practice", "Photo": "findadentist.ada.org/Images/Profile/181350-Dr-Arturo-Franco.png", "Name": "Dr. Arturo Franco", "Email": "", "Phone": "(925) 432-3838", "Address": "120 Yosemite Dr Pittsburg, CA 94565-5217", "City": "Pittsburg", "State": "CA", "Zip": "94565-5217", "AddressLine1": "120 Yosemite Dr", "AddressLine2": "", "Distance": 2.0, "Latitude": 38.00487, "Longitude": -121.89303}, {"Sequence": 5, "PersonId": 181480, "AddressId": 3441637, "Specialty": "General Practice", "Photo": "findadentist.ada.org/Images/Profile/181480-Dr-Sanjay-Patel.png", "Name": "Dr. Sanjay Patel", "Email": "cooldent@juno.com", "Phone": "(925) 709-0200", "Address": "538 Bailey Rd Pittsburg, CA 94565", "City": "Pittsburg", "State": "CA", "Zip": "94565", "AddressLine1": "538 Bailey Rd", "AddressLine2": "Oak Hills Plaza", "Distance": 1.0, "Latitude": 38.01767, "Longitude": -121.94309}, {"Sequence": 6, "PersonId": 169019, "AddressId": 3477822, "Specialty": "General Practice", "Photo": "findadentist.ada.org/Images/Profile/169019-Dr-Siamak-Jafari.png", "Name": "Dr. Siamak Jafari", "Email": "skydentalteam@gmail.com", "Phone": "(925) 432-2444", "Address": "2230 Gladstone Dr Ste. 100 Pittsburg, CA 94565-5102", "City": "Pittsburg", "State": "CA", "Zip": "94565-5102", "AddressLine1": "2230 Gladstone Dr Ste. 100", "AddressLine2": "", "Distance": 3.2, "Latitude": 38.00688, "Longitude": -121.86712}, {"Sequence": 7, "PersonId": 213055, "AddressId": 2722657, "Specialty": "Oral and Maxillofacial Surgery", "Photo": "findadentist.ada.org/Images/Profile/213055-Dr-Dikran-Deragopian.png", "Name": "Dr. Dikran G Deragopian", "Email": "", "Phone": "(925) 432-4374", "Address": "4020 Railroad Ave Pittsburg, CA 94565-6532", "City": "Pittsburg", "State": "CA", "Zip": "94565-6532", "AddressLine1": "4020 Railroad Ave", "AddressLine2": "", "Distance": 2.0, "Latitude": 38.00139, "Longitude": -121.8956}, {"Sequence": 8, "PersonId": 384216, "AddressId": 3153636, "Specialty": "General Practice", "Photo": "findadentist.ada.org/Images/Profile/ADA.png", "Name": "SHADI RYAD", "Email": "", "Phone": "(415) 684-3047", "Address": "2120 Railroad Ave Ste 150 Pittsburg, CA 94565-4880", "City": "Pittsburg", "State": "CA", "Zip": "94565-4880", "AddressLine1": "2120 Railroad Ave Ste 150", "AddressLine2": "", "Distance": 1.9, "Latitude": 38.01546, "Longitude": -121.89055}, {"Sequence": 9, "PersonId": 345030, "AddressId": 2790353, "Specialty": "General Practice", "Photo": "findadentist.ada.org/Images/Profile/ADA.png", "Name": "Dr Cesar Macias", "Email": "highlanddentistrymac@gmail.com", "Phone": "(925) 473-9440", "Address": "1357 Buchanan Rd Pittsburg, CA 94565-6406", "City": "Pittsburg", "State": "CA", "Zip": "94565-6406", "AddressLine1": "1357 Buchanan Rd", "AddressLine2": "", "Distance": 3.1, "Latitude": 37.99801, "Longitude": -121.87283}, {"Sequence": 10, "PersonId": 212926, "AddressId": 1553431, "Specialty": "General Practice", "Photo": "findadentist.ada.org/Images/Profile/ADA.png", "Name": "Dr. Gordon S Lai", "Email": "", "Phone": null, "Address": "337 E Leland Rd Pittsburg, CA 94565-4911", "City": "Pittsburg", "State": "CA", "Zip": "94565-4911", "AddressLine1": "337 E Leland Rd", "AddressLine2": "", "Distance": 2.1, "Latitude": 38.0117, "Longitude": -121.8868}, {"Sequence": 11, "PersonId": 148890, "AddressId": 1489395, "Specialty": "General Practice", "Photo": "findadentist.ada.org/Images/Profile/ADA.png", "Name": "Dr. Hui A Dong", "Email": "", "Phone": "(925) 439-2588", "Address": "3715 Railroad Ave Ste A Pittsburg, CA 94565-5236", "City": "Pittsburg", "State": "CA", "Zip": "94565-5236", "AddressLine1": "3715 Railroad Ave Ste A", "AddressLine2": "", "Distance": 1.9, "Latitude": 38.00648, "Longitude": -121.89294}, {"Sequence": 12, "PersonId": 181779, "AddressId": 1522284, "Specialty": "General Practice", "Photo": "findadentist.ada.org/Images/Profile/ADA.png", "Name": "Dr. Michael D Uyeno", "Email": "YOSDENT@PACBELL.NET", "Phone": "(925) 432-3838", "Address": "120 Yosemite Dr Pittsburg, CA 94565-5217", "City": "Pittsburg", "State": "CA", "Zip": "94565-5217", "AddressLine1": "120 Yosemite Dr", "AddressLine2": "", "Distance": 2.0, "Latitude": 38.00487, "Longitude": -121.89303}, {"Sequence": 13, "PersonId": 181471, "AddressId": 1521976, "Specialty": "General Practice", "Photo": "findadentist.ada.org/Images/Profile/ADA.png", "Name": "Dr. Josefina Matias", "Email": "", "Phone": "(925) 427-7590", "Address": "2250 Gladstone Dr Ste 4 Pittsburg, CA 94565-5124", "City": "Pittsburg", "State": "CA", "Zip": "94565-5124", "AddressLine1": "2250 Gladstone Dr Ste 4", "AddressLine2": "", "Distance": 3.2, "Latitude": 38.00647, "Longitude": -121.86784}, {"Sequence": 14, "PersonId": 190239, "AddressId": 1530744, "Specialty": "General Practice", "Photo": "findadentist.ada.org/Images/Profile/ADA.png", "Name": "Dr. Marzieh Oghabian", "Email": "", "Phone": "(925) 286-7401", "Address": "300 E Leland Rd Ste 206 Pittsburg, CA 94565-4962", "City": "Pittsburg", "State": "CA", "Zip": "94565-4962", "AddressLine1": "300 E Leland Rd Ste 206", "AddressLine2": "", "Distance": 2.1, "Latitude": 38.01107, "Longitude": -121.8879}, {"Sequence": 15, "PersonId": 216262, "AddressId": 1556767, "Specialty": "General Practice", "Photo": "findadentist.ada.org/Images/Profile/ADA.png", "Name": "Dr. Ramez Satar", "Email": "", "Phone": "(925) 432-2444", "Address": "2230 Gladstone Dr Ste 100 Pittsburg, CA 94565-5102", "City": "Pittsburg", "State": "CA", "Zip": "94565-5102", "AddressLine1": "2230 Gladstone Dr Ste 100", "AddressLine2": "", "Distance": 3.2, "Latitude": 38.00688, "Longitude": -121.86712}, {"Sequence": 16, "PersonId": 181850, "AddressId": 1522355, "Specialty": "General Practice", "Photo": "findadentist.ada.org/Images/Profile/ADA.png", "Name": "Dr. Susanna Cheng", "Email": "", "Phone": "(925) 432-2444", "Address": "2417 Loveridge Rd Pittsburg, CA 94565-5117", "City": "Pittsburg", "State": "CA", "Zip": "94565-5117", "AddressLine1": "2417 Loveridge Rd", "AddressLine2": "", "Distance": 3.0, "Latitude": 38.0098, "Longitude": -121.87013}]