[{"Sequence": 1, "PersonId": 278035, "AddressId": 1618540, "Specialty": "Periodontics", "Photo": "findadentist.ada.org/Images/Profile/278035-Dr-Scott-Smith.png", "Name": "Dr Scott A Smith", "Email": "", "Phone": "(209) 722-2367", "Address": "1156 Olivewood Dr Merced, CA 95348-1210", "City": "Merced", "State": "CA", "Zip": "95348-1210", "AddressLine1": "1156 Olivewood Dr", "AddressLine2": "", "Distance": 15.8, "Latitude": 37.31776, "Longitude": -120.48852}, {"Sequence": 2, "PersonId": 278012, "AddressId": 1618517, "Specialty": "Endodontics", "Photo": "findadentist.ada.org/Images/Profile/278012-Dr-Matthew-Rowan.png", "Name": "Dr Matthew Rowan", "Email": "", "Phone": "(209) 723-5454", "Address": "3351 M St Ste 210 Merced, CA 95348-2731", "City": "Merced", "State": "CA", "Zip": "95348-2731", "AddressLine1": "3351 M St Ste 210", "AddressLine2": "", "Distance": 15.2, "Latitude": 37.32454, "Longitude": -120.47867}, {"Sequence": 3, "PersonId": 286438, "AddressId": 2758035, "Specialty": "General Practice", "Photo": "findadentist.ada.org/Images/Profile/286438-Dr-Marie-Moran.png", "Name": "Dr Marie D Moran", "Email": "", "Phone": "(209) 383-7804", "Address": "113 W El Portal Dr Ste B Merced, CA 95348-2852", "City": "Merced", "State": "CA", "Zip": "95348-2852", "AddressLine1": "113 W El Portal Dr Ste B", "AddressLine2": "", "Distance": 15.0, "Latitude": 37.32693, "Longitude": -120.47}, {"Sequence": 4, "PersonId": 206974, "AddressId": 1547479, "Specialty": "General Practice", "Photo": "findadentist.ada.org/Images/Profile/206974-Dr-Abdul-Amro.png", "Name": "Dr. Abdul G Amro", "Email": "", "Phone": "(209) 383-6200", "Address": "554 W 25th St Merced, CA 95340-2828", "City": "Merced", "State": "CA", "Zip": "95340-2828", "AddressLine1": "554 W 25th St", "AddressLine2": "", "Distance": 16.2, "Latitude": 37.30959, "Longitude": -120.48003}, {"Sequence": 5, "PersonId": 212429, "AddressId": 1552934, "Specialty": "General Practice", "Photo": "findadentist.ada.org/Images/Profile/212429-Dr-Jasvinder-Badwalz.png", "Name": "Dr. Jasvinder S Badwalz", "Email": "pearlfamilydentistry@gmail.com", "Phone": "(209) 383-6133", "Address": "3178 Collins Dr Ste C Merced, CA 95348-3155", "City": "Merced", "State": "CA", "Zip": "95348-3155", "AddressLine1": "3178 Collins Dr Ste C", "AddressLine2": "", "Distance": 15.4, "Latitude": 37.32139, "Longitude": -120.47571}, {"Sequence": 6, "PersonId": 277990, "AddressId": 1618495, "Specialty": "Oral and Maxillofacial Surgery", "Photo": "findadentist.ada.org/Images/Profile/277990-Dr-Donald-Peara.png", "Name": "Dr Donald E Peara", "Email": "pearadentalcorporation@yahoo.com", "Phone": "(209) 723-0767", "Address": "550 W 26th St Merced, CA 95340-2837", "City": "Merced", "State": "CA", "Zip": "95340-2837", "AddressLine1": "550 W 26th St", "AddressLine2": "", "Distance": 16.2, "Latitude": 37.31067, "Longitude": -120.47944}, {"Sequence": 7, "PersonId": 237527, "AddressId": 2754347, "Specialty": "General Practice", "Photo": "findadentist.ada.org/Images/Profile/237527-Dr-Jun Ho-Lee.png", "Name": "Dr. Jun Ho Lee", "Email": "", "Phone": "(209) 722-7635", "Address": "1180 Olivewood Dr Merced, CA 95348-1210", "City": "Merced", "State": "CA", "Zip": "95348-1210", "AddressLine1": "1180 Olivewood Dr", "AddressLine2": "", "Distance": 15.8, "Latitude": 37.31781, "Longitude": -120.48962}, {"Sequence": 8, "PersonId": 278028, "AddressId": 1618533, "Specialty": "General Practice", "Photo": "findadentist.ada.org/Images/Profile/278028-Dr-Lee-Boese.png", "Name": "Dr Lee R Boese, Jr.", "Email": "drboese@drboese.com", "Phone": "(209) 723-3776", "Address": "177 El Portal Dr Merced, CA 95348", "City": "Merced", "State": "CA", "Zip": "95348", "AddressLine1": "177 El Portal Dr", "AddressLine2": "", "Distance": 14.9, "Latitude": 37.32747, "Longitude": -120.47048}, {"Sequence": 9, "PersonId": 191900, "AddressId": 2923340, "Specialty": "General Practice", "Photo": "findadentist.ada.org/Images/Profile/191900-Dr-Khang-Nguyen.png", "Name": "Dr. Khang C Nguyen", "Email": "", "Phone": "(209) 385-1479", "Address": "3393 G Street  Ste B Merced, CA 95340-0964", "City": "Merced", "State": "CA", "Zip": "95340-0964", "AddressLine1": "3393 G Street  Ste B", "AddressLine2": "", "Distance": 15.0, "Latitude": 37.32617, "Longitude": -120.46994}, {"Sequence": 10, "PersonId": 226309, "AddressId": 3288846, "Specialty": "Periodontics", "Photo": "findadentist.ada.org/Images/Profile/226309-Dr-Israel-Trujillo.png", "Name": "Dr. Israel J Trujillo", "Email": "info@mercedperio.com", "Phone": "(209) 383-3816", "Address": "850 W Olive Ave Ste D Merced, CA 95348-3203", "City": "Merced", "State": "CA", "Zip": "95348-3203", "AddressLine1": "850 W Olive Ave Ste D", "AddressLine2": "", "Distance": 15.6, "Latitude": 37.31844, "Longitude": -120.47667}, {"Sequence": 11, "PersonId": 277979, "AddressId": 2773034, "Specialty": "General Practice", "Photo": "findadentist.ada.org/Images/Profile/277979-Dr-Robert-Rowan.png", "Name": "Dr Robert C Rowan", "Email": "CREEDROWAN@SBCGLOBAL.NET", "Phone": "(209) 383-9187", "Address": "631 W 25th St Merced, CA 95340-2814", "City": "Merced", "State": "CA", "Zip": "95340-2814", "AddressLine1": "631 W 25th St", "AddressLine2": "", "Distance": 16.2, "Latitude": 37.31047, "Longitude": -120.48086}, {"Sequence": 12, "PersonId": 224038, "AddressId": 1564543, "Specialty": "General Practice", "Photo": "findadentist.ada.org/Images/Profile/224038-Dr-Eric-Cheung.png", "Name": "Dr. Eric Cheung", "Email": "info@atwaterfamilydental.com", "Phone": "(209) 358-0800", "Address": "596 Bellevue Rd Atwater, CA 95301-2930", "City": "Atwater", "State": "CA", "Zip": "95301-2930", "AddressLine1": "596 Bellevue Rd", "AddressLine2": "", "Distance": 16.0, "Latitude": 37.36028, "Longitude": -120.5983}, {"Sequence": 13, "PersonId": 272578, "AddressId": 3166515, "Specialty": "General Practice", "Photo": "findadentist.ada.org/Images/Profile/272578-Dr-Ahmed-Megally.png", "Name": "Dr. Ahmed Megally", "Email": "appledental115@yahoo.com", "Phone": "(209) 722-9411", "Address": "3311 M St Merced, CA 95348-2714", "City": "Merced", "State": "CA", "Zip": "95348-2714", "AddressLine1": "3311 M St", "AddressLine2": "", "Distance": 15.3, "Latitude": 37.3231, "Longitude": -120.47839}, {"Sequence": 14, "PersonId": 224932, "AddressId": 2674119, "Specialty": "General Practice", "Photo": "findadentist.ada.org/Images/Profile/224932-Dr-Gurneet-Chahal.png", "Name": "Dr. Gurneet Chahal", "Email": "info@oakdalekidsdentist.com", "Phone": "(209) 381-2047", "Address": "3605 Hospital Rd Ste H Atwater, CA 95301-5173", "City": "Atwater", "State": "CA", "Zip": "95301-5173", "AddressLine1": "3605 Hospital Rd Ste H", "AddressLine2": "", "Distance": 14.9, "Latitude": 37.3667, "Longitude": -120.57761}, {"Sequence": 15, "PersonId": 189499, "AddressId": 1530004, "Specialty": "Orthodontics and Dentofacial Orthopedics", "Photo": "findadentist.ada.org/Images/Profile/189499-Dr-Cliff-Lauritzen.png", "Name": "Dr. Cliff N Lauritzen", "Email": "CLAURITZENORTHO@YAHOO.COM", "Phone": "(209) 723-6311", "Address": "2040 M St Merced, CA 95340-3708", "City": "Merced", "State": "CA", "Zip": "95340-3708", "AddressLine1": "2040 M St", "AddressLine2": "", "Distance": 16.5, "Latitude": 37.30562, "Longitude": -120.48241}, {"Sequence": 16, "PersonId": 277954, "AddressId": 1618459, "Specialty": "Orthodontics and Dentofacial Orthopedics", "Photo": "findadentist.ada.org/Images/Profile/277954-Dr-Lee-Boese.png", "Name": "Dr Lee R Boese", "Email": "", "Phone": "(209) 723-3776", "Address": "2801 G St Merced, CA 95340-2133", "City": "Merced", "State": "CA", "Zip": "95340-2133", "AddressLine1": "2801 G St", "AddressLine2": "", "Distance": 16.0, "Latitude": 37.31097, "Longitude": -120.4698}, {"Sequence": 17, "PersonId": 353946, "AddressId": 3549768, "Specialty": "General Practice", "Photo": "findadentist.ada.org/Images/Profile/353946-Dr-Oliver-Dam.png", "Name": "Dr. Oliver Q Dam", "Email": "", "Phone": "(209) 385-1479", "Address": "3393 G St Ste B Merced, CA 95340-1001", "City": "Merced", "State": "CA", "Zip": "95340-1001", "AddressLine1": "3393 G St Ste B", "AddressLine2": "", "Distance": 15.0, "Latitude": 37.3262, "Longitude": -120.46988}, {"Sequence": 18, "PersonId": 128969, "AddressId": 3364156, "Specialty": "Oral and Maxillofacial Surgery", "Photo": "findadentist.ada.org/Images/Profile/128969-Dr-Ajay-Patel.png", "Name": "Dr. Ajay R Patel", "Email": "apatel@pateloralsurgery.com", "Phone": "(209) 722-2764", "Address": "3381 G St Apt M Merced, CA 95340-0964", "City": "Merced", "State": "CA", "Zip": "95340-0964", "AddressLine1": "3381 G St Apt M", "AddressLine2": "", "Distance": 15.0, "Latitude": 37.32567, "Longitude": -120.47047}, {"Sequence": 19, "PersonId": 264531, "AddressId": 3087541, "Specialty": "General Practice", "Photo": "findadentist.ada.org/Images/Profile/264531-Dr-Spencer-Rowan.png", "Name": "Dr. Spencer K Rowan", "Email": "creedrowan@sbcglobal.net", "Phone": "(209) 383-9187", "Address": "631 W 25th St Merced, CA 95340-2814", "City": "Merced", "State": "CA", "Zip": "95340-2814", "AddressLine1": "631 W 25th St", "AddressLine2": "", "Distance": 16.2, "Latitude": 37.31047, "Longitude": -120.48086}, {"Sequence": 20, "PersonId": 218788, "AddressId": 1559293, "Specialty": "Orthodontics and Dentofacial Orthopedics", "Photo": "findadentist.ada.org/Images/Profile/218788-Dr-Chad-Rowan.png", "Name": "Dr. Chad Rowan", "Email": "", "Phone": "(209) 722-3245", "Address": "3351 M St Ste 115 Merced, CA 95348-2732", "City": "Merced", "State": "CA", "Zip": "95348-2732", "AddressLine1": "3351 M St Ste 115", "AddressLine2": "", "Distance": 15.2, "Latitude": 37.32454, "Longitude": -120.47867}, {"Sequence": 21, "PersonId": 230286, "AddressId": 1570791, "Specialty": "Prosthodontics", "Photo": "findadentist.ada.org/Images/Profile/230286-Dr-Ranu-Mishra.png", "Name": "Dr. Ranu M Mishra", "Email": "", "Phone": "(209) 383-9222", "Address": "177 W El Portal Dr Merced, CA 95348-2847", "City": "Merced", "State": "CA", "Zip": "95348-2847", "AddressLine1": "177 W El Portal Dr", "AddressLine2": "", "Distance": 14.9, "Latitude": 37.32745, "Longitude": -120.4705}, {"Sequence": 22, "PersonId": 237527, "AddressId": 1578032, "Specialty": "General Practice", "Photo": "findadentist.ada.org/Images/Profile/237527-Dr-Jun Ho-Lee.png", "Name": "Dr. Jun Ho Lee", "Email": "", "Phone": "(559) 227-4000", "Address": "360 E Yosemite Ave Ste 400 Merced, CA 95340-8201", "City": "Merced", "State": "CA", "Zip": "95340-8201", "AddressLine1": "360 E Yosemite Ave Ste 400", "AddressLine2": "", "Distance": 14.6, "Latitude": 37.3318, "Longitude": -120.46427}, {"Sequence": 23, "PersonId": 278027, "AddressId": 1618532, "Specialty": "General Practice", "Photo": "findadentist.ada.org/Images/Profile/278027-Dr-Lavon-Goodin.png", "Name": "Dr Lavon H Goodin", "Email": "office@vongoodin.com", "Phone": "(209) 384-3434", "Address": "830 W Olive Ave Ste B Merced, CA 95348-2420", "City": "Merced", "State": "CA", "Zip": "95348-2420", "AddressLine1": "830 W Olive Ave Ste B", "AddressLine2": "", "Distance": 15.7, "Latitude": 37.31895, "Longitude": -120.48301}, {"Sequence": 24, "PersonId": 277954, "AddressId": 3549986, "Specialty": "Orthodontics and Dentofacial Orthopedics", "Photo": "findadentist.ada.org/Images/Profile/277954-Dr-Lee-Boese.png", "Name": "Dr Lee R Boese", "Email": "", "Phone": "(209) 723-3776", "Address": "177 W El Portal Dr Merced, CA 95348", "City": "Merced", "State": "CA", "Zip": "95348", "AddressLine1": "177 W El Portal Dr", "AddressLine2": "", "Distance": 14.9, "Latitude": 37.32744, "Longitude": -120.47046}, {"Sequence": 25, "PersonId": 280856, "AddressId": 3463704, "Specialty": "General Practice", "Photo": "findadentist.ada.org/Images/Profile/280856-Dr-Lawrence-Church.png", "Name": "Dr Lawrence R Church", "Email": "Info@IndioSurgeryCenter.com", "Phone": "(760) 396-5733", "Address": "46900 Monroe St. Ste B201 Indio, CA 92201", "City": "Indio", "State": "CA", "Zip": "92201", "AddressLine1": "46900 Monroe St. Ste B201", "AddressLine2": "", "Distance": 14.9, "Latitude": 37.32685, "Longitude": -120.46415}, {"Sequence": 26, "PersonId": 240775, "AddressId": 2793928, "Specialty": "General Practice", "Photo": "findadentist.ada.org/Images/Profile/ADA.png", "Name": "Dr. Nathan W Miller", "Email": "info@qualitysmile.com", "Phone": "(209) 723-5405", "Address": "560 W 26th St Merced, CA 95340-2837", "City": "Merced", "State": "CA", "Zip": "95340-2837", "AddressLine1": "560 W 26th St", "AddressLine2": "", "Distance": 16.2, "Latitude": 37.31072, "Longitude": -120.47953}, {"Sequence": 27, "PersonId": 153411, "AddressId": 1493916, "Specialty": "General Practice", "Photo": "findadentist.ada.org/Images/Profile/ADA.png", "Name": "Dr. John A Propes", "Email": "andypropes@yahoo.com", "Phone": "(209) 722-6203", "Address": "104 Park Ave Ste 2 Merced, CA 95348-3400", "City": "Merced", "State": "CA", "Zip": "95348-3400", "AddressLine1": "104 Park Ave Ste 2", "AddressLine2": "", "Distance": 16.0, "Latitude": 37.3112, "Longitude": -120.47072}, {"Sequence": 28, "PersonId": 278019, "AddressId": 1618524, "Specialty": "General Practice", "Photo": "findadentist.ada.org/Images/Profile/ADA.png", "Name": "Dr Justin L Brink", "Email": "", "Phone": "(209) 722-3961", "Address": "3071 College Green Dr Ste C Merced, CA 95348-3204", "City": "Merced", "State": "CA", "Zip": "95348-3204", "AddressLine1": "3071 College Green Dr Ste C", "AddressLine2": null, "Distance": 15.6, "Latitude": 37.31848, "Longitude": -120.47706}, {"Sequence": 29, "PersonId": 277980, "AddressId": 1618485, "Specialty": "Orthodontics and Dentofacial Orthopedics", "Photo": "findadentist.ada.org/Images/Profile/ADA.png", "Name": "Dr Richard D Rowan", "Email": "", "Phone": "(209) 384-3223", "Address": "544 W 26Th St Merced, CA 95340-2837", "City": "Merced", "State": "CA", "Zip": "95340-2837", "AddressLine1": "544 W 26Th St", "AddressLine2": "", "Distance": 16.2, "Latitude": 37.31055, "Longitude": -120.47917}, {"Sequence": 30, "PersonId": 277981, "AddressId": 1618486, "Specialty": "Oral and Maxillofacial Surgery", "Photo": "findadentist.ada.org/Images/Profile/ADA.png", "Name": "Dr Steven M Rowan", "Email": "", "Phone": "(209) 383-9300", "Address": "197 W El Portal Dr Ste B Merced, CA 95348-2850", "City": "Merced", "State": "CA", "Zip": "95348-2850", "AddressLine1": "197 W El Portal Dr Ste B", "AddressLine2": "", "Distance": 15.0, "Latitude": 37.32713, "Longitude": -120.47087}, {"Sequence": 31, "PersonId": 187852, "AddressId": 1528357, "Specialty": "General Practice", "Photo": "findadentist.ada.org/Images/Profile/ADA.png", "Name": "Dr. Justin T Chapman", "Email": "merceddentists@gmail.com", "Phone": "(209) 383-3403", "Address": "2800 Park Ave Ste B Merced, CA 95348-3391", "City": "Merced", "State": "CA", "Zip": "95348-3391", "AddressLine1": "2800 Park Ave Ste B", "AddressLine2": "", "Distance": 15.9, "Latitude": 37.31309, "Longitude": -120.47178}, {"Sequence": 32, "PersonId": 235422, "AddressId": 1575927, "Specialty": "General Practice", "Photo": "findadentist.ada.org/Images/Profile/ADA.png", "Name": "Dr. Suk Chan E Yoo", "Email": "edwardyoodds@yahoo.com", "Phone": "(209) 723-8801", "Address": "2809 G St Merced, CA 95340-2133", "City": "Merced", "State": "CA", "Zip": "95340-2133", "AddressLine1": "2809 G St", "AddressLine2": "", "Distance": 16.0, "Latitude": 37.31107, "Longitude": -120.46977}, {"Sequence": 33, "PersonId": 278022, "AddressId": 1618527, "Specialty": "General Practice", "Photo": "findadentist.ada.org/Images/Profile/ADA.png", "Name": "Dr William Oliver", "Email": "WILLIAMOLIVERDDS@SBCGLOBAL.NET", "Phone": "(209) 358-5485", "Address": "1095 Winton Way Atwater, CA 95301-3502", "City": "Atwater", "State": "CA", "Zip": "95301-3502", "AddressLine1": "1095 Winton Way", "AddressLine2": "", "Distance": 17.1, "Latitude": 37.3484, "Longitude": -120.61279}, {"Sequence": 34, "PersonId": 214262, "AddressId": 1554767, "Specialty": "General Practice", "Photo": "findadentist.ada.org/Images/Profile/ADA.png", "Name": "Dr. Dudley Pang", "Email": "", "Phone": "(209) 722-3907", "Address": "106 W Alexander Ave Merced, CA 95348-3410", "City": "Merced", "State": "CA", "Zip": "95348-3410", "AddressLine1": "106 W Alexander Ave", "AddressLine2": "", "Distance": 15.8, "Latitude": 37.31501, "Longitude": -120.47133}, {"Sequence": 35, "PersonId": 277973, "AddressId": 1618478, "Specialty": "General Practice", "Photo": "findadentist.ada.org/Images/Profile/ADA.png", "Name": "Dr Joao F Chang", "Email": "", "Phone": "(209) 723-3071", "Address": "2534 M St Merced, CA 95340-2800", "City": "Merced", "State": "CA", "Zip": "95340-2800", "AddressLine1": "2534 M St", "AddressLine2": "", "Distance": 16.2, "Latitude": 37.31045, "Longitude": -120.47971}, {"Sequence": 36, "PersonId": 219714, "AddressId": 3479810, "Specialty": "General Practice", "Photo": "findadentist.ada.org/Images/Profile/ADA.png", "Name": "Dr. Raedh S Alhwadi", "Email": "", "Phone": "(209) 725-0905", "Address": "2671 Alabama St Atwater, CA 95301-2908", "City": "Atwater", "State": "CA", "Zip": "95301-2908", "AddressLine1": "2671 Alabama St", "AddressLine2": "", "Distance": 16.0, "Latitude": 37.35989, "Longitude": -120.59818}, {"Sequence": 37, "PersonId": 201650, "AddressId": 1542155, "Specialty": "General Practice", "Photo": "findadentist.ada.org/Images/Profile/ADA.png", "Name": "Dr. Gloria E Villasenor-Fass", "Email": "", "Phone": "(209) 723-5405", "Address": "560 W 26th St Merced, CA 95340-2837", "City": "Merced", "State": "CA", "Zip": "95340-2837", "AddressLine1": "560 W 26th St", "AddressLine2": "", "Distance": 16.2, "Latitude": 37.31072, "Longitude": -120.47953}, {"Sequence": 38, "PersonId": 144916, "AddressId": 3133121, "Specialty": "General Practice", "Photo": "findadentist.ada.org/Images/Profile/ADA.png", "Name": "Dr. Samuel C Sheu", "Email": "", "Phone": "(209) 383-5935", "Address": "118 Park Ave Merced, CA 95348-3421", "City": "Merced", "State": "CA", "Zip": "95348-3421", "AddressLine1": "118 Park Ave", "AddressLine2": "", "Distance": 16.0, "Latitude": 37.31174, "Longitude": -120.47061}, {"Sequence": 39, "PersonId": 277969, "AddressId": 1618474, "Specialty": "General Practice", "Photo": "findadentist.ada.org/Images/Profile/ADA.png", "Name": "Dr Thomas P Penders", "Email": "", "Phone": "(209) 383-6774", "Address": "830 W Olive Ave Ste E Merced, CA 95348-2420", "City": "Merced", "State": "CA", "Zip": "95348-2420", "AddressLine1": "830 W Olive Ave Ste E", "AddressLine2": null, "Distance": 15.7, "Latitude": 37.31895, "Longitude": -120.48301}, {"Sequence": 40, "PersonId": 278034, "AddressId": 1618539, "Specialty": "General Practice", "Photo": "findadentist.ada.org/Images/Profile/ADA.png", "Name": "Dr Jeffrey F Boothe", "Email": "jboothedds@gmail.com", "Phone": "(209) 722-4480", "Address": "3351 M St Ste 225 Merced, CA 95348-2731", "City": "Merced", "State": "CA", "Zip": "95348-2731", "AddressLine1": "3351 M St Ste 225", "AddressLine2": "", "Distance": 15.2, "Latitude": 37.32454, "Longitude": -120.47867}, {"Sequence": 41, "PersonId": 225091, "AddressId": 3560856, "Specialty": "General Practice", "Photo": "findadentist.ada.org/Images/Profile/ADA.png", "Name": "Dr. Anupama Nandeesh", "Email": "", "Phone": "(209) 383-5764", "Address": "747 W. Childs Ave. Merced, CA 95341-6805", "City": "Merced", "State": "CA", "Zip": "95341-6805", "AddressLine1": "747 W. Childs Ave.", "AddressLine2": "", "Distance": 17.9, "Latitude": 37.28874, "Longitude": -120.49594}, {"Sequence": 42, "PersonId": 193455, "AddressId": 1533960, "Specialty": "General Practice", "Photo": "findadentist.ada.org/Images/Profile/ADA.png", "Name": "Dr. Mounzer G Bachour", "Email": "CASTLE.DENTAL@LIVE.COM", "Phone": "(209) 381-2005", "Address": "3605 Hospital Rd Ste A Atwater, CA 95301-5173", "City": "Atwater", "State": "CA", "Zip": "95301-5173", "AddressLine1": "3605 Hospital Rd Ste A", "AddressLine2": null, "Distance": 14.9, "Latitude": 37.36677, "Longitude": -120.5778}, {"Sequence": 43, "PersonId": 239091, "AddressId": 1579596, "Specialty": "General Practice", "Photo": "findadentist.ada.org/Images/Profile/ADA.png", "Name": "Dr. Kasey S Perry", "Email": "kcp0002@yahoo.com", "Phone": "(209) 383-5764", "Address": "747 West Childes Avenue Merced, CA 95341-6862", "City": "Merced", "State": "CA", "Zip": "95341-6862", "AddressLine1": "747 West Childes Avenue", "AddressLine2": "", "Distance": 17.8, "Latitude": 37.28899, "Longitude": -120.49631}, {"Sequence": 44, "PersonId": 206821, "AddressId": 1547326, "Specialty": "General Practice", "Photo": "findadentist.ada.org/Images/Profile/ADA.png", "Name": "Dr. Houda I Bachour", "Email": "", "Phone": "(209) 391-2005", "Address": "3605 Hospital Rd Ste A Atwater, CA 95301-5173", "City": "Atwater", "State": "CA", "Zip": "95301-5173", "AddressLine1": "3605 Hospital Rd Ste A", "AddressLine2": null, "Distance": 14.9, "Latitude": 37.36677, "Longitude": -120.5778}, {"Sequence": 45, "PersonId": 201650, "AddressId": 2772925, "Specialty": "General Practice", "Photo": "findadentist.ada.org/Images/Profile/ADA.png", "Name": "Dr. Gloria E Villasenor-Fass", "Email": "", "Phone": "(209) 383-7804", "Address": "3605 Hospital Rd Atwater, CA 95301-5173", "City": "Atwater", "State": "CA", "Zip": "95301-5173", "AddressLine1": "3605 Hospital Rd", "AddressLine2": "", "Distance": 14.9, "Latitude": 37.3667, "Longitude": -120.57761}, {"Sequence": 46, "PersonId": 178395, "AddressId": 2723610, "Specialty": "General Practice", "Photo": "findadentist.ada.org/Images/Profile/ADA.png", "Name": "Dr. Irwan H Murni", "Email": "", "Phone": "(209) 722-7847", "Address": "1190 Olivewood Dr Merced, CA 95348-1256", "City": "Merced", "State": "CA", "Zip": "95348-1256", "AddressLine1": "1190 Olivewood Dr", "AddressLine2": "Ste C", "Distance": 15.8, "Latitude": 37.31791, "Longitude": -120.49032}, {"Sequence": 47, "PersonId": 241096, "AddressId": 2805977, "Specialty": "General Practice", "Photo": "findadentist.ada.org/Images/Profile/ADA.png", "Name": "Dr. Robert L Hill", "Email": "lequia.hill@gmail.com", "Phone": "(209) 384-1202", "Address": "2800 Park Ave Ste B Merced, CA 95348-3391", "City": "Merced", "State": "CA", "Zip": "95348-3391", "AddressLine1": "2800 Park Ave Ste B", "AddressLine2": "", "Distance": 15.9, "Latitude": 37.31284, "Longitude": -120.47168}, {"Sequence": 48, "PersonId": 134254, "AddressId": 1474759, "Specialty": "General Practice", "Photo": "findadentist.ada.org/Images/Profile/ADA.png", "Name": "Dr. Ken S Chan", "Email": "mercedgateway@outlook.com", "Phone": "(209) 600-7123", "Address": "1176 Olivewood Dr Merced, CA 95348-1210", "City": "Merced", "State": "CA", "Zip": "95348-1210", "AddressLine1": "1176 Olivewood Dr", "AddressLine2": null, "Distance": 15.8, "Latitude": 37.31783, "Longitude": -120.48978}, {"Sequence": 49, "PersonId": 144916, "AddressId": 2810474, "Specialty": "General Practice", "Photo": "findadentist.ada.org/Images/Profile/ADA.png", "Name": "Dr. Samuel C Sheu", "Email": "", "Phone": "(209) 357-1778", "Address": "1590 Winton Way Atwater, CA 95301-3241", "City": "Atwater", "State": "CA", "Zip": "95301-3241", "AddressLine1": "1590 Winton Way", "AddressLine2": "", "Distance": 16.9, "Latitude": 37.3534, "Longitude": -120.61375}, {"Sequence": 50, "PersonId": 223812, "AddressId": 2772962, "Specialty": "General Practice", "Photo": "findadentist.ada.org/Images/Profile/ADA.png", "Name": "Dr. Luis Teixeira", "Email": "", "Phone": null, "Address": "1180 Olivewood Dr Merced, CA 95348-1210", "City": "Merced", "State": "CA", "Zip": "95348-1210", "AddressLine1": "1180 Olivewood Dr", "AddressLine2": "", "Distance": 15.8, "Latitude": 37.31781, "Longitude": -120.48962}, {"Sequence": 51, "PersonId": 277992, "AddressId": 1618497, "Specialty": "Orthodontics and Dentofacial Orthopedics", "Photo": "findadentist.ada.org/Images/Profile/ADA.png", "Name": "Dr Loretta Y Say", "Email": "", "Phone": "(209) 358-1501", "Address": "325 E Bellevue Rd Atwater, CA 95301-2306", "City": "Atwater", "State": "CA", "Zip": "95301-2306", "AddressLine1": "325 E Bellevue Rd", "AddressLine2": "", "Distance": 15.8, "Latitude": 37.36076, "Longitude": -120.59297}, {"Sequence": 52, "PersonId": 254885, "AddressId": 2739143, "Specialty": "General Practice", "Photo": "findadentist.ada.org/Images/Profile/ADA.png", "Name": "Dr. Kanchan H Dharma", "Email": "", "Phone": null, "Address": "700 W Olive Ave Ste E Merced, CA 95348-2435", "City": "Merced", "State": "CA", "Zip": "95348-2435", "AddressLine1": "700 W Olive Ave Ste E", "AddressLine2": "", "Distance": 15.6, "Latitude": 37.31882, "Longitude": -120.48018}, {"Sequence": 53, "PersonId": 278026, "AddressId": 1618531, "Specialty": "General Practice", "Photo": "findadentist.ada.org/Images/Profile/ADA.png", "Name": "Dr Jay K Gremillion", "Email": "", "Phone": "(209) 812-4311", "Address": "1128 Commerce Ave Atwater, CA 95301-5216", "City": "Atwater", "State": "CA", "Zip": "95301-5216", "AddressLine1": "1128 Commerce Ave", "AddressLine2": null, "Distance": 17.4, "Latitude": 37.34266, "Longitude": -120.61152}, {"Sequence": 54, "PersonId": 227981, "AddressId": 3307125, "Specialty": "General Practice", "Photo": "findadentist.ada.org/Images/Profile/ADA.png", "Name": "Dr. Jeremy D Skinner", "Email": "info@qualitysmile.com", "Phone": "(209) 723-5405", "Address": "560 W 26th St Merced, CA 95340-2837", "City": "Merced", "State": "CA", "Zip": "95340-2837", "AddressLine1": "560 W 26th St", "AddressLine2": "", "Distance": 16.2, "Latitude": 37.31072, "Longitude": -120.47953}, {"Sequence": 55, "PersonId": 277972, "AddressId": 1618477, "Specialty": "General Practice", "Photo": "findadentist.ada.org/Images/Profile/ADA.png", "Name": "Dr Thida Mahasucon", "Email": "", "Phone": "(209) 723-3071", "Address": "2534 M St Merced, CA 95340-2800", "City": "Merced", "State": "CA", "Zip": "95340-2800", "AddressLine1": "2534 M St", "AddressLine2": "", "Distance": 16.2, "Latitude": 37.31045, "Longitude": -120.47971}, {"Sequence": 56, "PersonId": 239092, "AddressId": 1579597, "Specialty": "General Practice", "Photo": "findadentist.ada.org/Images/Profile/ADA.png", "Name": "Dr. Kevin S Perry", "Email": "", "Phone": "(209) 382-1698", "Address": "9235 E Broadway St Planada, CA 95365-8088", "City": "Planada", "State": "CA", "Zip": "95365-8088", "AddressLine1": "9235 E Broadway St", "AddressLine2": "", "Distance": 17.9, "Latitude": 37.29037, "Longitude": -120.32075}, {"Sequence": 57, "PersonId": 117899, "AddressId": 3178374, "Specialty": "General Practice", "Photo": "findadentist.ada.org/Images/Profile/ADA.png", "Name": "Dr. Kiet M Tran", "Email": "", "Phone": "(714) 542-8888", "Address": "1027 Century Cir Merced, CA 95340-0765", "City": "Merced", "State": "CA", "Zip": "95340-0765", "AddressLine1": "1027 Century Cir", "AddressLine2": "", "Distance": 14.5, "Latitude": 37.33187, "Longitude": -120.45939}, {"Sequence": 58, "PersonId": 182433, "AddressId": 1522938, "Specialty": "General Practice", "Photo": "findadentist.ada.org/Images/Profile/ADA.png", "Name": "Dr. Sal G Souza", "Email": "salsouza@yahoo.com", "Phone": "(209) 383-9370", "Address": "1168 Olivewood Dr Merced, CA 95348-1210", "City": "Merced", "State": "CA", "Zip": "95348-1210", "AddressLine1": "1168 Olivewood Dr", "AddressLine2": null, "Distance": 15.8, "Latitude": 37.3178, "Longitude": -120.48939}, {"Sequence": 59, "PersonId": 206025, "AddressId": 1546530, "Specialty": "General Practice", "Photo": "findadentist.ada.org/Images/Profile/ADA.png", "Name": "Dr. Emad H Huwaidi", "Email": "", "Phone": "(209) 358-7146", "Address": "2671 Alabama St Atwater, CA 95301-2908", "City": "Atwater", "State": "CA", "Zip": "95301-2908", "AddressLine1": "2671 Alabama St", "AddressLine2": "", "Distance": 16.0, "Latitude": 37.35989, "Longitude": -120.59818}, {"Sequence": 60, "PersonId": 278033, "AddressId": 1618538, "Specialty": "General Practice", "Photo": "findadentist.ada.org/Images/Profile/ADA.png", "Name": "Dr Thomas E Lequia", "Email": "", "Phone": "(209) 384-1202", "Address": "2800 Park Ave Ste B Merced, CA 95348-3391", "City": "Merced", "State": "CA", "Zip": "95348-3391", "AddressLine1": "2800 Park Ave Ste B", "AddressLine2": "", "Distance": 15.9, "Latitude": 37.31309, "Longitude": -120.47178}]