[{"Sequence": 1, "PersonId": 231549, "AddressId": 1572054, "Specialty": "General Practice", "Photo": "findadentist.ada.org/Images/Profile/231549-Dr-Prashant-Makadia.png", "Name": "Dr. Prashant P Makadia", "Email": "", "Phone": "(360) 329-4657", "Address": "417 SW Sedgwick Rd Ste 101 Port Orchard, WA 98367-6449", "City": "Port Orchard", "State": "WA", "Zip": "98367-6449", "AddressLine1": "417 SW Sedgwick Rd Ste 101", "AddressLine2": "", "Distance": 2.2, "Latitude": 47.49857, "Longitude": -122.65418}, {"Sequence": 2, "PersonId": 205830, "AddressId": 3490411, "Specialty": "Endodontics", "Photo": "findadentist.ada.org/Images/Profile/205830-Dr-Tina-Olsson.png", "Name": "Dr. Tina M Olsson", "Email": "info@silverdaledentalcenter.com", "Phone": "(360) 536-4779", "Address": "3637 NW Byron St Silverdale, WA 98383-9127", "City": "Silverdale", "State": "WA", "Zip": "98383-9127", "AddressLine1": "3637 NW Byron St", "AddressLine2": "", "Distance": 11.5, "Latitude": 47.64425, "Longitude": -122.69841}, {"Sequence": 3, "PersonId": 252955, "AddressId": 2814799, "Specialty": "General Practice", "Photo": "findadentist.ada.org/Images/Profile/252955-Dr-Christopher-Tobler.png", "Name": "Dr. Christopher M Tobler", "Email": "", "Phone": "(317) 926-5467", "Address": "5803 15Th Ave Nw Seattle, WA 98107-3006", "City": "Seattle", "State": "WA", "Zip": "98107-3006", "AddressLine1": "5803 15Th Ave Nw", "AddressLine2": "", "Distance": 19.8, "Latitude": 47.67117, "Longitude": -122.37646}, {"Sequence": 4, "PersonId": 102796, "AddressId": 2710305, "Specialty": "Oral and Maxillofacial Surgery", "Photo": "findadentist.ada.org/Images/Profile/102796-Dr-Gary-Feldman.png", "Name": "Dr Gary R Feldman", "Email": "garyf@feldmanbloomquist.com", "Phone": "(360) 479-4050", "Address": "2530 Perry Ave Bremerton, WA 98310-5219", "City": "Bremerton", "State": "WA", "Zip": "98310-5219", "AddressLine1": "2530 Perry Ave", "AddressLine2": "", "Distance": 8.2, "Latitude": 47.58505, "Longitude": -122.61312}, {"Sequence": 5, "PersonId": 202537, "AddressId": 3014046, "Specialty": "General Practice", "Photo": "findadentist.ada.org/Images/Profile/202537-Dr-Bryan-Brenner.png", "Name": "Dr. Bryan D Brenner", "Email": "", "Phone": "(206) 258-4965", "Address": "215 1st Ave W Ste 100 Seattle, WA 98119-4257", "City": "Seattle", "State": "WA", "Zip": "98119-4257", "AddressLine1": "215 1st Ave W Ste 100", "AddressLine2": "", "Distance": 18.3, "Latitude": 47.62011, "Longitude": -122.35843}, {"Sequence": 6, "PersonId": 143128, "AddressId": 3441240, "Specialty": "Oral and Maxillofacial Surgery", "Photo": "findadentist.ada.org/Images/Profile/143128-Dr-Manuel-La Rosa.png", "Name": "Dr. Manuel J La Rosa", "Email": "info-oms@soundsurgicalarts.com", "Phone": "(253) 564-1000", "Address": "2727 Hollycroft St Gig Harbor, WA 98335", "City": "Gig Harbor", "State": "WA", "Zip": "98335", "AddressLine1": "2727 Hollycroft St", "AddressLine2": "Suite 270 Park PLaza West", "Distance": 12.9, "Latitude": 47.3091, "Longitude": -122.57529}, {"Sequence": 7, "PersonId": 138035, "AddressId": 3500997, "Specialty": "Oral and Maxillofacial Surgery", "Photo": "findadentist.ada.org/Images/Profile/138035-Dr-Jae-Hong.png", "Name": "Dr. Jae Y Hong", "Email": "", "Phone": "(206) 243-3300", "Address": "429 SW 153rd St Burien, WA 98166", "City": "Burien", "State": "WA", "Zip": "98166", "AddressLine1": "429 SW 153rd St", "AddressLine2": "", "Distance": 16.4, "Latitude": 47.46568, "Longitude": -122.34041}, {"Sequence": 8, "PersonId": 102190, "AddressId": 1442695, "Specialty": "General Practice", "Photo": "findadentist.ada.org/Images/Profile/102190-Dr-Richard-Freiboth.png", "Name": "Dr Richard D Freiboth", "Email": "freibothdds@wavecable.com", "Phone": "(360) 871-0028", "Address": "1600 Woodridge Dr SE Port Orchard, WA 98366-3818", "City": "Port Orchard", "State": "WA", "Zip": "98366-3818", "AddressLine1": "1600 Woodridge Dr SE", "AddressLine2": "", "Distance": 6.3, "Latitude": 47.53439, "Longitude": -122.58319}, {"Sequence": 9, "PersonId": 235888, "AddressId": 1576393, "Specialty": "General Practice", "Photo": "findadentist.ada.org/Images/Profile/235888-Dr-Gary-Grimm.png", "Name": "Dr. Gary L Grimm", "Email": "", "Phone": "(253) 858-7717", "Address": "2727 Hollycroft St Ste 470 Gig Harbor, WA 98335-1312", "City": "Gig Harbor", "State": "WA", "Zip": "98335-1312", "AddressLine1": "2727 Hollycroft St Ste 470", "AddressLine2": "", "Distance": 12.8, "Latitude": 47.30948, "Longitude": -122.57573}, {"Sequence": 10, "PersonId": 226832, "AddressId": 1567337, "Specialty": "General Practice", "Photo": "findadentist.ada.org/Images/Profile/226832-Dr-Kyle-Beffa.png", "Name": "Dr. Kyle M Beffa", "Email": "info@beffadental.com", "Phone": "(206) 242-0066", "Address": "124 S Normandy Rd Burien, WA 98148-1708", "City": "Burien", "State": "WA", "Zip": "98148-1708", "AddressLine1": "124 S Normandy Rd", "AddressLine2": "", "Distance": 16.9, "Latitude": 47.44235, "Longitude": -122.33324}, {"Sequence": 11, "PersonId": 102183, "AddressId": 1442688, "Specialty": "General Practice", "Photo": "findadentist.ada.org/Images/Profile/102183-Dr-Eugene-Mumford.png", "Name": "Dr Eugene S Mumford", "Email": "", "Phone": "(360) 779-3211", "Address": "19163 Jensen Way NE Poulsbo, WA 98370", "City": "Poulsbo", "State": "WA", "Zip": "98370", "AddressLine1": "19163 Jensen Way NE", "AddressLine2": "", "Distance": 18.0, "Latitude": 47.73685, "Longitude": -122.64679}, {"Sequence": 12, "PersonId": 194472, "AddressId": 3497463, "Specialty": "Endodontics", "Photo": "findadentist.ada.org/Images/Profile/194472-Dr-Arash-Niazi-Sharaki.png", "Name": "Dr. Arash Niazi-Sharaki", "Email": "baboosh30@yahoo.com", "Phone": "(360) 443-2424", "Address": "1730 Pottery Ave Ste 200 Port Orchard, WA 98366", "City": "Port Orchard", "State": "WA", "Zip": "98366", "AddressLine1": "1730 Pottery Ave Ste 200", "AddressLine2": "", "Distance": 3.5, "Latitude": 47.52282, "Longitude": -122.65298}, {"Sequence": 13, "PersonId": 104329, "AddressId": 1444834, "Specialty": "General Practice", "Photo": "findadentist.ada.org/Images/Profile/104329-Dr-Gregory-Yen.png", "Name": "Gregory Yen", "Email": "yenfamilydental@gmail.com", "Phone": "(206) 243-5740", "Address": "16006 Military Rd S SeaTac, WA 98188-3007", "City": "SeaTac", "State": "WA", "Zip": "98188-3007", "AddressLine1": "16006 Military Rd S", "AddressLine2": "", "Distance": 19.0, "Latitude": 47.45948, "Longitude": -122.28537}, {"Sequence": 14, "PersonId": 103779, "AddressId": 1444284, "Specialty": "General Practice", "Photo": "findadentist.ada.org/Images/Profile/103779-Dr-Rhys-Spoor.png", "Name": "Dr Rhys D Spoor", "Email": "frontdesk@rhysspoor.com", "Phone": "(206) 682-8200", "Address": "701 5th Ave Ste 4660 Seattle, WA 98104-7057", "City": "Seattle", "State": "WA", "Zip": "98104-7057", "AddressLine1": "701 5th Ave Ste 4660", "AddressLine2": null, "Distance": 18.9, "Latitude": 47.60451, "Longitude": -122.3306}, {"Sequence": 15, "PersonId": 103540, "AddressId": 3495585, "Specialty": "General Practice", "Photo": "findadentist.ada.org/Images/Profile/103540-Dr-Donald-Jayne.png", "Name": "Dr Donald M Jayne", "Email": "office@jaynedds.com", "Phone": "(206) 323-3360", "Address": "1119 4th Ave Seattle, WA 98101-3003", "City": "Seattle", "State": "WA", "Zip": "98101-3003", "AddressLine1": "1119 4th Ave", "AddressLine2": "", "Distance": 18.8, "Latitude": 47.60723, "Longitude": -122.33428}, {"Sequence": 16, "PersonId": 226603, "AddressId": 2857986, "Specialty": "General Practice", "Photo": "findadentist.ada.org/Images/Profile/226603-Dr-Meghan-Crawford.png", "Name": "Dr. Meghan Z Crawford", "Email": "hello@columbiacitydental.com", "Phone": "(206) 743-8356", "Address": "3810 S Ferdinand St Ste 201 Seattle, WA 98118-1750", "City": "Seattle", "State": "WA", "Zip": "98118-1750", "AddressLine1": "3810 S Ferdinand St Ste 201", "AddressLine2": "", "Distance": 19.7, "Latitude": 47.55808, "Longitude": -122.2844}, {"Sequence": 17, "PersonId": 104354, "AddressId": 1444859, "Specialty": "Periodontics", "Photo": "findadentist.ada.org/Images/Profile/104354-Dr-Lloyd-Tucker.png", "Name": "Dr Lloyd M Tucker", "Email": "info@drlloydtucker.com", "Phone": "(206) 937-8253", "Address": "4150 California Ave SW Seattle, WA 98116-4102", "City": "Seattle", "State": "WA", "Zip": "98116-4102", "AddressLine1": "4150 California Ave SW", "AddressLine2": "", "Distance": 15.4, "Latitude": 47.56512, "Longitude": -122.38644}, {"Sequence": 18, "PersonId": 105052, "AddressId": 1445557, "Specialty": "General Practice", "Photo": "findadentist.ada.org/Images/Profile/105052-Dr-Gregory-Plancich.png", "Name": "Dr. Gregory J Plancich", "Email": "", "Phone": "(253) 272-7400", "Address": "2312 N 30th St Ste 201 Tacoma, WA 98403-3356", "City": "Tacoma", "State": "WA", "Zip": "98403-3356", "AddressLine1": "2312 N 30th St Ste 201", "AddressLine2": "", "Distance": 17.5, "Latitude": 47.27456, "Longitude": -122.46772}, {"Sequence": 19, "PersonId": 143128, "AddressId": 3441242, "Specialty": "Oral and Maxillofacial Surgery", "Photo": "findadentist.ada.org/Images/Profile/143128-Dr-Manuel-La Rosa.png", "Name": "Dr. Manuel J La Rosa", "Email": "info-oms@soundsurgicalarts.com", "Phone": "(253) 564-1000", "Address": "1628 S Mildred St Tacoma, WA 98465-1629", "City": "Tacoma", "State": "WA", "Zip": "98465-1629", "AddressLine1": "1628 S Mildred St", "AddressLine2": "Suite 210 James Center Plaza", "Distance": 17.8, "Latitude": 47.24545, "Longitude": -122.52845}, {"Sequence": 20, "PersonId": 102104, "AddressId": 1442609, "Specialty": "Periodontics", "Photo": "findadentist.ada.org/Images/Profile/102104-Dr-Paul-Broere.png", "Name": "Dr Paul T Broere", "Email": "", "Phone": "(360) 692-1208", "Address": "9692 Levin Rd NW Ste. #101 Silverdale, WA 98383-7801", "City": "Silverdale", "State": "WA", "Zip": "98383-7801", "AddressLine1": "9692 Levin Rd NW Ste. #101", "AddressLine2": null, "Distance": 12.0, "Latitude": 47.65169, "Longitude": -122.68368}, {"Sequence": 21, "PersonId": 140156, "AddressId": 1480661, "Specialty": "Oral and Maxillofacial Surgery", "Photo": "findadentist.ada.org/Images/Profile/140156-Dr-Thomas-Maring.png", "Name": "Dr. Thomas S Maring", "Email": "drmaring@drmaring.com", "Phone": "(206) 343-7500", "Address": "509 Olive Way Ste 750 Seattle, WA 98101-1773", "City": "Seattle", "State": "WA", "Zip": "98101-1773", "AddressLine1": "509 Olive Way Ste 750", "AddressLine2": "", "Distance": 18.9, "Latitude": 47.61271, "Longitude": -122.33661}, {"Sequence": 22, "PersonId": 105012, "AddressId": 1445517, "Specialty": "General Practice", "Photo": "findadentist.ada.org/Images/Profile/105012-Dr-David-Hansen.png", "Name": "Dr. David E Hansen", "Email": "", "Phone": "(253) 752-7755", "Address": "3515 S 15th St Ste 201 Tacoma, WA 98405-1955", "City": "Tacoma", "State": "WA", "Zip": "98405-1955", "AddressLine1": "3515 S 15th St Ste 201", "AddressLine2": "", "Distance": 18.7, "Latitude": 47.24675, "Longitude": -122.48332}, {"Sequence": 23, "PersonId": 102963, "AddressId": 3103589, "Specialty": "General Practice", "Photo": "findadentist.ada.org/Images/Profile/102963-Dr-Thomas-Bridgman.png", "Name": "Dr Thomas R Bridgman", "Email": "thomasbridgmandds@yahoo.com", "Phone": "(206) 292-9980", "Address": "720 Olive Way Ste 930 Seattle, WA 98101-1840", "City": "Seattle", "State": "WA", "Zip": "98101-1840", "AddressLine1": "720 Olive Way Ste 930", "AddressLine2": "", "Distance": 19.1, "Latitude": 47.61418, "Longitude": -122.33473}, {"Sequence": 24, "PersonId": 104785, "AddressId": 1445290, "Specialty": "General Practice", "Photo": "findadentist.ada.org/Images/Profile/104785-Dr-Donald-Hearon.png", "Name": "Dr. Donald E Hearon", "Email": "office@drhearondds.com", "Phone": "(253) 756-0600", "Address": "1901 S Washington St Tacoma, WA 98405-1026", "City": "Tacoma", "State": "WA", "Zip": "98405-1026", "AddressLine1": "1901 S Washington St", "AddressLine2": "", "Distance": 18.9, "Latitude": 47.24254, "Longitude": -122.4844}, {"Sequence": 25, "PersonId": 104212, "AddressId": 3345572, "Specialty": "Periodontics", "Photo": "findadentist.ada.org/Images/Profile/104212-Dr-Gerrarda-O'Beirne.png", "Name": "Gerrarda C. O'Beirne BDS,MSD,PLLC", "Email": "Office@eperiodontist.com", "Phone": "(206) 628-0404", "Address": "720 Olive Way Ste 810 Seattle, WA 98101", "City": "Seattle", "State": "WA", "Zip": "98101", "AddressLine1": "720 Olive Way Ste 810", "AddressLine2": "", "Distance": 19.1, "Latitude": 47.61418, "Longitude": -122.33473}, {"Sequence": 26, "PersonId": 156383, "AddressId": 2808085, "Specialty": "General Practice", "Photo": "findadentist.ada.org/Images/Profile/156383-Dr-Raymond-Kao.png", "Name": "Dr. Raymond Kao", "Email": "info@kaodental.com", "Phone": "(253) 851-9963", "Address": "7525 Pioneer Way Ste 102 Gig Harbor, WA 98335-1165", "City": "Gig Harbor", "State": "WA", "Zip": "98335-1165", "AddressLine1": "7525 Pioneer Way Ste 102", "AddressLine2": "", "Distance": 11.6, "Latitude": 47.32687, "Longitude": -122.58339}, {"Sequence": 27, "PersonId": 195042, "AddressId": 2691324, "Specialty": "General Practice", "Photo": "findadentist.ada.org/Images/Profile/195042-Dr-Lina-Kim.png", "Name": "Dr. Lina Kim", "Email": "reception@linakimdental.com", "Phone": "(206) 985-0232", "Address": "3150 W Government Way Ste 1A Seattle, WA 98199-1461", "City": "Seattle", "State": "WA", "Zip": "98199-1461", "AddressLine1": "3150 W Government Way Ste 1A", "AddressLine2": "", "Distance": 18.5, "Latitude": 47.66045, "Longitude": -122.39862}, {"Sequence": 28, "PersonId": 268681, "AddressId": 3400447, "Specialty": "General Practice", "Photo": "findadentist.ada.org/Images/Profile/268681-Dr-Joe-Vaughn.png", "Name": "Dr. Joe Vaughn", "Email": "josephv@neighborcare.org", "Phone": "(206) 548-5850", "Address": "1200 12th Ave South Seattle, WA 98144", "City": "Seattle", "State": "WA", "Zip": "98144", "AddressLine1": "1200 12th Ave South", "AddressLine2": "Suite 401", "Distance": 19.2, "Latitude": 47.59256, "Longitude": -122.31611}, {"Sequence": 29, "PersonId": 105143, "AddressId": 1445648, "Specialty": "General Practice", "Photo": "findadentist.ada.org/Images/Profile/105143-Dr-Keiko-Wada.png", "Name": "Dr. Keiko J Wada", "Email": "info@wadadmd.com", "Phone": "(253) 858-8158", "Address": "7108 Pioneer Way Ste E Gig Harbor, WA 98335-1178", "City": "Gig Harbor", "State": "WA", "Zip": "98335-1178", "AddressLine1": "7108 Pioneer Way Ste E", "AddressLine2": "", "Distance": 11.7, "Latitude": 47.32303, "Longitude": -122.5887}, {"Sequence": 30, "PersonId": 122136, "AddressId": 1462641, "Specialty": "General Practice", "Photo": "findadentist.ada.org/Images/Profile/122136-Dr-Steven-Haws.png", "Name": "Dr. Steven M Haws", "Email": "info@clearcreekdentistry.net", "Phone": "(360) 692-9560", "Address": "3637 NW Byron St Silverdale, WA 98383-9127", "City": "Silverdale", "State": "WA", "Zip": "98383-9127", "AddressLine1": "3637 NW Byron St", "AddressLine2": "", "Distance": 11.5, "Latitude": 47.64421, "Longitude": -122.69841}, {"Sequence": 31, "PersonId": 103620, "AddressId": 3037436, "Specialty": "General Practice", "Photo": "findadentist.ada.org/Images/Profile/103620-Dr-George-McIntyre.png", "Name": "Dr George T McIntyre", "Email": "rfdentistry@gmail.com", "Phone": "(206) 723-2609", "Address": "7923 Rainier Ave S Seattle, WA 98118-4444", "City": "Seattle", "State": "WA", "Zip": "98118-4444", "AddressLine1": "7923 Rainier Ave S", "AddressLine2": "", "Distance": 19.9, "Latitude": 47.53085, "Longitude": -122.27027}, {"Sequence": 32, "PersonId": 340732, "AddressId": 3324052, "Specialty": "General Practice", "Photo": "findadentist.ada.org/Images/Profile/340732-Dr-Lance-Bergeson.png", "Name": "Dr. Lance L Bergeson", "Email": "drlancebergeson@gmail.com", "Phone": "(253) 565-4474", "Address": "4103 Bridgeport Way W Ste A University Place, WA 98332", "City": "University Place", "State": "WA", "Zip": "98332", "AddressLine1": "4103 Bridgeport Way W Ste A", "AddressLine2": "", "Distance": 19.2, "Latitude": 47.22041, "Longitude": -122.53614}, {"Sequence": 33, "PersonId": 235948, "AddressId": 3445078, "Specialty": "Endodontics", "Photo": "findadentist.ada.org/Images/Profile/235948-Dr-Jagdeep-Gill.png", "Name": "Dr. Jagdeep S Gill", "Email": "frontdesk@easeattle.com", "Phone": "(206) 621-9730", "Address": "509 Olive Way Ste 1511 Seattle, WA 98101-1749", "City": "Seattle", "State": "WA", "Zip": "98101-1749", "AddressLine1": "509 Olive Way Ste 1511", "AddressLine2": "", "Distance": 18.9, "Latitude": 47.61275, "Longitude": -122.33657}, {"Sequence": 34, "PersonId": 147005, "AddressId": 2987853, "Specialty": "General Practice", "Photo": "findadentist.ada.org/Images/Profile/147005-Dr-Michael-Kitsis.png", "Name": "Dr. Michael Kitsis", "Email": "hello@michaelkitsisdentistry.com", "Phone": "(206) 687-7571", "Address": "133 Queen Anne Ave N Seattle, WA 98109-4980", "City": "Seattle", "State": "WA", "Zip": "98109-4980", "AddressLine1": "133 Queen Anne Ave N", "AddressLine2": "", "Distance": 18.4, "Latitude": 47.6196, "Longitude": -122.35712}, {"Sequence": 35, "PersonId": 104787, "AddressId": 1445292, "Specialty": "Orthodontics and Dentofacial Orthopedics", "Photo": "findadentist.ada.org/Images/Profile/104787-Dr-Joseph-Bordeaux.png", "Name": "Dr. Joseph M Bordeaux", "Email": "", "Phone": "(253) 752-9006", "Address": "2302 S Union Ave Ste C24 Tacoma, WA 98405-1334", "City": "Tacoma", "State": "WA", "Zip": "98405-1334", "AddressLine1": "2302 S Union Ave Ste C24", "AddressLine2": null, "Distance": 19.2, "Latitude": 47.23828, "Longitude": -122.48276}, {"Sequence": 36, "PersonId": 127678, "AddressId": 1468183, "Specialty": "General Practice", "Photo": "findadentist.ada.org/Images/Profile/127678-Dr-Kamal-Bajwa.png", "Name": "Dr. Kamal Bajwa", "Email": "kamalbajwadds@yahoo.com", "Phone": "(206) 242-8080", "Address": "14242 Ambaum Blvd SW Ste 1 Burien, WA 98166-1443", "City": "Burien", "State": "WA", "Zip": "98166-1443", "AddressLine1": "14242 Ambaum Blvd SW Ste 1", "AddressLine2": "", "Distance": 16.0, "Latitude": 47.47509, "Longitude": -122.34721}, {"Sequence": 37, "PersonId": 230778, "AddressId": 3055513, "Specialty": "Periodontics", "Photo": "findadentist.ada.org/Images/Profile/230778-Dr-Jim-Janakievski.png", "Name": "Dr. Jim Janakievski", "Email": "", "Phone": "(253) 752-6622", "Address": "4050 S 19th St Ste 101 Tacoma, WA 98405-1462", "City": "Tacoma", "State": "WA", "Zip": "98405-1462", "AddressLine1": "4050 S 19th St Ste 101", "AddressLine2": "", "Distance": 18.8, "Latitude": 47.24253, "Longitude": -122.49202}, {"Sequence": 38, "PersonId": 188119, "AddressId": 1528624, "Specialty": "Oral and Maxillofacial Surgery", "Photo": "findadentist.ada.org/Images/Profile/188119-Dr-Lucas-Beatty.png", "Name": "Dr. Lucas R Beatty", "Email": "", "Phone": "(206) 248-3035", "Address": "15515 3rd Ave SW Ste E Burien, WA 98166-2553", "City": "Burien", "State": "WA", "Zip": "98166-2553", "AddressLine1": "15515 3rd Ave SW Ste E", "AddressLine2": "", "Distance": 16.5, "Latitude": 47.46387, "Longitude": -122.33811}, {"Sequence": 39, "PersonId": 102644, "AddressId": 1443149, "Specialty": "Oral and Maxillofacial Surgery", "Photo": "findadentist.ada.org/Images/Profile/102644-Dr-Brian-Hart.png", "Name": "Dr Brian T Hart", "Email": "INFO@PSOMS.COM", "Phone": "(206) 624-8445", "Address": "1229 Madison St Ste 1020 Seattle, WA 98104-3594", "City": "Seattle", "State": "WA", "Zip": "98104-3594", "AddressLine1": "1229 Madison St Ste 1020", "AddressLine2": "", "Distance": 19.4, "Latitude": 47.61009, "Longitude": -122.32211}, {"Sequence": 40, "PersonId": 340515, "AddressId": 3565703, "Specialty": "General Practice", "Photo": "findadentist.ada.org/Images/Profile/340515-Dr-Suzanna-McAninley.png", "Name": "Dr. Suzanna B McAninley", "Email": "", "Phone": "(206) 625-9358", "Address": "2623 2nd Ave Seattle, WA 98121", "City": "Seattle", "State": "WA", "Zip": "98121", "AddressLine1": "2623 2nd Ave", "AddressLine2": "", "Distance": 18.5, "Latitude": 47.61622, "Longitude": -122.3497}, {"Sequence": 41, "PersonId": 104033, "AddressId": 3590842, "Specialty": "General Practice", "Photo": "findadentist.ada.org/Images/Profile/104033-Dr-Sean-Murphy.png", "Name": "Dr Sean M Murphy", "Email": "info@seanmurphydds.com", "Phone": "(253) 858-8164", "Address": "5201 Olympic Dr NW Ste 140 Gig Harbor, WA 98335", "City": "Gig Harbor", "State": "WA", "Zip": "98335", "AddressLine1": "5201 Olympic Dr NW Ste 140", "AddressLine2": "", "Distance": 13.0, "Latitude": 47.30545, "Longitude": -122.58284}, {"Sequence": 42, "PersonId": 146587, "AddressId": 1487092, "Specialty": "Endodontics", "Photo": "findadentist.ada.org/Images/Profile/146587-Dr-Steven-Baerg.png", "Name": "Dr. Steven D Baerg", "Email": "", "Phone": "(253) 858-9660", "Address": "2727 Hollycroft St  Suite 370 Gig Harbor, WA 98335-1346", "City": "Gig Harbor", "State": "WA", "Zip": "98335-1346", "AddressLine1": "2727 Hollycroft St  Suite 370", "AddressLine2": "", "Distance": 12.8, "Latitude": 47.30948, "Longitude": -122.57573}, {"Sequence": 43, "PersonId": 214077, "AddressId": 1554582, "Specialty": "Periodontics", "Photo": "findadentist.ada.org/Images/Profile/214077-Dr-Laura-Cardenas.png", "Name": "Dr. Laura Cardenas", "Email": "frontdesk@bainbridgeperio.com", "Phone": "(206) 780-4111", "Address": "525 High School Rd NW Bainbridge Island, WA 98110-1606", "City": "Bainbridge Island", "State": "WA", "Zip": "98110-1606", "AddressLine1": "525 High School Rd NW", "AddressLine2": "", "Distance": 13.3, "Latitude": 47.63531, "Longitude": -122.52667}, {"Sequence": 44, "PersonId": 342909, "AddressId": 2809005, "Specialty": "General Practice", "Photo": "findadentist.ada.org/Images/Profile/342909-Dr-Lisa-Horschman.png", "Name": "Dr Lisa M Horschman", "Email": "lisahorschmandds@poulsbodentalcare.com", "Phone": "(360) 779-5546", "Address": "20855 Bond Rd NE Poulsbo, WA 98370-9014", "City": "Poulsbo", "State": "WA", "Zip": "98370-9014", "AddressLine1": "20855 Bond Rd NE", "AddressLine2": "", "Distance": 19.0, "Latitude": 47.75187, "Longitude": -122.64668}, {"Sequence": 45, "PersonId": 138056, "AddressId": 1478561, "Specialty": "General Practice", "Photo": "findadentist.ada.org/Images/Profile/138056-Dr-Ethan-Janson.png", "Name": "Dr. Ethan V Janson", "Email": "ejanson@seattle-dentist.com", "Phone": "(206) 623-0809", "Address": "1325 4th Ave Ste 1227 Seattle, WA 98101-2516", "City": "Seattle", "State": "WA", "Zip": "98101-2516", "AddressLine1": "1325 4th Ave Ste 1227", "AddressLine2": "", "Distance": 18.8, "Latitude": 47.60876, "Longitude": -122.33594}, {"Sequence": 46, "PersonId": 182226, "AddressId": 3351551, "Specialty": "General Practice", "Photo": "findadentist.ada.org/Images/Profile/182226-Dr-M-Wiley.png", "Name": "Dr. M J Wiley", "Email": "", "Phone": "(206) 783-0400", "Address": "5803 15Th Ave Nw Seattle, WA 98107-3006", "City": "Seattle", "State": "WA", "Zip": "98107-3006", "AddressLine1": "5803 15Th Ave Nw", "AddressLine2": "", "Distance": 19.8, "Latitude": 47.67117, "Longitude": -122.37646}, {"Sequence": 47, "PersonId": 102181, "AddressId": 1442686, "Specialty": "Pediatric Dentistry", "Photo": "findadentist.ada.org/Images/Profile/102181-Dr-Jeff-Hays.png", "Name": "Dr Jeff Hays", "Email": "deanne@kitsapdfc.com", "Phone": "(360) 377-3844", "Address": "1425 NE Franklin Ave Bremerton, WA 98311-3026", "City": "Bremerton", "State": "WA", "Zip": "98311-3026", "AddressLine1": "1425 NE Franklin Ave", "AddressLine2": "", "Distance": 9.6, "Latitude": 47.61171, "Longitude": -122.63124}, {"Sequence": 48, "PersonId": 103794, "AddressId": 1444299, "Specialty": "General Practice", "Photo": "findadentist.ada.org/Images/Profile/103794-Dr-Thomas-Roberts.png", "Name": "Dr Tom Roberts", "Email": "", "Phone": "(206) 284-4412", "Address": "100 W Harrison St Ste 150 Seattle, WA 98119-4116", "City": "Seattle", "State": "WA", "Zip": "98119-4116", "AddressLine1": "100 W Harrison St Ste 150", "AddressLine2": "", "Distance": 18.4, "Latitude": 47.62271, "Longitude": -122.35865}, {"Sequence": 49, "PersonId": 203043, "AddressId": 3355268, "Specialty": "Prosthodontics", "Photo": "findadentist.ada.org/Images/Profile/203043-Dr-Dean-Kois.png", "Name": "Dr. Dean E Kois", "Email": "", "Phone": "(206) 515-9500", "Address": "1001 Fairview Ave N  Suite 2000 Seattle, WA 98109-4463", "City": "Seattle", "State": "WA", "Zip": "98109-4463", "AddressLine1": "1001 Fairview Ave N  Suite 2000", "AddressLine2": "", "Distance": 19.7, "Latitude": 47.62877, "Longitude": -122.33174}, {"Sequence": 50, "PersonId": 104279, "AddressId": 2709752, "Specialty": "General Practice", "Photo": "findadentist.ada.org/Images/Profile/104279-Dr-Deirdre-Yen.png", "Name": "Dr Deirdre J Yen", "Email": "", "Phone": null, "Address": "16006 Military Rd S Seatac, WA 98188-3007", "City": "Seatac", "State": "WA", "Zip": "98188-3007", "AddressLine1": "16006 Military Rd S", "AddressLine2": "", "Distance": 19.0, "Latitude": 47.45948, "Longitude": -122.28537}, {"Sequence": 51, "PersonId": 103553, "AddressId": 1444058, "Specialty": "General Practice", "Photo": "findadentist.ada.org/Images/Profile/103553-Dr-Jeff-Abolofia.png", "Name": "Dr Jeff S Abolofia", "Email": "", "Phone": "(206) 243-3400", "Address": "207 SW 156th St #3 Burien, WA 98166-2561", "City": "Burien", "State": "WA", "Zip": "98166-2561", "AddressLine1": "207 SW 156th St #3", "AddressLine2": "", "Distance": 16.5, "Latitude": 47.46309, "Longitude": -122.33718}, {"Sequence": 52, "PersonId": 103522, "AddressId": 3521387, "Specialty": "General Practice", "Photo": "findadentist.ada.org/Images/Profile/103522-Dr-Patrick-Hogan.png", "Name": "Dr Patrick M Hogan", "Email": "", "Phone": "(206) 935-0100", "Address": "3255 California Ave SW Seattle, WA 98116-3304", "City": "Seattle", "State": "WA", "Zip": "98116-3304", "AddressLine1": "3255 California Ave SW", "AddressLine2": "", "Distance": 15.6, "Latitude": 47.57414, "Longitude": -122.38709}, {"Sequence": 53, "PersonId": 104250, "AddressId": 3514450, "Specialty": "Periodontics", "Photo": "findadentist.ada.org/Images/Profile/104250-Dr-Charles-Anderegg.png", "Name": "Dr. Charles R Anderegg, Jr.", "Email": "PERIO@CRANDEREGG.COM", "Phone": null, "Address": "9245 Rainier Ave S Seattle, WA 98118-5569", "City": "Seattle", "State": "WA", "Zip": "98118-5569", "AddressLine1": "9245 Rainier Ave S", "AddressLine2": "", "Distance": 19.9, "Latitude": 47.51961, "Longitude": -122.26924}, {"Sequence": 54, "PersonId": 255707, "AddressId": 3351515, "Specialty": "General Practice", "Photo": "findadentist.ada.org/Images/Profile/255707-Dr-Amanda-Guerrero.png", "Name": "Dr. Amanda Y Guerrero", "Email": "", "Phone": null, "Address": "1101 Madison St Ste 1230 Seattle, WA 98104-1320", "City": "Seattle", "State": "WA", "Zip": "98104-1320", "AddressLine1": "1101 Madison St Ste 1230", "AddressLine2": "", "Distance": 19.3, "Latitude": 47.60924, "Longitude": -122.3242}, {"Sequence": 55, "PersonId": 102117, "AddressId": 1442622, "Specialty": "Dental Public Health", "Photo": "findadentist.ada.org/Images/Profile/102117-Dr-Wesley-Hanson.png", "Name": "Dr Wesley L Hanson, Jr", "Email": "periopro@telebyte.com", "Phone": "(360) 779-4556", "Address": "1040 NE Hostmark St Ste 100A Poulsbo, WA 98370-7337", "City": "Poulsbo", "State": "WA", "Zip": "98370-7337", "AddressLine1": "1040 NE Hostmark St Ste 100A", "AddressLine2": "", "Distance": 17.9, "Latitude": 47.73428, "Longitude": -122.6353}, {"Sequence": 56, "PersonId": 103643, "AddressId": 1444148, "Specialty": "General Practice", "Photo": "findadentist.ada.org/Images/Profile/103643-Dr-J-Bede.png", "Name": "Dr J Brewster Bede", "Email": "bedesmiles@yahoo.com", "Phone": "(206) 682-3530", "Address": "720 Olive Way Ste 800 Seattle, WA 98101-1836", "City": "Seattle", "State": "WA", "Zip": "98101-1836", "AddressLine1": "720 Olive Way Ste 800", "AddressLine2": "", "Distance": 19.1, "Latitude": 47.61418, "Longitude": -122.33473}, {"Sequence": 57, "PersonId": 112629, "AddressId": 3279229, "Specialty": "General Practice", "Photo": "findadentist.ada.org/Images/Profile/112629-Dr-David-Houpt.png", "Name": "Dr. David C Houpt", "Email": "silverdalesmiles@msn.com", "Phone": "(360) 692-9437", "Address": "8745 Pacific Ave Nw Ste 101 Silverdale, WA 98383-8394", "City": "Silverdale", "State": "WA", "Zip": "98383-8394", "AddressLine1": "8745 Pacific Ave Nw Ste 101", "AddressLine2": "", "Distance": 11.4, "Latitude": 47.64347, "Longitude": -122.69849}, {"Sequence": 58, "PersonId": 250245, "AddressId": 2762234, "Specialty": "Pediatric Dentistry", "Photo": "findadentist.ada.org/Images/Profile/250245-Dr-Megan-Miller.png", "Name": "Dr. Megan E Miller", "Email": "", "Phone": "(360) 698-3242", "Address": "1358 NE McWilliams Rd Bremerton, WA 98311-3114", "City": "Bremerton", "State": "WA", "Zip": "98311-3114", "AddressLine1": "1358 NE McWilliams Rd", "AddressLine2": "", "Distance": 10.4, "Latitude": 47.62292, "Longitude": -122.63244}, {"Sequence": 59, "PersonId": 121274, "AddressId": 1461779, "Specialty": "Pediatric Dentistry", "Photo": "findadentist.ada.org/Images/Profile/121274-Dr-Katrina-Hays.png", "Name": "Dr. Katrina L Hays", "Email": "deanne@kitsapdfc.com", "Phone": "(360) 377-3844", "Address": "1425 NE Franklin Ave Bremerton, WA 98311-3026", "City": "Bremerton", "State": "WA", "Zip": "98311-3026", "AddressLine1": "1425 NE Franklin Ave", "AddressLine2": "", "Distance": 9.6, "Latitude": 47.61175, "Longitude": -122.63126}, {"Sequence": 60, "PersonId": 104861, "AddressId": 2802583, "Specialty": "General Practice", "Photo": "findadentist.ada.org/Images/Profile/104861-Dr-David-Sherrard.png", "Name": "Dr. David Sherrard", "Email": "djsddspllc@aol.com", "Phone": "(360) 692-1122", "Address": "3100 NW Bucklin Hill Rd Ste 209 Silverdale, WA 98383-8362", "City": "Silverdale", "State": "WA", "Zip": "98383-8362", "AddressLine1": "3100 NW Bucklin Hill Rd Ste 209", "AddressLine2": "", "Distance": 11.9, "Latitude": 47.65082, "Longitude": -122.69176}, {"Sequence": 61, "PersonId": 260503, "AddressId": 3473748, "Specialty": "General Practice", "Photo": "findadentist.ada.org/Images/Profile/260503-Dr-Sirisha-Bhamidipaty.png", "Name": "Dr. Sirisha Bhamidipaty", "Email": "office@dentaltom.com", "Phone": "(206) 682-3135", "Address": "509 Olive Way Ste 1640 Seattle, WA 98101-1770", "City": "Seattle", "State": "WA", "Zip": "98101-1770", "AddressLine1": "509 Olive Way Ste 1640", "AddressLine2": "", "Distance": 18.9, "Latitude": 47.61271, "Longitude": -122.33661}, {"Sequence": 62, "PersonId": 104365, "AddressId": 1444870, "Specialty": "General Practice", "Photo": "findadentist.ada.org/Images/Profile/104365-Dr-Kathy-Curtis.png", "Name": "Dr Kathy Curtis", "Email": "appts@kathycurtisdds.com", "Phone": "(206) 624-9912", "Address": "925 4th Ave Ste 410 Seattle, WA 98104-1136", "City": "Seattle", "State": "WA", "Zip": "98104-1136", "AddressLine1": "925 4th Ave Ste 410", "AddressLine2": "", "Distance": 18.8, "Latitude": 47.60548, "Longitude": -122.33323}, {"Sequence": 63, "PersonId": 257455, "AddressId": 3544215, "Specialty": "General Practice", "Photo": "findadentist.ada.org/Images/Profile/257455-Dr-Elizabeth-Davis.png", "Name": "Dr. Elizabeth Davis", "Email": "frontdesk@davisdentalhealth.com", "Phone": "(206) 762-8433", "Address": "14212 Ambaum Blvd SW Ste 100 Burien, WA 98166-1411", "City": "Burien", "State": "WA", "Zip": "98166-1411", "AddressLine1": "14212 Ambaum Blvd SW Ste 100", "AddressLine2": "", "Distance": 16.0, "Latitude": 47.47594, "Longitude": -122.34713}, {"Sequence": 64, "PersonId": 103827, "AddressId": 2755274, "Specialty": "General Practice", "Photo": "findadentist.ada.org/Images/Profile/103827-Dr-Sabrina-Mandich.png", "Name": "Dr Sabrina M Mandich", "Email": "office@drmandich.com", "Phone": "(206) 246-1000", "Address": "207 SW 156th St Ste 1 Burien, WA 98166-2561", "City": "Burien", "State": "WA", "Zip": "98166-2561", "AddressLine1": "207 SW 156th St Ste 1", "AddressLine2": "", "Distance": 16.5, "Latitude": 47.46309, "Longitude": -122.33718}, {"Sequence": 65, "PersonId": 103816, "AddressId": 2709034, "Specialty": "Orthodontics and Dentofacial Orthopedics", "Photo": "findadentist.ada.org/Images/Profile/103816-Dr-Glenn-Yorita.png", "Name": "Dr Glenn J Yorita", "Email": "dryorita@gmail.com", "Phone": "(206) 723-2571", "Address": "9040 Rainier Ave S Seattle, WA 98118-5000", "City": "Seattle", "State": "WA", "Zip": "98118-5000", "AddressLine1": "9040 Rainier Ave S", "AddressLine2": "", "Distance": 19.9, "Latitude": 47.52225, "Longitude": -122.26961}, {"Sequence": 66, "PersonId": 255890, "AddressId": 2827477, "Specialty": "General Practice", "Photo": "findadentist.ada.org/Images/Profile/255890-Dr-Young Min-Lee.png", "Name": "Dr. Young Min Lee", "Email": "", "Phone": "(951) 235-1230", "Address": "15726 1St Ave S Burien, WA 98148-1211", "City": "Burien", "State": "WA", "Zip": "98148-1211", "AddressLine1": "15726 1St Ave S", "AddressLine2": "", "Distance": 16.7, "Latitude": 47.46196, "Longitude": -122.33275}, {"Sequence": 67, "PersonId": 241439, "AddressId": 2738718, "Specialty": "Pediatric Dentistry", "Photo": "findadentist.ada.org/Images/Profile/241439-Dr-Kari-Sims.png", "Name": "Dr. Kari A Sims", "Email": "", "Phone": null, "Address": "2101 E Yesler Way Seattle, WA 98122", "City": "Seattle", "State": "WA", "Zip": "98122", "AddressLine1": "2101 E Yesler Way", "AddressLine2": "", "Distance": 19.9, "Latitude": 47.60133, "Longitude": -122.30463}, {"Sequence": 68, "PersonId": 143070, "AddressId": 3452945, "Specialty": "Periodontics", "Photo": "findadentist.ada.org/Images/Profile/143070-Dr-Minou-Karbakhsch.png", "Name": "Dr. Minou Karbakhsch", "Email": "Info@mkperio.com", "Phone": "(253) 752-6336", "Address": "2302 S Union Ave, Suite C-22 Tacoma, WA 98405-1334", "City": "Tacoma", "State": "WA", "Zip": "98405-1334", "AddressLine1": "2302 S Union Ave, Suite C-22", "AddressLine2": "", "Distance": 19.2, "Latitude": 47.23828, "Longitude": -122.48276}, {"Sequence": 69, "PersonId": 194967, "AddressId": 2747419, "Specialty": "Orthodontics and Dentofacial Orthopedics", "Photo": "findadentist.ada.org/Images/Profile/194967-Dr-Jack-Hou.png", "Name": "Dr. Jack Hou", "Email": "", "Phone": "(206) 935-2414", "Address": "2617 California Ave SW Seattle, WA 98116-2404", "City": "Seattle", "State": "WA", "Zip": "98116-2404", "AddressLine1": "2617 California Ave SW", "AddressLine2": "", "Distance": 15.8, "Latitude": 47.58064, "Longitude": -122.38684}, {"Sequence": 70, "PersonId": 232502, "AddressId": 3106048, "Specialty": "General Practice", "Photo": "findadentist.ada.org/Images/Profile/232502-Dr-Megan-Jones.png", "Name": "Dr. Megan D Jones", "Email": "", "Phone": "(206) 923-3684", "Address": "2600 SW Barton St Ste E20 Seattle, WA 98126-3949", "City": "Seattle", "State": "WA", "Zip": "98126-3949", "AddressLine1": "2600 SW Barton St Ste E20", "AddressLine2": "", "Distance": 15.5, "Latitude": 47.52141, "Longitude": -122.36509}, {"Sequence": 71, "PersonId": 121274, "AddressId": 3507438, "Specialty": "Pediatric Dentistry", "Photo": "findadentist.ada.org/Images/Profile/121274-Dr-Katrina-Hays.png", "Name": "Dr. Katrina L Hays", "Email": "deanne@kitsapdfc.com", "Phone": "(360) 876-9507", "Address": "1931 Pottery Ave. Port Orchard, WA 98366", "City": "Port Orchard", "State": "WA", "Zip": "98366", "AddressLine1": "1931 Pottery Ave.", "AddressLine2": "", "Distance": 3.4, "Latitude": 47.51933, "Longitude": -122.6516}, {"Sequence": 72, "PersonId": 188828, "AddressId": 3527195, "Specialty": "General Practice", "Photo": "findadentist.ada.org/Images/Profile/188828-Dr-Joseph-Lee.png", "Name": "Dr. Joseph S Lee", "Email": "info@burienfamilydentalcare.com", "Phone": "(206) 802-2707", "Address": "112 SW 160th St Burien, WA 98166-3025", "City": "Burien", "State": "WA", "Zip": "98166-3025", "AddressLine1": "112 SW 160th St", "AddressLine2": "", "Distance": 16.6, "Latitude": 47.45997, "Longitude": -122.33496}, {"Sequence": 73, "PersonId": 217657, "AddressId": 1558162, "Specialty": "Oral and Maxillofacial Surgery", "Photo": "findadentist.ada.org/Images/Profile/217657-Dr-William-Kenner.png", "Name": "Dr. William C Kenner, V", "Email": "", "Phone": "(206) 248-1339", "Address": "1800 SW 152nd St Ste 201 Burien, WA 98166-1700", "City": "Burien", "State": "WA", "Zip": "98166-1700", "AddressLine1": "1800 SW 152nd St Ste 201", "AddressLine2": "", "Distance": 15.6, "Latitude": 47.46691, "Longitude": -122.35776}, {"Sequence": 74, "PersonId": 103572, "AddressId": 1444077, "Specialty": "General Practice", "Photo": "findadentist.ada.org/Images/Profile/103572-Dr-Terry-Wong.png", "Name": "Dr Terry M Wong", "Email": "", "Phone": "(206) 682-4166", "Address": "307 6th Ave S Seattle, WA 98104-2713", "City": "Seattle", "State": "WA", "Zip": "98104-2713", "AddressLine1": "307 6th Ave S", "AddressLine2": "", "Distance": 18.9, "Latitude": 47.59976, "Longitude": -122.32661}, {"Sequence": 75, "PersonId": 243424, "AddressId": 2748558, "Specialty": "General Practice", "Photo": "findadentist.ada.org/Images/Profile/243424-Dr-Sonika-Singla.png", "Name": "Dr. Sonika Singla", "Email": "burien@rewardsdental.com", "Phone": "(206) 343-0000", "Address": "14212 Ambaum Blvd SW Ste 1 Burien, WA 98166-1437", "City": "Burien", "State": "WA", "Zip": "98166-1437", "AddressLine1": "14212 Ambaum Blvd SW Ste 1", "AddressLine2": "", "Distance": 16.0, "Latitude": 47.47605, "Longitude": -122.34718}, {"Sequence": 76, "PersonId": 197623, "AddressId": 1538128, "Specialty": "General Practice", "Photo": "findadentist.ada.org/Images/Profile/197623-Dr-Geoffrey-Seuk.png", "Name": "Dr. Geoffrey D Seuk", "Email": "", "Phone": "(206) 282-3339", "Address": "1530 Westlake Ave N Ste 500 Seattle, WA 98109-3096", "City": "Seattle", "State": "WA", "Zip": "98109-3096", "AddressLine1": "1530 Westlake Ave N Ste 500", "AddressLine2": "", "Distance": 19.5, "Latitude": 47.63329, "Longitude": -122.34006}, {"Sequence": 77, "PersonId": 103790, "AddressId": 1444295, "Specialty": "General Practice", "Photo": "findadentist.ada.org/Images/Profile/103790-Dr-Marvin-Osterhout.png", "Name": "Dr Marvin J Osterhout", "Email": "Marvin@DrOsterhout.com", "Phone": "(206) 878-2673", "Address": "22221 7th Ave S Ste B Des Moines, WA 98198-6223", "City": "Des Moines", "State": "WA", "Zip": "98198-6223", "AddressLine1": "22221 7th Ave S Ste B", "AddressLine2": "", "Distance": 17.8, "Latitude": 47.40264, "Longitude": -122.32633}, {"Sequence": 78, "PersonId": 138116, "AddressId": 1478621, "Specialty": "General Practice", "Photo": "findadentist.ada.org/Images/Profile/138116-Dr-Jamie-Brooks.png", "Name": "Dr. Jamie L Brooks", "Email": "", "Phone": "(253) 777-0600", "Address": "732 Broadway Ste 101 Tacoma, WA 98402-3702", "City": "Tacoma", "State": "WA", "Zip": "98402-3702", "AddressLine1": "732 Broadway Ste 101", "AddressLine2": "", "Distance": 19.3, "Latitude": 47.25654, "Longitude": -122.44124}, {"Sequence": 79, "PersonId": 198291, "AddressId": 3411784, "Specialty": "General Practice", "Photo": "findadentist.ada.org/Images/Profile/198291-Dr-Christopher-Kerr.png", "Name": "Dr. Christopher Kerr", "Email": "info@kitsapfamilydentistry.com", "Phone": "(253) 588-1774", "Address": "10209 Bridgeport Way SW Lakewood, WA 98499", "City": "Lakewood", "State": "WA", "Zip": "98499", "AddressLine1": "10209 Bridgeport Way SW", "AddressLine2": "Suite B-10", "Distance": 9.0, "Latitude": 47.60101, "Longitude": -122.6282}, {"Sequence": 80, "PersonId": 202843, "AddressId": 2747417, "Specialty": "Orthodontics and Dentofacial Orthopedics", "Photo": "findadentist.ada.org/Images/Profile/202843-Dr-Kortne-Frederick Hou.png", "Name": "Dr. Kortne K Frederick Hou", "Email": "", "Phone": "(206) 935-2414", "Address": "2617 California Ave Sw Seattle, WA 98116-2404", "City": "Seattle", "State": "WA", "Zip": "98116-2404", "AddressLine1": "2617 California Ave Sw", "AddressLine2": "", "Distance": 15.8, "Latitude": 47.58064, "Longitude": -122.38684}, {"Sequence": 81, "PersonId": 140327, "AddressId": 3431180, "Specialty": "General Practice", "Photo": "findadentist.ada.org/Images/Profile/140327-Dr-Kelly-Thompson.png", "Name": "Dr. Kelly E Thompson", "Email": "", "Phone": "(206) 842-9890", "Address": "1037 Madison Ave N Bainbridge Island, WA 98110-1727", "City": "Bainbridge Island", "State": "WA", "Zip": "98110-1727", "AddressLine1": "1037 Madison Ave N", "AddressLine2": "", "Distance": 13.3, "Latitude": 47.63329, "Longitude": -122.52159}, {"Sequence": 82, "PersonId": 246804, "AddressId": 3177882, "Specialty": "General Practice", "Photo": "findadentist.ada.org/Images/Profile/246804-Dr-Brittany-Dean.png", "Name": "Dr. Brittany T Dean", "Email": "bdean@seattlecca.org", "Phone": "(855) 577-0555", "Address": "825 Eastlake Ave. E Seattle, WA 98109", "City": "Seattle", "State": "WA", "Zip": "98109", "AddressLine1": "825 Eastlake Ave. E", "AddressLine2": "", "Distance": 19.7, "Latitude": 47.62647, "Longitude": -122.3298}, {"Sequence": 83, "PersonId": 268553, "AddressId": 3385894, "Specialty": "General Practice", "Photo": "findadentist.ada.org/Images/Profile/268553-Dr-Ann-Jones.png", "Name": "Dr. Ann Jones", "Email": "amjones@pchsweb.org", "Phone": "(360) 895-6464", "Address": "1950 Pottery Ave Ste 170 Port Orchard, WA 98366-2591", "City": "Port Orchard", "State": "WA", "Zip": "98366-2591", "AddressLine1": "1950 Pottery Ave Ste 170", "AddressLine2": "", "Distance": 3.3, "Latitude": 47.51883, "Longitude": -122.65337}, {"Sequence": 84, "PersonId": 202537, "AddressId": 1543042, "Specialty": "General Practice", "Photo": "findadentist.ada.org/Images/Profile/202537-Dr-Bryan-Brenner.png", "Name": "Dr. Bryan D Brenner", "Email": "", "Phone": "(206) 762-2573", "Address": "10254 16th Ave SW Seattle, WA 98146-1432", "City": "Seattle", "State": "WA", "Zip": "98146-1432", "AddressLine1": "10254 16th Ave SW", "AddressLine2": "", "Distance": 15.9, "Latitude": 47.51056, "Longitude": -122.35419}, {"Sequence": 85, "PersonId": 265024, "AddressId": 3027277, "Specialty": "General Practice", "Photo": "findadentist.ada.org/Images/Profile/265024-Dr-Leslie-Whalen.png", "Name": "Dr. Leslie A Whalen", "Email": "", "Phone": "(360) 275-9300", "Address": "131 Ne Roy Boad Rd Belfair, WA 98528-8649", "City": "Belfair", "State": "WA", "Zip": "98528-8649", "AddressLine1": "131 Ne Roy Boad Rd", "AddressLine2": "Unit C", "Distance": 6.5, "Latitude": 47.45453, "Longitude": -122.82439}, {"Sequence": 86, "PersonId": 222833, "AddressId": 2835127, "Specialty": "Periodontics", "Photo": "findadentist.ada.org/Images/Profile/222833-Dr-Bradley-Weinstein.png", "Name": "Dr. Bradley F Weinstein", "Email": "", "Phone": "(206) 223-1501", "Address": "509 Olive Way Ste 1524 Seattle, WA 98101-1749", "City": "Seattle", "State": "WA", "Zip": "98101-1749", "AddressLine1": "509 Olive Way Ste 1524", "AddressLine2": "", "Distance": 18.9, "Latitude": 47.61275, "Longitude": -122.33657}, {"Sequence": 87, "PersonId": 150172, "AddressId": 3288322, "Specialty": "General Practice", "Photo": "findadentist.ada.org/Images/Profile/150172-Dr-Ernest-Li.png", "Name": "Dr. Ernest C Li", "Email": "", "Phone": "(360) 377-3779", "Address": "1950 Pottery Ave Ste 170 Port Orchard, WA 98366-2591", "City": "Port Orchard", "State": "WA", "Zip": "98366-2591", "AddressLine1": "1950 Pottery Ave Ste 170", "AddressLine2": "", "Distance": 3.3, "Latitude": 47.5189, "Longitude": -122.65341}, {"Sequence": 88, "PersonId": 102198, "AddressId": 2678767, "Specialty": "Pediatric Dentistry", "Photo": "findadentist.ada.org/Images/Profile/102198-Dr-John-Gibbons.png", "Name": "Dr John L Gibbons", "Email": "", "Phone": null, "Address": "9692 Levin Road Suite 202 Silverdale, WA 98383-7801", "City": "Silverdale", "State": "WA", "Zip": "98383-7801", "AddressLine1": "9692 Levin Road Suite 202", "AddressLine2": "", "Distance": 12.0, "Latitude": 47.65167, "Longitude": -122.6836}, {"Sequence": 89, "PersonId": 256375, "AddressId": 3321907, "Specialty": "Orthodontics and Dentofacial Orthopedics", "Photo": "findadentist.ada.org/Images/Profile/256375-Dr-Matthew-Stout.png", "Name": "Dr. Matthew M Stout", "Email": "info@advancedo.com", "Phone": "(206) 246-1300", "Address": "207 SW 156th St Ste 5 Burien, WA 98166-2561", "City": "Burien", "State": "WA", "Zip": "98166-2561", "AddressLine1": "207 SW 156th St Ste 5", "AddressLine2": "", "Distance": 16.5, "Latitude": 47.46309, "Longitude": -122.33718}, {"Sequence": 90, "PersonId": 230441, "AddressId": 3527509, "Specialty": "Periodontics", "Photo": "findadentist.ada.org/Images/Profile/230441-Dr-Aravind-Buddula.png", "Name": "Dr. Aravind Buddula", "Email": "", "Phone": "(206) 962-3442", "Address": "6135 Seaview Ave NW Ste 2E Seattle, WA 98107", "City": "Seattle", "State": "WA", "Zip": "98107", "AddressLine1": "6135 Seaview Ave NW Ste 2E", "AddressLine2": "", "Distance": 18.9, "Latitude": 47.67405, "Longitude": -122.40786}, {"Sequence": 91, "PersonId": 194671, "AddressId": 1535176, "Specialty": "Endodontics", "Photo": "findadentist.ada.org/Images/Profile/194671-Dr-David-Butler.png", "Name": "Dr. David W Butler", "Email": "dr.davidbutler@gmail.com", "Phone": "(360) 307-9797", "Address": "9692 Levin Rd NW #102 Silverdale, WA 98383-7801", "City": "Silverdale", "State": "WA", "Zip": "98383-7801", "AddressLine1": "9692 Levin Rd NW #102", "AddressLine2": "", "Distance": 12.0, "Latitude": 47.65167, "Longitude": -122.6836}, {"Sequence": 92, "PersonId": 260347, "AddressId": 3493446, "Specialty": "Orthodontics and Dentofacial Orthopedics", "Photo": "findadentist.ada.org/Images/Profile/260347-Dr-Carlos-Caballero.png", "Name": "Dr. Carlos O Caballero", "Email": "masterorthodontics@gmail.com", "Phone": "(253) 851-8890", "Address": "4700 Point Fosdick Dr. N.W., Suite 204 Gig Harbor, WA 98335", "City": "Gig Harbor", "State": "WA", "Zip": "98335", "AddressLine1": "4700 Point Fosdick Dr. N.W., Suite 204", "AddressLine2": "", "Distance": 13.3, "Latitude": 47.30049, "Longitude": -122.58125}, {"Sequence": 93, "PersonId": 350718, "AddressId": 3550534, "Specialty": "General Practice", "Photo": "findadentist.ada.org/Images/Profile/350718-Dr-Kasey-Gillespie.png", "Name": "Dr Kasey R Gillespie", "Email": "info@clearcreekdentistry.net", "Phone": "(360) 692-6332", "Address": "2430 NW Myhre Rd Silverdale, WA 98383", "City": "Silverdale", "State": "WA", "Zip": "98383", "AddressLine1": "2430 NW Myhre Rd", "AddressLine2": "", "Distance": 12.5, "Latitude": 47.65972, "Longitude": -122.68032}, {"Sequence": 94, "PersonId": 235048, "AddressId": 2925194, "Specialty": "General Practice", "Photo": "findadentist.ada.org/Images/Profile/235048-Dr-Arvind-Petrie.png", "Name": "Dr. Arvind J Petrie", "Email": "", "Phone": "(253) 761-5422", "Address": "1550 S Union Ave Ste 150 Tacoma, WA 98405-1946", "City": "Tacoma", "State": "WA", "Zip": "98405-1946", "AddressLine1": "1550 S Union Ave Ste 150", "AddressLine2": "", "Distance": 18.8, "Latitude": 47.24531, "Longitude": -122.48372}, {"Sequence": 95, "PersonId": 105154, "AddressId": 1445659, "Specialty": "General Practice", "Photo": "findadentist.ada.org/Images/Profile/105154-Dr-Mostafa-Norooz.png", "Name": "Dr. Mostafa Norooz", "Email": "", "Phone": "(253) 383-3713", "Address": "314 Martin Luther King Jr Way Tacoma, WA 98405-4271", "City": "Tacoma", "State": "WA", "Zip": "98405-4271", "AddressLine1": "314 Martin Luther King Jr Way", "AddressLine2": "#206", "Distance": 18.7, "Latitude": 47.25968, "Longitude": -122.45394}, {"Sequence": 96, "PersonId": 103799, "AddressId": 1444304, "Specialty": "Orthodontics and Dentofacial Orthopedics", "Photo": "findadentist.ada.org/Images/Profile/103799-Dr-Heidi-Horwitz.png", "Name": "Dr Heidi Horwitz", "Email": "", "Phone": "(206) 938-9380", "Address": "2743 California Ave Sw Ste 201 Seattle, WA 98116-2405", "City": "Seattle", "State": "WA", "Zip": "98116-2405", "AddressLine1": "2743 California Ave Sw Ste 201", "AddressLine2": "", "Distance": 15.7, "Latitude": 47.578, "Longitude": -122.38706}, {"Sequence": 97, "PersonId": 105026, "AddressId": 1445531, "Specialty": "General Practice", "Photo": "findadentist.ada.org/Images/Profile/105026-Dr-John-Olsson.png", "Name": "Dr. John D Olsson", "Email": "keycenterfamilydentistry@comcast.net", "Phone": "(253) 884-9455", "Address": "9013 Key Peninsula Hwy N Lakebay, WA 98349-8518", "City": "Lakebay", "State": "WA", "Zip": "98349-8518", "AddressLine1": "9013 Key Peninsula Hwy N", "AddressLine2": "", "Distance": 9.9, "Latitude": 47.33928, "Longitude": -122.74581}, {"Sequence": 98, "PersonId": 196659, "AddressId": 3369722, "Specialty": "General Practice", "Photo": "findadentist.ada.org/Images/Profile/196659-Dr-Karla-Bloomquist.png", "Name": "Dr. Karla Bloomquist", "Email": "info@soundbridgedentalarts.com", "Phone": "(253) 857-4114", "Address": "2727 Hollycroft St Ste 280 Gig Harbor, WA 98335-1305", "City": "Gig Harbor", "State": "WA", "Zip": "98335-1305", "AddressLine1": "2727 Hollycroft St Ste 280", "AddressLine2": "", "Distance": 12.8, "Latitude": 47.30948, "Longitude": -122.57573}, {"Sequence": 99, "PersonId": 146588, "AddressId": 1487093, "Specialty": "Orthodontics and Dentofacial Orthopedics", "Photo": "findadentist.ada.org/Images/Profile/146588-Dr-Vincent-Kokich.png", "Name": "Dr. Vincent O Kokich", "Email": "", "Phone": "(253) 752-3949", "Address": "2302 S Union Ave Ste B14 Tacoma, WA 98405-1333", "City": "Tacoma", "State": "WA", "Zip": "98405-1333", "AddressLine1": "2302 S Union Ave Ste B14", "AddressLine2": "", "Distance": 19.2, "Latitude": 47.2383, "Longitude": -122.48313}, {"Sequence": 100, "PersonId": 249144, "AddressId": 3172302, "Specialty": "General Practice", "Photo": "findadentist.ada.org/Images/Profile/249144-Dr-Corinne-Reschenthaler.png", "Name": "Dr. Corinne D Reschenthaler", "Email": "info@silverdaledentalcenter.com", "Phone": "(855) 692-9560", "Address": "3637 NW Byron Street Silverdale, WA 98383", "City": "Silverdale", "State": "WA", "Zip": "98383", "AddressLine1": "3637 NW Byron Street", "AddressLine2": "", "Distance": 11.5, "Latitude": 47.64421, "Longitude": -122.69841}]