[{"Sequence": 1, "PersonId": 101685, "AddressId": 3437406, "Specialty": "General Practice", "Photo": "findadentist.ada.org/Images/Profile/101685-Dr-Rodney-Katayama.png", "Name": "Rodney S Katayama DDS", "Email": "info@dentalcentralnw.com", "Phone": "(503) 325-2031", "Address": "65 N Highway 101 Ste 212 Warrenton, OR 97146-9371", "City": "Warrenton", "State": "OR", "Zip": "97146-9371", "AddressLine1": "65 N Highway 101 Ste 212", "AddressLine2": "", "Distance": 12.2, "Latitude": 46.16431, "Longitude": -123.89539}, {"Sequence": 2, "PersonId": 69259, "AddressId": 1409764, "Specialty": "General Practice", "Photo": "findadentist.ada.org/Images/Profile/69259-Dr-Jon-Bletscher.png", "Name": "Jon D Bletscher DMD", "Email": "", "Phone": "(503) 861-3707", "Address": "1085 E Harbor St Warrenton, OR 97146-9627", "City": "Warrenton", "State": "OR", "Zip": "97146-9627", "AddressLine1": "1085 E Harbor St", "AddressLine2": "", "Distance": 11.9, "Latitude": 46.16431, "Longitude": -123.90935}, {"Sequence": 3, "PersonId": 218566, "AddressId": 3375774, "Specialty": "General Practice", "Photo": "findadentist.ada.org/Images/Profile/218566-Dr-Christina-Alexandroff.png", "Name": "Dr. Christina M Alexandroff", "Email": "INFO@ALEXADENTAL.COM", "Phone": "(503) 325-3250", "Address": "1630 Se Ensign Ln Warrenton, OR 97146-7338", "City": "Warrenton", "State": "OR", "Zip": "97146-7338", "AddressLine1": "1630 Se Ensign Ln", "AddressLine2": "", "Distance": 12.5, "Latitude": 46.14912, "Longitude": -123.91998}, {"Sequence": 4, "PersonId": 69258, "AddressId": 1409763, "Specialty": "General Practice", "Photo": "findadentist.ada.org/Images/Profile/69258-Dr-Jeffrey-Leinassar.png", "Name": "Jeffrey M Leinassar DMD", "Email": "susan@smileastoria.com", "Phone": "(503) 325-0310", "Address": "1414 Marine Dr Astoria, OR 97103-3808", "City": "Astoria", "State": "OR", "Zip": "97103-3808", "AddressLine1": "1414 Marine Dr", "AddressLine2": "", "Distance": 13.2, "Latitude": 46.18961, "Longitude": -123.8285}, {"Sequence": 5, "PersonId": 69261, "AddressId": 1409766, "Specialty": "General Practice", "Photo": "findadentist.ada.org/Images/Profile/69261-Dr-Dennis-Klemp.png", "Name": "Dennis M Klemp DMD", "Email": "", "Phone": "(503) 468-0116", "Address": "1006 W Marine Dr Astoria, OR 97103-5826", "City": "Astoria", "State": "OR", "Zip": "97103-5826", "AddressLine1": "1006 W Marine Dr", "AddressLine2": "", "Distance": 13.1, "Latitude": 46.17528, "Longitude": -123.84983}, {"Sequence": 6, "PersonId": 243697, "AddressId": 2983517, "Specialty": "General Practice", "Photo": "findadentist.ada.org/Images/Profile/243697-Dr-Matt-Starley.png", "Name": "Dr. Matt P Starley", "Email": "Starleyfamilydentistry@gmail.com", "Phone": "(503) 325-6662", "Address": "520 15th St Astoria, OR 97103-3813", "City": "Astoria", "State": "OR", "Zip": "97103-3813", "AddressLine1": "520 15th St", "AddressLine2": "", "Distance": 13.3, "Latitude": 46.18778, "Longitude": -123.82686}, {"Sequence": 7, "PersonId": 218575, "AddressId": 3368946, "Specialty": "General Practice", "Photo": "findadentist.ada.org/Images/Profile/218575-Dr-Roman-Alexandroff.png", "Name": "Dr. Roman A Alexandroff", "Email": "info@alexadental.com", "Phone": "(503) 325-3230", "Address": "1630 SE Ensign Ln Warrenton, OR 97146-7338", "City": "Warrenton", "State": "OR", "Zip": "97146-7338", "AddressLine1": "1630 SE Ensign Ln", "AddressLine2": "", "Distance": 12.5, "Latitude": 46.14912, "Longitude": -123.91997}, {"Sequence": 8, "PersonId": 139875, "AddressId": 3431499, "Specialty": "General Practice", "Photo": "findadentist.ada.org/Images/Profile/ADA.png", "Name": "Dr. Jason W Tynkila", "Email": "tynkiladental@hotmail.com", "Phone": "(360) 642-3751", "Address": "205 12th St SE Long Beach, WA 98631-3884", "City": "Long Beach", "State": "WA", "Zip": "98631-3884", "AddressLine1": "205 12th St SE", "AddressLine2": "", "Distance": 2.5, "Latitude": 46.34451, "Longitude": -124.05323}, {"Sequence": 9, "PersonId": 233680, "AddressId": 1574185, "Specialty": "General Practice", "Photo": "findadentist.ada.org/Images/Profile/ADA.png", "Name": "Dr. Jeremiah D Shakespear", "Email": "", "Phone": "(503) 325-3533", "Address": "1775 Exchange St Astoria, OR 97103-3508", "City": "Astoria", "State": "OR", "Zip": "97103-3508", "AddressLine1": "1775 Exchange St", "AddressLine2": "", "Distance": 13.4, "Latitude": 46.18809, "Longitude": -123.82328}, {"Sequence": 10, "PersonId": 112632, "AddressId": 1453137, "Specialty": "General Practice", "Photo": "findadentist.ada.org/Images/Profile/ADA.png", "Name": "Dr. K D Carneiro", "Email": "", "Phone": "(503) 325-3533", "Address": "1775 Exchange St Astoria, OR 97103-3508", "City": "Astoria", "State": "OR", "Zip": "97103-3508", "AddressLine1": "1775 Exchange St", "AddressLine2": "", "Distance": 13.4, "Latitude": 46.18809, "Longitude": -123.82328}]